[
    {
        "name": "용화산 등산로 안내도",
        "lat": 38.005058,
        "lon": 127.739769
    },
    {
        "name": "용화산 양통 주차장",
        "lat": 38.008465,
        "lon": 127.739914
    },
    {
        "name": "갈림길",
        "lat": 38.024818,
        "lon": 127.740166
    },
    {
        "name": "쉼터",
        "lat": 38.03484,
        "lon": 127.74054
    },
    {
        "name": "갈림길",
        "lat": 38.034882,
        "lon": 127.740356
    },
    {
        "name": "쉼터",
        "lat": 38.037216,
        "lon": 127.740669
    },
    {
        "name": "정자",
        "lat": 38.037708,
        "lon": 127.739876
    },
    {
        "name": "화장실",
        "lat": 38.0392,
        "lon": 127.739899
    },
    {
        "name": "큰고개 주차장",
        "lat": 38.0392,
        "lon": 127.739876
    },
    {
        "name": "갈림길",
        "lat": 38.038975,
        "lon": 127.740067
    },
    {
        "name": "포토존",
        "lat": 38.0383,
        "lon": 127.741364
    },
    {
        "name": "추락주의구간",
        "lat": 38.0383,
        "lon": 127.741394
    },
    {
        "name": "조망점",
        "lat": 38.038273,
        "lon": 127.741379
    },
    {
        "name": "조망점",
        "lat": 38.038246,
        "lon": 127.742714
    },
    {
        "name": "포토존",
        "lat": 38.038189,
        "lon": 127.742668
    },
    {
        "name": "하늘벽 촛대바위 포토존",
        "lat": 38.038109,
        "lon": 127.743858
    },
    {
        "name": "갈림길",
        "lat": 38.038269,
        "lon": 127.742073
    },
    {
        "name": "샘터",
        "lat": 38.037239,
        "lon": 127.740921
    }
]