[
    {
        "name": "문경관광호텔 들머리",
        "lat": 36.761253,
        "lon": 128.077713
    },
    {
        "name": "소나무지대",
        "lat": 36.761608,
        "lon": 128.078369
    },
    {
        "name": "등로상태",
        "lat": 36.762238,
        "lon": 128.079788
    },
    {
        "name": "갈림길",
        "lat": 36.763241,
        "lon": 128.083801
    },
    {
        "name": "참나무 서식지",
        "lat": 36.763649,
        "lon": 128.083969
    },
    {
        "name": "소나무 바위지대",
        "lat": 36.766006,
        "lon": 128.089874
    },
    {
        "name": "멧돼지 흔적",
        "lat": 36.766891,
        "lon": 128.091034
    },
    {
        "name": "짧은 너덜",
        "lat": 36.766602,
        "lon": 128.093872
    },
    {
        "name": "너덜길",
        "lat": 36.766399,
        "lon": 128.09494
    },
    {
        "name": "바위 넘어감",
        "lat": 36.766418,
        "lon": 128.095154
    },
    {
        "name": "틀목고개 갈림길",
        "lat": 36.768196,
        "lon": 128.096268
    },
    {
        "name": "문경 조망바위",
        "lat": 36.768002,
        "lon": 128.097412
    },
    {
        "name": "주흘관봉",
        "lat": 36.768074,
        "lon": 128.097977
    },
    {
        "name": "주흘산 조망처",
        "lat": 36.768513,
        "lon": 128.09816
    },
    {
        "name": "부봉조망처",
        "lat": 36.773773,
        "lon": 128.100296
    },
    {
        "name": "낡은밧줄",
        "lat": 36.774113,
        "lon": 128.100891
    },
    {
        "name": "위험주의 표지판",
        "lat": 36.776123,
        "lon": 128.10173
    },
    {
        "name": "혜국사 나가는길",
        "lat": 36.774963,
        "lon": 128.084045
    },
    {
        "name": "불상탑",
        "lat": 36.774708,
        "lon": 128.083603
    },
    {
        "name": "행사임시주차장",
        "lat": 36.761215,
        "lon": 128.077667
    }
]