[
    {
        "path_id": 1,
        "name": "갈림길",
        "lat": 38.051804,
        "lon": 127.78759
    },
    {
        "path_id": 2,
        "name": "산촌생태단지(수불무산 입구)",
        "lat": 38.052364,
        "lon": 127.780136
    },
    {
        "path_id": 3,
        "name": "쉼터",
        "lat": 38.048912,
        "lon": 127.780739
    },
    {
        "path_id": 6,
        "name": "수불무산 정상",
        "lat": 38.03495,
        "lon": 127.777168
    },
    {
        "path_id": 7,
        "name": "수불무산 정상 바위 조망점",
        "lat": 38.034565,
        "lon": 127.777161
    },
    {
        "path_id": 8,
        "name": "수불무산 정상바위",
        "lat": 38.034523,
        "lon": 127.777138
    },
    {
        "path_id": 9,
        "name": "갈림길",
        "lat": 38.034416,
        "lon": 127.777107
    },
    {
        "path_id": 11,
        "name": "갈림길",
        "lat": 38.026825,
        "lon": 127.770836
    },
    {
        "path_id": 14,
        "name": "자연경관",
        "lat": 38.038391,
        "lon": 127.779823
    },
    {
        "path_id": 15,
        "name": "수불무산 전위봉",
        "lat": 38.03952,
        "lon": 127.780937
    },
    {
        "path_id": 17,
        "name": "갈림길",
        "lat": 38.04232,
        "lon": 127.78006
    },
    {
        "path_id": 18,
        "name": "갈림길",
        "lat": 38.043453,
        "lon": 127.779137
    }
]