{
    "max_ele": 772.095,
    "track": [
        {
            "path_id": 1,
            "name": "갈림길",
            "lat": 38.051804,
            "lon": 127.78759,
            "ele": 225.406
        },
        {
            "path_id": 2,
            "name": "산촌생태단지(수불무산 입구)",
            "lat": 38.052364,
            "lon": 127.780136,
            "ele": 256.886
        },
        {
            "path_id": 3,
            "name": "쉼터",
            "lat": 38.048912,
            "lon": 127.780739,
            "ele": 293.459
        },
        {
            "path_id": 6,
            "name": "수불무산 정상",
            "lat": 38.03495,
            "lon": 127.777168,
            "ele": 704.699
        },
        {
            "path_id": 7,
            "name": "수불무산 정상 바위 조망점",
            "lat": 38.034565,
            "lon": 127.777161,
            "ele": 717.812
        },
        {
            "path_id": 8,
            "name": "수불무산 정상바위",
            "lat": 38.034523,
            "lon": 127.777138,
            "ele": 722.415
        },
        {
            "path_id": 9,
            "name": "갈림길",
            "lat": 38.034416,
            "lon": 127.777107,
            "ele": 712.162
        },
        {
            "path_id": 11,
            "name": "갈림길",
            "lat": 38.026825,
            "lon": 127.770836,
            "ele": 772.095
        },
        {
            "path_id": 14,
            "name": "자연경관",
            "lat": 38.038391,
            "lon": 127.779823,
            "ele": 651.396
        },
        {
            "path_id": 15,
            "name": "수불무산 전위봉",
            "lat": 38.03952,
            "lon": 127.780937,
            "ele": 612.388
        },
        {
            "path_id": 17,
            "name": "갈림길",
            "lat": 38.04232,
            "lon": 127.78006,
            "ele": 408.158
        },
        {
            "path_id": 18,
            "name": "갈림길",
            "lat": 38.043453,
            "lon": 127.779137,
            "ele": 382.24
        }
    ]
}