[
  {
    "path_id": 0,
    "path": [
      {
        "lat": 37.545494,
        "lng": 127.583122
      },
      {
        "lat": 37.545956,
        "lng": 127.582588
      }
    ],
    "color": "#387a53",
    "start_name": "용문산 tourist",
    "length_meter": 69.7,
    "time_minute": 1
  },
  {
    "path_id": 1,
    "path": [
      {
        "lat": 37.545956,
        "lng": 127.582588
      },
      {
        "lat": 37.54644,
        "lng": 127.582054
      }
    ],
    "color": "#a4505d",
    "start_name": ",매표소",
    "length_meter": 71.5,
    "time_minute": 1
  },
  {
    "path_id": 2,
    "path": [
      {
        "lat": 37.54644,
        "lng": 127.582054
      },
      {
        "lat": 37.547085,
        "lng": 127.581467
      }
    ],
    "color": "#466d53",
    "start_name": "용문산 관광지 / 가족화장실",
    "length_meter": 98.1,
    "time_minute": 1
  },
  {
    "path_id": 3,
    "path": [
      {
        "lat": 37.547085,
        "lng": 127.581467
      },
      {
        "lat": 37.547413,
        "lng": 127.580429
      }
    ],
    "color": "#78683f",
    "start_name": "칰환경농업박물관",
    "length_meter": 98.5,
    "time_minute": 1
  },
  {
    "path_id": 4,
    "path": [
      {
        "lat": 37.547413,
        "lng": 127.580429
      },
      {
        "lat": 37.547192,
        "lng": 127.579697
      }
    ],
    "color": "#b83f25",
    "start_name": "한국민족독립운동발상지",
    "length_meter": 69.1,
    "time_minute": 1
  },
  {
    "path_id": 5,
    "path": [
      {
        "lat": 37.547192,
        "lng": 127.579697
      },
      {
        "lat": 37.548576,
        "lng": 127.57399
      }
    ],
    "color": "#6f7290",
    "start_name": "용문사 입구",
    "length_meter": 526.1,
    "time_minute": 8
  },
  {
    "path_id": 6,
    "path": [
      {
        "lat": 37.548576,
        "lng": 127.57399
      },
      {
        "lat": 37.549145,
        "lng": 127.571877
      }
    ],
    "color": "#9e8a90",
    "start_name": "용유정",
    "length_meter": 196.7,
    "time_minute": 3
  },
  {
    "path_id": 7,
    "path": [
      {
        "lat": 37.549145,
        "lng": 127.571877
      },
      {
        "lat": 37.549969,
        "lng": 127.571754
      }
    ],
    "color": "#7f5809",
    "start_name": "용문사 사천왕문 / 미르 / 용문사 테플스테이",
    "length_meter": 101.2,
    "time_minute": 1
  },
  {
    "path_id": 8,
    "path": [
      {
        "lat": 37.549969,
        "lng": 127.571754
      },
      {
        "lat": 37.54995,
        "lng": 127.571671
      }
    ],
    "color": "#a56e80",
    "start_name": "용문사 은행나무",
    "length_meter": 7.6,
    "time_minute": 0
  },
  {
    "path_id": 9,
    "path": [
      {
        "lat": 37.54995,
        "lng": 127.571671
      },
      {
        "lat": 37.551605,
        "lng": 127.569008
      }
    ],
    "color": "#40881d",
    "start_name": "용문사",
    "length_meter": 298.3,
    "time_minute": 4
  },
  {
    "path_id": 10,
    "path": [
      {
        "lat": 37.551605,
        "lng": 127.569008
      },
      {
        "lat": 37.551674,
        "lng": 127.568832
      }
    ],
    "color": "#38943c",
    "start_name": "갈림길",
    "length_meter": 17.3,
    "time_minute": 0
  },
  {
    "path_id": 11,
    "path": [
      {
        "lat": 37.551674,
        "lng": 127.568832
      },
      {
        "lat": 37.55143,
        "lng": 127.562859
      }
    ],
    "color": "#c66d24",
    "start_name": "벤취",
    "length_meter": 527.3,
    "time_minute": 8
  },
  {
    "path_id": 12,
    "path": [
      {
        "lat": 37.55143,
        "lng": 127.562859
      },
      {
        "lat": 37.550274,
        "lng": 127.560501
      }
    ],
    "color": "#aa5bc5",
    "start_name": "갈림길",
    "length_meter": 244.4,
    "time_minute": 4
  },
  {
    "path_id": 13,
    "path": [
      {
        "lat": 37.550274,
        "lng": 127.560501
      },
      {
        "lat": 37.547852,
        "lng": 127.55397
      }
    ],
    "color": "#733006",
    "start_name": "쉼터",
    "length_meter": 635.6,
    "time_minute": 10
  },
  {
    "path_id": 14,
    "path": [
      {
        "lat": 37.547852,
        "lng": 127.55397
      },
      {
        "lat": 37.547756,
        "lng": 127.553551
      }
    ],
    "color": "#777840",
    "start_name": "상원사 주차장",
    "length_meter": 38.5,
    "time_minute": 0
  },
  {
    "path_id": 15,
    "path": [
      {
        "lat": 37.547756,
        "lng": 127.553551
      },
      {
        "lat": 37.553051,
        "lng": 127.539543
      }
    ],
    "color": "#386f62",
    "start_name": "상원사 / 갈림길",
    "length_meter": 1371.7,
    "time_minute": 22
  },
  {
    "path_id": 16,
    "path": [
      {
        "lat": 37.553051,
        "lng": 127.539543
      },
      {
        "lat": 37.549671,
        "lng": 127.534241
      }
    ],
    "color": "#9dab5c",
    "start_name": "장군봉 / 갈림길",
    "length_meter": 600.9,
    "time_minute": 10
  },
  {
    "path_id": 17,
    "path": [
      {
        "lat": 37.549671,
        "lng": 127.534241
      },
      {
        "lat": 37.541302,
        "lng": 127.528229
      }
    ],
    "color": "#897c8d",
    "start_name": "함왕봉 / 갈림길",
    "length_meter": 1075.4,
    "time_minute": 17
  },
  {
    "path_id": 18,
    "path": [
      {
        "lat": 37.541302,
        "lng": 127.528229
      },
      {
        "lat": 37.538258,
        "lng": 127.52858
      }
    ],
    "color": "#a63195",
    "start_name": "백운봉 조망",
    "length_meter": 339.9,
    "time_minute": 5
  },
  {
    "path_id": 19,
    "path": [
      {
        "lat": 37.538258,
        "lng": 127.52858
      },
      {
        "lat": 37.534172,
        "lng": 127.528038
      }
    ],
    "color": "#073c1a",
    "start_name": "갈림길",
    "length_meter": 456.8,
    "time_minute": 7
  },
  {
    "path_id": 20,
    "path": [
      {
        "lat": 37.534172,
        "lng": 127.528038
      },
      {
        "lat": 37.533596,
        "lng": 127.527107
      }
    ],
    "color": "#6429a1",
    "start_name": "백운봉 계단",
    "length_meter": 104.1,
    "time_minute": 1
  },
  {
    "path_id": 21,
    "path": [
      {
        "lat": 37.533596,
        "lng": 127.527107
      },
      {
        "lat": 37.533504,
        "lng": 127.527069
      }
    ],
    "color": "#86c40c",
    "start_name": "백운봉 / 백운봉2",
    "length_meter": 25.6,
    "time_minute": 0
  },
  {
    "path_id": 22,
    "path": [
      {
        "lat": 37.533504,
        "lng": 127.527069
      },
      {
        "lat": 37.530666,
        "lng": 127.528198
      }
    ],
    "color": "#843d6b",
    "start_name": "백운봉1",
    "length_meter": 330.9,
    "time_minute": 5
  },
  {
    "path_id": 23,
    "path": [
      {
        "lat": 37.530666,
        "lng": 127.528198
      },
      {
        "lat": 37.52504,
        "lng": 127.52758
      }
    ],
    "color": "#75be96",
    "start_name": "갈림길",
    "length_meter": 628.0,
    "time_minute": 10
  },
  {
    "path_id": 24,
    "path": [
      {
        "lat": 37.52504,
        "lng": 127.52758
      },
      {
        "lat": 37.516727,
        "lng": 127.526894
      }
    ],
    "color": "#4e1a51",
    "start_name": "평상",
    "length_meter": 926.3,
    "time_minute": 15
  },
  {
    "path_id": 25,
    "path": [
      {
        "lat": 37.516727,
        "lng": 127.526894
      },
      {
        "lat": 37.515923,
        "lng": 127.52578
      }
    ],
    "color": "#3b134b",
    "start_name": "갈림길",
    "length_meter": 132.8,
    "time_minute": 2
  },
  {
    "path_id": 26,
    "path": [
      {
        "lat": 37.515923,
        "lng": 127.52578
      },
      {
        "lat": 37.515221,
        "lng": 127.519096
      }
    ],
    "color": "#929d9a",
    "start_name": "두리봉 / 갈림길",
    "length_meter": 616.0,
    "time_minute": 10
  },
  {
    "path_id": 27,
    "path": [
      {
        "lat": 37.515221,
        "lng": 127.519096
      },
      {
        "lat": 37.506985,
        "lng": 127.514648
      }
    ],
    "color": "#74157e",
    "start_name": "용문산자연휴양림",
    "length_meter": 996.3,
    "time_minute": 16
  }
]