[
    {
        "path_id": 1,
        "name": "버스",
        "lat": 35.579224,
        "lon": 129.028061
    },
    {
        "path_id": 2,
        "name": "화장실",
        "lat": 35.579834,
        "lon": 129.028412
    },
    {
        "path_id": 3,
        "name": "정자",
        "lat": 35.579929,
        "lon": 129.028381
    },
    {
        "path_id": 4,
        "name": "운해",
        "lat": 35.58017,
        "lon": 129.028152
    },
    {
        "path_id": 5,
        "name": "야생멧돼지 출몰주의",
        "lat": 35.581112,
        "lon": 129.026794
    },
    {
        "path_id": 6,
        "name": "능동산 입구",
        "lat": 35.581089,
        "lon": 129.026794
    },
    {
        "path_id": 7,
        "name": "데크 쉼터",
        "lat": 35.583763,
        "lon": 129.024551
    },
    {
        "path_id": 10,
        "name": "갈림길",
        "lat": 35.584209,
        "lon": 129.019943
    },
    {
        "path_id": 11,
        "name": "능동산",
        "lat": 35.583649,
        "lon": 129.018356
    },
    {
        "path_id": 14,
        "name": "멋진 소나무",
        "lat": 35.589939,
        "lon": 129.022476
    },
    {
        "path_id": 15,
        "name": "소나무",
        "lat": 35.592323,
        "lon": 129.023712
    },
    {
        "path_id": 16,
        "name": "격산",
        "lat": 35.598763,
        "lon": 129.025269
    },
    {
        "path_id": 17,
        "name": "입석봉",
        "lat": 35.602299,
        "lon": 129.02562
    },
    {
        "path_id": 18,
        "name": "갈림길",
        "lat": 35.608288,
        "lon": 129.02298
    },
    {
        "path_id": 20,
        "name": "중봉 가지산",
        "lat": 35.608929,
        "lon": 129.023056
    },
    {
        "path_id": 21,
        "name": "갈림길",
        "lat": 35.611366,
        "lon": 129.022034
    },
    {
        "path_id": 23,
        "name": "석남터널 위",
        "lat": 35.612267,
        "lon": 129.021942
    },
    {
        "path_id": 25,
        "name": "쌀바위 상운산 귀바위",
        "lat": 35.619385,
        "lon": 129.004547
    },
    {
        "path_id": 26,
        "name": "중봉",
        "lat": 35.619408,
        "lon": 129.004593
    },
    {
        "path_id": 27,
        "name": "조난사고 잦은지역",
        "lat": 35.626816,
        "lon": 129.007217
    },
    {
        "path_id": 28,
        "name": "갈림길",
        "lat": 35.633499,
        "lon": 129.019226
    },
    {
        "path_id": 29,
        "name": "상운산",
        "lat": 35.635773,
        "lon": 129.02092
    },
    {
        "path_id": 31,
        "name": "귀바위",
        "lat": 35.635857,
        "lon": 129.024246
    },
    {
        "path_id": 32,
        "name": "영축지맥",
        "lat": 35.635838,
        "lon": 129.024261
    },
    {
        "path_id": 33,
        "name": "갈림길",
        "lat": 35.633984,
        "lon": 129.031555
    },
    {
        "path_id": 35,
        "name": "부도",
        "lat": 35.618855,
        "lon": 129.036606
    }
]