{
    "max_ele": 818.0,
    "track": [
        {
            "path_id": 1,
            "name": "청평사 선착장",
            "lat": 37.978519,
            "lon": 127.818161,
            "ele": 200.0
        },
        {
            "path_id": 2,
            "name": "청평사 가는길",
            "lat": 37.97879,
            "lon": 127.818184,
            "ele": 209.0
        },
        {
            "path_id": 3,
            "name": "쉼터",
            "lat": 37.978889,
            "lon": 127.816971,
            "ele": 221.0
        },
        {
            "path_id": 5,
            "name": "전망대",
            "lat": 37.978779,
            "lon": 127.816513,
            "ele": 217.0
        },
        {
            "path_id": 7,
            "name": "구송폭포",
            "lat": 37.982723,
            "lon": 127.811111,
            "ele": 277.0
        },
        {
            "path_id": 8,
            "name": "갈림길",
            "lat": 37.982742,
            "lon": 127.811066,
            "ele": 281.0
        },
        {
            "path_id": 9,
            "name": "새향다원",
            "lat": 37.9837,
            "lon": 127.810135,
            "ele": 303.0
        },
        {
            "path_id": 10,
            "name": "약수터",
            "lat": 37.985477,
            "lon": 127.809196,
            "ele": 325.0
        },
        {
            "path_id": 12,
            "name": "청평사",
            "lat": 37.985542,
            "lon": 127.809105,
            "ele": 320.0
        },
        {
            "path_id": 13,
            "name": "약수",
            "lat": 37.985668,
            "lon": 127.808754,
            "ele": 323.0
        },
        {
            "path_id": 14,
            "name": "보호수",
            "lat": 37.985649,
            "lon": 127.808647,
            "ele": 318.0
        },
        {
            "path_id": 16,
            "name": "공주탕",
            "lat": 37.985802,
            "lon": 127.808105,
            "ele": 323.0
        },
        {
            "path_id": 17,
            "name": "산행기점",
            "lat": 37.985874,
            "lon": 127.807678,
            "ele": 333.0
        },
        {
            "path_id": 18,
            "name": "길안내",
            "lat": 37.980637,
            "lon": 127.799225,
            "ele": 715.0
        },
        {
            "path_id": 19,
            "name": "끝봉",
            "lat": 37.980766,
            "lon": 127.798828,
            "ele": 722.0
        },
        {
            "path_id": 20,
            "name": "갈림길",
            "lat": 37.984535,
            "lon": 127.794044,
            "ele": 802.0
        },
        {
            "path_id": 21,
            "name": "경운산",
            "lat": 37.989346,
            "lon": 127.792747,
            "ele": 811.0
        },
        {
            "path_id": 22,
            "name": "갈림길",
            "lat": 37.992691,
            "lon": 127.793304,
            "ele": 760.0
        },
        {
            "path_id": 24,
            "name": "오봉산1지점",
            "lat": 37.993645,
            "lon": 127.793755,
            "ele": 744.0
        },
        {
            "path_id": 25,
            "name": "오봉산 제1봉",
            "lat": 37.993999,
            "lon": 127.793816,
            "ele": 749.0
        },
        {
            "path_id": 26,
            "name": "오봉산 제2봉",
            "lat": 37.996792,
            "lon": 127.796959,
            "ele": 722.0
        },
        {
            "path_id": 27,
            "name": "쉼터",
            "lat": 37.997787,
            "lon": 127.799866,
            "ele": 710.0
        },
        {
            "path_id": 28,
            "name": "오봉산 제3봉",
            "lat": 37.998692,
            "lon": 127.801826,
            "ele": 774.0
        },
        {
            "path_id": 29,
            "name": "오봉산 2지점",
            "lat": 37.998875,
            "lon": 127.801956,
            "ele": 771.0
        },
        {
            "path_id": 30,
            "name": "조망",
            "lat": 37.999683,
            "lon": 127.802475,
            "ele": 792.0
        },
        {
            "path_id": 32,
            "name": "청솔바위",
            "lat": 38.000679,
            "lon": 127.804878,
            "ele": 784.0
        },
        {
            "path_id": 33,
            "name": "갈림길",
            "lat": 38.000725,
            "lon": 127.805527,
            "ele": 790.0
        },
        {
            "path_id": 34,
            "name": "오봉산",
            "lat": 38.000114,
            "lon": 127.807129,
            "ele": 818.0
        },
        {
            "path_id": 35,
            "name": "갈림길",
            "lat": 37.999706,
            "lon": 127.807732,
            "ele": 805.0
        },
        {
            "path_id": 36,
            "name": "오봉산 날머리",
            "lat": 38.00333,
            "lon": 127.815331,
            "ele": 570.0
        },
        {
            "path_id": 37,
            "name": "주차매표소",
            "lat": 37.984257,
            "lon": 127.818581,
            "ele": 263.0
        },
        {
            "path_id": 39,
            "name": "청평사관광지",
            "lat": 37.980747,
            "lon": 127.817734,
            "ele": 227.0
        },
        {
            "path_id": 41,
            "name": "청평산장및 식당가",
            "lat": 37.979809,
            "lon": 127.817932,
            "ele": 214.0
        }
    ]
}