[
    {
        "name": "공비토벌작전기념비",
        "lat": 35.616592,
        "lon": 129.039139
    },
    {
        "name": "영남알프스 2구간둘레길",
        "lat": 35.616474,
        "lon": 129.039032
    },
    {
        "name": "멋진 소나무",
        "lat": 35.614128,
        "lon": 129.02774
    },
    {
        "name": "갈림길",
        "lat": 35.613804,
        "lon": 129.021927
    },
    {
        "name": "쌀바위",
        "lat": 35.615944,
        "lon": 129.018021
    },
    {
        "name": "갈림길",
        "lat": 35.615471,
        "lon": 129.01236
    },
    {
        "name": "갈림길",
        "lat": 35.61581,
        "lon": 129.007385
    },
    {
        "name": "중봉",
        "lat": 35.615887,
        "lon": 129.007248
    },
    {
        "name": "중봉",
        "lat": 35.61591,
        "lon": 129.00708
    },
    {
        "name": "중봉",
        "lat": 35.61591,
        "lon": 129.00708
    },
    {
        "name": "갈림길",
        "lat": 35.618328,
        "lon": 129.005463
    },
    {
        "name": "가지산에서 쌀바위 조망",
        "lat": 35.620071,
        "lon": 129.003143
    },
    {
        "name": "갈림길",
        "lat": 35.620232,
        "lon": 129.002975
    },
    {
        "name": "갈림길",
        "lat": 35.620232,
        "lon": 129.002975
    },
    {
        "name": "가지산",
        "lat": 35.620224,
        "lon": 129.00293
    },
    {
        "name": "가지산에서 북봉 방면",
        "lat": 35.620258,
        "lon": 129.00293
    },
    {
        "name": "가지산에서 운문산방면",
        "lat": 35.620274,
        "lon": 129.003052
    },
    {
        "name": "가지산에서",
        "lat": 35.620289,
        "lon": 129.003128
    },
    {
        "name": "가지산",
        "lat": 35.620255,
        "lon": 129.002869
    },
    {
        "name": "학심이골 방향",
        "lat": 35.626823,
        "lon": 129.007202
    },
    {
        "name": "갈림길",
        "lat": 35.626801,
        "lon": 129.007172
    },
    {
        "name": "쌀바위에서",
        "lat": 35.629128,
        "lon": 129.010712
    },
    {
        "name": "쌀바위",
        "lat": 35.62912,
        "lon": 129.010727
    },
    {
        "name": "쌀바위",
        "lat": 35.629185,
        "lon": 129.010956
    },
    {
        "name": "쌀바위",
        "lat": 35.629192,
        "lon": 129.010971
    },
    {
        "name": "쌀바위",
        "lat": 35.629158,
        "lon": 129.010941
    },
    {
        "name": "쌀바위",
        "lat": 35.629036,
        "lon": 129.011185
    },
    {
        "name": "쌀바위 전설",
        "lat": 35.629009,
        "lon": 129.011169
    },
    {
        "name": "쌀바위 석수",
        "lat": 35.628918,
        "lon": 129.01091
    },
    {
        "name": "쌀바위 대피소",
        "lat": 35.629086,
        "lon": 129.011383
    },
    {
        "name": "쌀바위 화장실",
        "lat": 35.62915,
        "lon": 129.011566
    },
    {
        "name": "갈림길",
        "lat": 35.628986,
        "lon": 129.012421
    },
    {
        "name": "석남사계곡",
        "lat": 35.620953,
        "lon": 129.022507
    },
    {
        "name": "석남사 계곡",
        "lat": 35.620674,
        "lon": 129.031631
    },
    {
        "name": "석남사 계곡",
        "lat": 35.620712,
        "lon": 129.031601
    },
    {
        "name": "석남사 화장실",
        "lat": 35.620697,
        "lon": 129.031967
    },
    {
        "name": "석남사",
        "lat": 35.621113,
        "lon": 129.032318
    },
    {
        "name": "삼층 석가 사리탑",
        "lat": 35.621006,
        "lon": 129.032303
    },
    {
        "name": "석남사 삼층석탑",
        "lat": 35.621029,
        "lon": 129.031998
    },
    {
        "name": "석남사 수조",
        "lat": 35.620914,
        "lon": 129.032181
    },
    {
        "name": "석남사 계곡",
        "lat": 35.620941,
        "lon": 129.033524
    },
    {
        "name": "석남사 종합안내도",
        "lat": 35.620693,
        "lon": 129.033981
    },
    {
        "name": "청운각",
        "lat": 35.620312,
        "lon": 129.034424
    },
    {
        "name": "공중화장실",
        "lat": 35.620087,
        "lon": 129.034775
    },
    {
        "name": "쉼터",
        "lat": 35.619686,
        "lon": 129.035278
    },
    {
        "name": "쉼터",
        "lat": 35.619488,
        "lon": 129.035828
    },
    {
        "name": "쉼터",
        "lat": 35.619461,
        "lon": 129.036072
    },
    {
        "name": "석남사 계곡",
        "lat": 35.619457,
        "lon": 129.036224
    },
    {
        "name": "가지산 석남사",
        "lat": 35.618317,
        "lon": 129.038895
    },
    {
        "name": "매표소",
        "lat": 35.618229,
        "lon": 129.039032
    },
    {
        "name": "버스",
        "lat": 35.618191,
        "lon": 129.039093
    }
]