{
    "max_ele": 488.028,
    "track": [
        {
            "path_id": 1,
            "name": "마니산입구",
            "lat": 37.633873,
            "lon": 126.423439,
            "ele": 32.471
        },
        {
            "path_id": 2,
            "name": "단골식당",
            "lat": 37.633862,
            "lon": 126.423195,
            "ele": 37.525
        },
        {
            "path_id": 3,
            "name": "마니산관광지 무료주차장",
            "lat": 37.633801,
            "lon": 126.423141,
            "ele": 38.867
        },
        {
            "path_id": 6,
            "name": "GS25",
            "lat": 37.633591,
            "lon": 126.4235,
            "ele": 41.359
        },
        {
            "path_id": 7,
            "name": "마니산국민관광지 입구",
            "lat": 37.63327,
            "lon": 126.423401,
            "ele": 39.468
        },
        {
            "path_id": 8,
            "name": "마니산입구  매표소",
            "lat": 37.632526,
            "lon": 126.423889,
            "ele": 47.571
        },
        {
            "path_id": 9,
            "name": "갈림길",
            "lat": 37.631157,
            "lon": 126.424095,
            "ele": 69.116
        },
        {
            "path_id": 12,
            "name": "마니산약수터",
            "lat": 37.623241,
            "lon": 126.42617,
            "ele": 166.526
        },
        {
            "path_id": 14,
            "name": "쉼터",
            "lat": 37.623604,
            "lon": 126.426567,
            "ele": 171.098
        },
        {
            "path_id": 19,
            "name": "갈림길",
            "lat": 37.615932,
            "lon": 126.429649,
            "ele": 476.434
        },
        {
            "path_id": 20,
            "name": "참성단",
            "lat": 37.615864,
            "lon": 126.429657,
            "ele": 479.268
        },
        {
            "path_id": 21,
            "name": "정상",
            "lat": 37.615543,
            "lon": 126.430779,
            "ele": 487.589
        },
        {
            "path_id": 22,
            "name": "마니산정상",
            "lat": 37.615639,
            "lon": 126.430664,
            "ele": 488.028
        },
        {
            "path_id": 23,
            "name": "갈림길",
            "lat": 37.615665,
            "lon": 126.430206,
            "ele": 479.217
        },
        {
            "path_id": 25,
            "name": "조망점(갯벌뷰)",
            "lat": 37.615654,
            "lon": 126.429047,
            "ele": 471.23
        },
        {
            "path_id": 26,
            "name": "자연경관",
            "lat": 37.615608,
            "lon": 126.428833,
            "ele": 468.859
        },
        {
            "path_id": 27,
            "name": "추락주의,미끄럼주위",
            "lat": 37.6157,
            "lon": 126.42852,
            "ele": 466.555
        },
        {
            "path_id": 28,
            "name": "미끄럼 주의",
            "lat": 37.615715,
            "lon": 126.427917,
            "ele": 459.962
        },
        {
            "path_id": 29,
            "name": "바다,산,서,뻘",
            "lat": 37.615658,
            "lon": 126.427803,
            "ele": 469.073
        },
        {
            "path_id": 30,
            "name": "갈림길",
            "lat": 37.617226,
            "lon": 126.42466,
            "ele": 344.164
        },
        {
            "path_id": 38,
            "name": "쉼터",
            "lat": 37.619675,
            "lon": 126.419853,
            "ele": 299.4
        },
        {
            "path_id": 44,
            "name": "갈림길",
            "lat": 37.628201,
            "lon": 126.422745,
            "ele": 107.517
        }
    ]
}