{
    "max_ele": 452.277,
    "track": [
        {
            "path_id": 5,
            "name": "사랑의하트석",
            "lat": 37.608868,
            "lon": 126.443642,
            "ele": 257.78
        },
        {
            "path_id": 6,
            "name": "갈림길",
            "lat": 37.608635,
            "lon": 126.443512,
            "ele": 256.286
        },
        {
            "path_id": 11,
            "name": "추락사고위험구간",
            "lat": 37.612125,
            "lon": 126.438034,
            "ele": 441.039
        },
        {
            "path_id": 12,
            "name": "갈림길",
            "lat": 37.612312,
            "lon": 126.438263,
            "ele": 452.277
        },
        {
            "path_id": 16,
            "name": "추락사고위험",
            "lat": 37.612679,
            "lon": 126.44519,
            "ele": 181.278
        },
        {
            "path_id": 17,
            "name": "함허동천계곡",
            "lat": 37.612789,
            "lon": 126.446022,
            "ele": 144.818
        },
        {
            "path_id": 18,
            "name": "야영장쉼터",
            "lat": 37.613148,
            "lon": 126.446472,
            "ele": 139.11
        },
        {
            "path_id": 19,
            "name": "야영장 쉼터",
            "lat": 37.612789,
            "lon": 126.447151,
            "ele": 127.301
        },
        {
            "path_id": 20,
            "name": "야영장쉼터",
            "lat": 37.61272,
            "lon": 126.447533,
            "ele": 120.798
        }
    ]
}