{
  "max_ele": 1615.841,
  "total_length_km": "6.1km",
  "total_time": "1시간 16분",
  "track": [
    {
      "path_id": 0,
      "path": [
        {
          "lat": 35.832481,
          "lng": 127.799675
        },
        {
          "lat": 35.834129,
          "lng": 127.795052
        }
      ],
      "color": "#588c69",
      "start_name": "간이화장실 / 송계사 입구 / 거창시내버스 / 덕유산국립공원 남덕유분소",
      "length_meter": 465.9,
      "time_minute": 7
    },
    {
      "path_id": 1,
      "path": [
        {
          "lat": 35.834129,
          "lng": 127.795052
        },
        {
          "lat": 35.835388,
          "lng": 127.791313
        }
      ],
      "color": "#146304",
      "start_name": "휴게 데크 / 갈림길",
      "length_meter": 365.8,
      "time_minute": 6
    },
    {
      "path_id": 2,
      "path": [
        {
          "lat": 35.835388,
          "lng": 127.791313
        },
        {
          "lat": 35.834606,
          "lng": 127.789024
        }
      ],
      "color": "#2fc24f",
      "start_name": "낙석위험",
      "length_meter": 223.9,
      "time_minute": 2
    },
    {
      "path_id": 3,
      "path": [
        {
          "lat": 35.834606,
          "lng": 127.789024
        },
        {
          "lat": 35.837074,
          "lng": 127.780899
        }
      ],
      "color": "#0aa6ba",
      "start_name": "갈림길 / 낙석위험",
      "length_meter": 785.4,
      "time_minute": 12
    },
    {
      "path_id": 4,
      "path": [
        {
          "lat": 35.837074,
          "lng": 127.780899
        },
        {
          "lat": 35.839741,
          "lng": 127.752899
        }
      ],
      "color": "#a2558f",
      "start_name": "송계쉼터",
      "length_meter": 2541.4,
      "time_minute": 31
    },
    {
      "path_id": 5,
      "path": [
        {
          "lat": 35.839741,
          "lng": 127.752899
        },
        {
          "lat": 35.84383,
          "lng": 127.745125
        }
      ],
      "color": "#96bac4",
      "start_name": "이동통신 통화불능지역",
      "length_meter": 835.3,
      "time_minute": 10
    },
    {
      "path_id": 6,
      "path": [
        {
          "lat": 35.84383,
          "lng": 127.745125
        },
        {
          "lat": 35.843872,
          "lng": 127.745079
        }
      ],
      "color": "#63a6b2",
      "start_name": "갈림길",
      "length_meter": 6.2,
      "time_minute": 0
    },
    {
      "path_id": 7,
      "path": [
        {
          "lat": 35.843872,
          "lng": 127.745079
        },
        {
          "lat": 35.851479,
          "lng": 127.747429
        }
      ],
      "color": "#1105a4",
      "start_name": "백암봉",
      "length_meter": 872.0,
      "time_minute": 10
    },
    {
      "path_id": 8,
      "path": [
        {
          "lat": 35.851479,
          "lng": 127.747429
        },
        {
          "lat": 35.851547,
          "lng": 127.747353
        }
      ],
      "color": "#82be16",
      "start_name": "갈림길",
      "length_meter": 10.2,
      "time_minute": 0
    }
  ]
}