{
  "max_ele": 1028.789,
  "total_length_km": "4.8km",
  "total_time": "1시간",
  "start_name": "갈림길",
  "end_name": "포스코 백운산 수련원",
  "track": [
    {
      "path_id": 0,
      "path": [
        {
          "lat": 35.067562,
          "lng": 127.629379
        },
        {
          "lat": 35.068092,
          "lng": 127.64724
        }
      ],
      "color": "#5f2d01",
      "start_name": "갈림길",
      "length_meter": 1626.6,
      "time_minute": 20
    },
    {
      "path_id": 1,
      "path": [
        {
          "lat": 35.068092,
          "lng": 127.64724
        },
        {
          "lat": 35.073948,
          "lng": 127.648872
        }
      ],
      "color": "#9293b1",
      "start_name": "목재데크 / 갈림길",
      "length_meter": 668.5,
      "time_minute": 11
    },
    {
      "path_id": 2,
      "path": [
        {
          "lat": 35.073948,
          "lng": 127.648872
        },
        {
          "lat": 35.072525,
          "lng": 127.6548
        }
      ],
      "color": "#673550",
      "start_name": "목재데크 2개",
      "length_meter": 562.2,
      "time_minute": 7
    },
    {
      "path_id": 3,
      "path": [
        {
          "lat": 35.072525,
          "lng": 127.6548
        },
        {
          "lat": 35.069138,
          "lng": 127.638008
        }
      ],
      "color": "#525ec6",
      "start_name": "억불봉",
      "length_meter": 1573.9,
      "time_minute": 19
    },
    {
      "path_id": 4,
      "path": [
        {
          "lat": 35.069138,
          "lng": 127.638008
        },
        {
          "lat": 35.068737,
          "lng": 127.634521
        }
      ],
      "color": "#806a9d",
      "start_name": "갈림길 / 벤치 2개",
      "length_meter": 323.2,
      "time_minute": 5
    },
    {
      "path_id": 5,
      "path": [
        {
          "lat": 35.068737,
          "lng": 127.634521
        },
        {
          "lat": 35.06926,
          "lng": 127.634514
        }
      ],
      "color": "#7a183a",
      "start_name": "야생멧돼지 출몰지역 시민 주의사항 알림",
      "length_meter": 58.2,
      "time_minute": 0
    }
  ]
}