[
  {
    "path_id": 0,
    "path": [
      {
        "lat": 35.067562,
        "lng": 127.629379
      },
      {
        "lat": 35.068092,
        "lng": 127.64724
      }
    ],
    "color": "#18b0a0",
    "start_name": "갈림길",
    "length_meter": 1626.6,
    "time_minute": 27
  },
  {
    "path_id": 1,
    "path": [
      {
        "lat": 35.068092,
        "lng": 127.64724
      },
      {
        "lat": 35.073948,
        "lng": 127.648872
      }
    ],
    "color": "#6b3ea2",
    "start_name": "목재데크 / 갈림길",
    "length_meter": 668.5,
    "time_minute": 11
  },
  {
    "path_id": 2,
    "path": [
      {
        "lat": 35.073948,
        "lng": 127.648872
      },
      {
        "lat": 35.072525,
        "lng": 127.6548
      }
    ],
    "color": "#803d2b",
    "start_name": "목재데크 2개",
    "length_meter": 562.2,
    "time_minute": 9
  },
  {
    "path_id": 3,
    "path": [
      {
        "lat": 35.072525,
        "lng": 127.6548
      },
      {
        "lat": 35.069138,
        "lng": 127.638008
      }
    ],
    "color": "#5a9cc3",
    "start_name": "억불봉",
    "length_meter": 1573.9,
    "time_minute": 26
  },
  {
    "path_id": 4,
    "path": [
      {
        "lat": 35.069138,
        "lng": 127.638008
      },
      {
        "lat": 35.068737,
        "lng": 127.634521
      }
    ],
    "color": "#3341c4",
    "start_name": "갈림길 / 벤치 2개",
    "length_meter": 323.2,
    "time_minute": 5
  },
  {
    "path_id": 5,
    "path": [
      {
        "lat": 35.068737,
        "lng": 127.634521
      },
      {
        "lat": 35.06926,
        "lng": 127.634514
      }
    ],
    "color": "#18a147",
    "start_name": "야생멧돼지 출몰지역 시민 주의사항 알림",
    "length_meter": 58.2,
    "time_minute": 0
  }
]