[
    {
        "name": "축령산휴양림",
        "lat": 37.755405,
        "lon": 127.314644
    },
    {
        "name": "휴양림주차장",
        "lat": 37.755424,
        "lon": 127.314659
    },
    {
        "name": "산림휴양관",
        "lat": 37.755524,
        "lon": 127.314865
    },
    {
        "name": "갈림길",
        "lat": 37.757511,
        "lon": 127.317299
    },
    {
        "name": "갈림길",
        "lat": 37.75716,
        "lon": 127.319885
    },
    {
        "name": "갈림길",
        "lat": 37.756924,
        "lon": 127.322548
    },
    {
        "name": "갈림길",
        "lat": 37.757423,
        "lon": 127.323242
    },
    {
        "name": "전나무숲",
        "lat": 37.756908,
        "lon": 127.32576
    },
    {
        "name": "갈림길",
        "lat": 37.756729,
        "lon": 127.32962
    },
    {
        "name": "갈림길",
        "lat": 37.756729,
        "lon": 127.329643
    },
    {
        "name": "서리산헬기장대피소",
        "lat": 37.759907,
        "lon": 127.327591
    },
    {
        "name": "갈림길",
        "lat": 37.76395,
        "lon": 127.312477
    },
    {
        "name": "갈림길",
        "lat": 37.757339,
        "lon": 127.313858
    },
    {
        "name": "갈림길",
        "lat": 37.756363,
        "lon": 127.312492
    },
    {
        "name": "전나무군락지",
        "lat": 37.756367,
        "lon": 127.312462
    },
    {
        "name": "휴양림관리사무소",
        "lat": 37.754623,
        "lon": 127.313049
    },
    {
        "name": "휴양림제2주차장",
        "lat": 37.754204,
        "lon": 127.312019
    },
    {
        "name": "제2주차장 화장실",
        "lat": 37.754135,
        "lon": 127.311745
    },
    {
        "name": "버스전용조차장",
        "lat": 37.753773,
        "lon": 127.311348
    },
    {
        "name": "축령산휴양림 검문소",
        "lat": 37.75362,
        "lon": 127.311188
    },
    {
        "name": "휴양림주차장",
        "lat": 37.753586,
        "lon": 127.311081
    },
    {
        "name": "갈림길",
        "lat": 37.753605,
        "lon": 127.311134
    },
    {
        "name": "휴양림 숲속의집",
        "lat": 37.754715,
        "lon": 127.313721
    },
    {
        "name": "갈림길",
        "lat": 37.755405,
        "lon": 127.314461
    }
]