{
  "max_ele": 339.8,
  "total_length_km": "7.7km",
  "total_time": "1시간 35분",
  "start_name": "달아공원카페",
  "end_name": "미수 휴먼시아 하차장",
  "track": [
    {
      "path_id": 0,
      "path": [
        {
          "lat": 34.769844,
          "lng": 128.401459
        },
        {
          "lat": 34.769123,
          "lng": 128.400803
        }
      ],
      "color": "#856096",
      "start_name": "달아공원카페 / 국립공원 동부사무소 산양분소",
      "length_meter": 100.6,
      "time_minute": 1
    },
    {
      "path_id": 1,
      "path": [
        {
          "lat": 34.769123,
          "lng": 128.400803
        },
        {
          "lat": 34.768784,
          "lng": 128.400101
        }
      ],
      "color": "#620e60",
      "start_name": "정자 / 달아전망대",
      "length_meter": 91.7,
      "time_minute": 1
    },
    {
      "path_id": 2,
      "path": [
        {
          "lat": 34.768784,
          "lng": 128.400101
        },
        {
          "lat": 34.76989,
          "lng": 128.401337
        }
      ],
      "color": "#315b23",
      "start_name": "달아공원 종합안내도",
      "length_meter": 166.9,
      "time_minute": 2
    },
    {
      "path_id": 3,
      "path": [
        {
          "lat": 34.76989,
          "lng": 128.401337
        },
        {
          "lat": 34.774075,
          "lng": 128.404099
        }
      ],
      "color": "#83c60d",
      "start_name": "달아공원 시내버스 하차장 / 등산로 입구",
      "length_meter": 547.9,
      "time_minute": 9
    },
    {
      "path_id": 4,
      "path": [
        {
          "lat": 34.774075,
          "lng": 128.404099
        },
        {
          "lat": 34.777969,
          "lng": 128.405991
        }
      ],
      "color": "#66b924",
      "start_name": "달아망산 / 갈림길",
      "length_meter": 467.4,
      "time_minute": 7
    },
    {
      "path_id": 5,
      "path": [
        {
          "lat": 34.777969,
          "lng": 128.405991
        },
        {
          "lat": 34.782768,
          "lng": 128.403442
        }
      ],
      "color": "#33402d",
      "start_name": "한려해상 바위조망처",
      "length_meter": 582.2,
      "time_minute": 7
    },
    {
      "path_id": 6,
      "path": [
        {
          "lat": 34.782768,
          "lng": 128.403442
        },
        {
          "lat": 34.786354,
          "lng": 128.402313
        }
      ],
      "color": "#742466",
      "start_name": "희망봉 가는길 쉼터",
      "length_meter": 411.9,
      "time_minute": 5
    },
    {
      "path_id": 7,
      "path": [
        {
          "lat": 34.786354,
          "lng": 128.402313
        },
        {
          "lat": 34.788284,
          "lng": 128.399719
        }
      ],
      "color": "#9b040c",
      "start_name": "대나무숲",
      "length_meter": 319.6,
      "time_minute": 3
    },
    {
      "path_id": 8,
      "path": [
        {
          "lat": 34.788284,
          "lng": 128.399719
        },
        {
          "lat": 34.791023,
          "lng": 128.398056
        }
      ],
      "color": "#2f3c4e",
      "start_name": "멧돼지 흔적",
      "length_meter": 340.3,
      "time_minute": 4
    },
    {
      "path_id": 9,
      "path": [
        {
          "lat": 34.791023,
          "lng": 128.398056
        },
        {
          "lat": 34.794292,
          "lng": 128.396942
        }
      ],
      "color": "#c78a9c",
      "start_name": "산양읍사무소 1.6KM전 조망처.쉼터",
      "length_meter": 377.5,
      "time_minute": 4
    },
    {
      "path_id": 10,
      "path": [
        {
          "lat": 34.794292,
          "lng": 128.396942
        },
        {
          "lat": 34.803242,
          "lng": 128.396057
        }
      ],
      "color": "#1d39a4",
      "start_name": "희망봉 / 갈림길",
      "length_meter": 1015.9,
      "time_minute": 16
    },
    {
      "path_id": 11,
      "path": [
        {
          "lat": 34.803242,
          "lng": 128.396057
        },
        {
          "lat": 34.806057,
          "lng": 128.396011
        }
      ],
      "color": "#978da5",
      "start_name": "산양읍 경유 미륵산종주 능선 등산로 입구",
      "length_meter": 313.0,
      "time_minute": 3
    },
    {
      "path_id": 12,
      "path": [
        {
          "lat": 34.806057,
          "lng": 128.396011
        },
        {
          "lat": 34.812145,
          "lng": 128.396362
        }
      ],
      "color": "#1b8e87",
      "start_name": "갈림길",
      "length_meter": 677.7,
      "time_minute": 8
    },
    {
      "path_id": 13,
      "path": [
        {
          "lat": 34.812145,
          "lng": 128.396362
        },
        {
          "lat": 34.812168,
          "lng": 128.396271
        }
      ],
      "color": "#022d2d",
      "start_name": "범왕산",
      "length_meter": 8.7,
      "time_minute": 0
    },
    {
      "path_id": 14,
      "path": [
        {
          "lat": 34.812168,
          "lng": 128.396271
        },
        {
          "lat": 34.816254,
          "lng": 128.398117
        }
      ],
      "color": "#4b2b50",
      "start_name": "범왕산 직전 조망처",
      "length_meter": 484.6,
      "time_minute": 6
    },
    {
      "path_id": 15,
      "path": [
        {
          "lat": 34.816254,
          "lng": 128.398117
        },
        {
          "lat": 34.817123,
          "lng": 128.402191
        }
      ],
      "color": "#993ac3",
      "start_name": "갈림길",
      "length_meter": 384.3,
      "time_minute": 4
    },
    {
      "path_id": 16,
      "path": [
        {
          "lat": 34.817123,
          "lng": 128.402191
        },
        {
          "lat": 34.820122,
          "lng": 128.392502
        }
      ],
      "color": "#03148d",
      "start_name": "현금산",
      "length_meter": 945.3,
      "time_minute": 11
    },
    {
      "path_id": 17,
      "path": [
        {
          "lat": 34.820122,
          "lng": 128.392502
        },
        {
          "lat": 34.822338,
          "lng": 128.396301
        }
      ],
      "color": "#b786a5",
      "start_name": "세포마을 등산로 들날머리",
      "length_meter": 425.4,
      "time_minute": 5
    }
  ]
}