[
  {
    "path_id": 0,
    "path": [
      {
        "lat": 34.822266,
        "lng": 128.41481
      },
      {
        "lat": 34.824051,
        "lng": 128.415268
      }
    ],
    "color": "#60df0b",
    "start_point_name": "봉평주공아파트 정류소",
    "length": 202,
    "time": "3"
  },
  {
    "path_id": 1,
    "path": [
      {
        "lat": 34.824051,
        "lng": 128.415268
      },
      {
        "lat": 34.82296,
        "lng": 128.415024
      }
    ],
    "color": "#0bfb20",
    "start_point_name": "옹달샘",
    "length": 123,
    "time": "2"
  },
  {
    "path_id": 2,
    "path": [
      {
        "lat": 34.82296,
        "lng": 128.415024
      },
      {
        "lat": 34.822552,
        "lng": 128.414963
      }
    ],
    "color": "#5f2532",
    "start_point_name": "용화주막집",
    "length": 45,
    "time": "0"
  },
  {
    "path_id": 3,
    "path": [
      {
        "lat": 34.822552,
        "lng": 128.414963
      },
      {
        "lat": 34.82235,
        "lng": 128.414825
      }
    ],
    "color": "#d75c27",
    "start_point_name": "봉평곰탕",
    "length": 25,
    "time": "0"
  },
  {
    "path_id": 4,
    "path": [
      {
        "lat": 34.82235,
        "lng": 128.414825
      },
      {
        "lat": 34.822323,
        "lng": 128.414825
      }
    ],
    "color": "#6f05fe",
    "start_point_name": "미륵편의점",
    "length": 3,
    "time": "0"
  },
  {
    "path_id": 5,
    "path": [
      {
        "lat": 34.822323,
        "lng": 128.414825
      },
      {
        "lat": 34.821953,
        "lng": 128.414749
      }
    ],
    "color": "#8dcacf",
    "start_point_name": "용화사 광장주차장",
    "length": 41,
    "time": "0"
  },
  {
    "path_id": 6,
    "path": [
      {
        "lat": 34.821953,
        "lng": 128.414749
      },
      {
        "lat": 34.822239,
        "lng": 128.414795
      }
    ],
    "color": "#59230d",
    "start_point_name": "용화산방",
    "length": 32,
    "time": "0"
  },
  {
    "path_id": 7,
    "path": [
      {
        "lat": 34.822239,
        "lng": 128.414795
      },
      {
        "lat": 34.821613,
        "lng": 128.414063
      }
    ],
    "color": "#8e5b0f",
    "start_point_name": "화장실",
    "length": 96,
    "time": "1"
  },
  {
    "path_id": 8,
    "path": [
      {
        "lat": 34.821613,
        "lng": 128.414063
      },
      {
        "lat": 34.821766,
        "lng": 128.412109
      }
    ],
    "color": "#9c1d6d",
    "start_point_name": "갈림길 10",
    "length": 179,
    "time": "2"
  },
  {
    "path_id": 9,
    "path": [
      {
        "lat": 34.821766,
        "lng": 128.412109
      },
      {
        "lat": 34.821102,
        "lng": 128.408966
      }
    ],
    "color": "#87682e",
    "start_point_name": "갈림길 11",
    "length": 296,
    "time": "4"
  },
  {
    "path_id": 10,
    "path": [
      {
        "lat": 34.821102,
        "lng": 128.408966
      },
      {
        "lat": 34.82061,
        "lng": 128.408844
      }
    ],
    "color": "#977747",
    "start_point_name": "갈림길 12",
    "length": 55,
    "time": "0"
  },
  {
    "path_id": 11,
    "path": [
      {
        "lat": 34.82061,
        "lng": 128.408844
      },
      {
        "lat": 34.819778,
        "lng": 128.404694
      }
    ],
    "color": "#c684f2",
    "start_point_name": "갈림길 14",
    "length": 389,
    "time": "6"
  },
  {
    "path_id": 12,
    "path": [
      {
        "lat": 34.819778,
        "lng": 128.404694
      },
      {
        "lat": 34.817467,
        "lng": 128.40358
      }
    ],
    "color": "#af2ef5",
    "start_point_name": "갈림길 19",
    "length": 276,
    "time": "4"
  },
  {
    "path_id": 13,
    "path": [
      {
        "lat": 34.817467,
        "lng": 128.40358
      },
      {
        "lat": 34.817467,
        "lng": 128.40358
      }
    ],
    "color": "#7de811",
    "start_point_name": "갈림길 20",
    "length": 0,
    "time": "0"
  },
  {
    "path_id": 14,
    "path": [
      {
        "lat": 34.817467,
        "lng": 128.40358
      },
      {
        "lat": 34.817135,
        "lng": 128.402298
      }
    ],
    "color": "#3bded4",
    "start_point_name": "갈림길 21",
    "length": 122,
    "time": "2"
  },
  {
    "path_id": 15,
    "path": [
      {
        "lat": 34.817135,
        "lng": 128.402298
      },
      {
        "lat": 34.817833,
        "lng": 128.406036
      }
    ],
    "color": "#65eb7e",
    "start_point_name": "현금산 정상 339미터",
    "length": 349,
    "time": "5"
  },
  {
    "path_id": 16,
    "path": [
      {
        "lat": 34.817833,
        "lng": 128.406036
      },
      {
        "lat": 34.817516,
        "lng": 128.407135
      }
    ],
    "color": "#5f67f9",
    "start_point_name": "천지봉 정상",
    "length": 106,
    "time": "1"
  },
  {
    "path_id": 17,
    "path": [
      {
        "lat": 34.817516,
        "lng": 128.407135
      },
      {
        "lat": 34.815922,
        "lng": 128.410355
      }
    ],
    "color": "#96fe08",
    "start_point_name": "KBS중계탑옆 조망처",
    "length": 343,
    "time": "5"
  },
  {
    "path_id": 18,
    "path": [
      {
        "lat": 34.815922,
        "lng": 128.410355
      },
      {
        "lat": 34.811089,
        "lng": 128.415375
      }
    ],
    "color": "#976665",
    "start_point_name": "갈림길 29",
    "length": 706,
    "time": "11"
  },
  {
    "path_id": 19,
    "path": [
      {
        "lat": 34.811089,
        "lng": 128.415375
      },
      {
        "lat": 34.810749,
        "lng": 128.416092
      }
    ],
    "color": "#6a1246",
    "start_point_name": "정상직전 멋진소나무",
    "length": 75,
    "time": "1"
  },
  {
    "path_id": 20,
    "path": [
      {
        "lat": 34.810749,
        "lng": 128.416092
      },
      {
        "lat": 34.807171,
        "lng": 128.418793
      }
    ],
    "color": "#2a43b5",
    "start_point_name": "미륵산",
    "length": 468,
    "time": "7"
  },
  {
    "path_id": 21,
    "path": [
      {
        "lat": 34.807171,
        "lng": 128.418793
      },
      {
        "lat": 34.807217,
        "lng": 128.4189
      }
    ],
    "color": "#10681d",
    "start_point_name": "갈림길 42",
    "length": 11,
    "time": "0"
  },
  {
    "path_id": 22,
    "path": [
      {
        "lat": 34.807217,
        "lng": 128.4189
      },
      {
        "lat": 34.807217,
        "lng": 128.418961
      }
    ],
    "color": "#1f919c",
    "start_point_name": "용화사 갈림길 쉼터",
    "length": 5,
    "time": "0"
  },
  {
    "path_id": 23,
    "path": [
      {
        "lat": 34.807217,
        "lng": 128.418961
      },
      {
        "lat": 34.812881,
        "lng": 128.420654
      }
    ],
    "color": "#cf7b88",
    "start_point_name": "용화사 갈림길 약수터",
    "length": 648,
    "time": "10"
  }
]