[
  {
    "path_id": 0,
    "path": [
      {
        "lat": 34.822266,
        "lng": 128.41481
      },
      {
        "lat": 34.824051,
        "lng": 128.415268
      }
    ],
    "color": "#53328c",
    "start_name": "봉평주공아파트 정류소",
    "length_meter": 202.8,
    "time_minute": 3
  },
  {
    "path_id": 1,
    "path": [
      {
        "lat": 34.824051,
        "lng": 128.415268
      },
      {
        "lat": 34.82296,
        "lng": 128.415024
      }
    ],
    "color": "#02c3b7",
    "start_name": "옹달샘",
    "length_meter": 123.3,
    "time_minute": 2
  },
  {
    "path_id": 2,
    "path": [
      {
        "lat": 34.82296,
        "lng": 128.415024
      },
      {
        "lat": 34.82235,
        "lng": 128.414825
      }
    ],
    "color": "#3ad34d",
    "start_name": "용화주막집 / 봉평곰탕",
    "length_meter": 71.5,
    "time_minute": 1
  },
  {
    "path_id": 3,
    "path": [
      {
        "lat": 34.82235,
        "lng": 128.414825
      },
      {
        "lat": 34.822239,
        "lng": 128.414795
      }
    ],
    "color": "#617f57",
    "start_name": "미륵편의점 / 용화사 광장주차장 / 용화산방",
    "length_meter": 76.8,
    "time_minute": 1
  },
  {
    "path_id": 4,
    "path": [
      {
        "lat": 34.822239,
        "lng": 128.414795
      },
      {
        "lat": 34.821613,
        "lng": 128.414063
      }
    ],
    "color": "#a077cd",
    "start_name": "화장실",
    "length_meter": 96.5,
    "time_minute": 1
  },
  {
    "path_id": 5,
    "path": [
      {
        "lat": 34.821613,
        "lng": 128.414063
      },
      {
        "lat": 34.817135,
        "lng": 128.402298
      }
    ],
    "color": "#184669",
    "start_name": "갈림길",
    "length_meter": 1183.8,
    "time_minute": 19
  },
  {
    "path_id": 6,
    "path": [
      {
        "lat": 34.817135,
        "lng": 128.402298
      },
      {
        "lat": 34.817833,
        "lng": 128.406036
      }
    ],
    "color": "#b0ed3d",
    "start_name": "현금산 정상 339미터",
    "length_meter": 350.0,
    "time_minute": 5
  },
  {
    "path_id": 7,
    "path": [
      {
        "lat": 34.817833,
        "lng": 128.406036
      },
      {
        "lat": 34.817516,
        "lng": 128.407135
      }
    ],
    "color": "#46c958",
    "start_name": "천지봉 정상",
    "length_meter": 106.3,
    "time_minute": 1
  },
  {
    "path_id": 8,
    "path": [
      {
        "lat": 34.817516,
        "lng": 128.407135
      },
      {
        "lat": 34.815922,
        "lng": 128.410355
      }
    ],
    "color": "#517023",
    "start_name": "KBS중계탑옆 조망처",
    "length_meter": 343.3,
    "time_minute": 5
  },
  {
    "path_id": 9,
    "path": [
      {
        "lat": 34.815922,
        "lng": 128.410355
      },
      {
        "lat": 34.811089,
        "lng": 128.415375
      }
    ],
    "color": "#8b0c3d",
    "start_name": "갈림길",
    "length_meter": 706.3,
    "time_minute": 11
  },
  {
    "path_id": 10,
    "path": [
      {
        "lat": 34.811089,
        "lng": 128.415375
      },
      {
        "lat": 34.810749,
        "lng": 128.416092
      }
    ],
    "color": "#6c8953",
    "start_name": "정상직전 멋진소나무",
    "length_meter": 75.6,
    "time_minute": 1
  },
  {
    "path_id": 11,
    "path": [
      {
        "lat": 34.810749,
        "lng": 128.416092
      },
      {
        "lat": 34.807171,
        "lng": 128.418793
      }
    ],
    "color": "#4920f1",
    "start_name": "미륵산",
    "length_meter": 468.1,
    "time_minute": 7
  },
  {
    "path_id": 12,
    "path": [
      {
        "lat": 34.807171,
        "lng": 128.418793
      },
      {
        "lat": 34.812881,
        "lng": 128.420654
      }
    ],
    "color": "#563515",
    "start_name": "갈림길",
    "length_meter": 657.3,
    "time_minute": 10
  }
]