[
  {
    "path_id": 0,
    "path": [
      {
        "lat": 34.822266,
        "lng": 128.41481
      },
      {
        "lat": 34.824051,
        "lng": 128.415268
      }
    ],
    "color": "#23abdb",
    "start_name": "봉평주공아파트 정류소",
    "length_meter": 202.8,
    "time_minute": 3
  },
  {
    "path_id": 1,
    "path": [
      {
        "lat": 34.824051,
        "lng": 128.415268
      },
      {
        "lat": 34.82296,
        "lng": 128.415024
      }
    ],
    "color": "#c3ccc3",
    "start_name": "옹달샘",
    "length_meter": 123.3,
    "time_minute": 2
  },
  {
    "path_id": 2,
    "path": [
      {
        "lat": 34.82296,
        "lng": 128.415024
      },
      {
        "lat": 34.82235,
        "lng": 128.414825
      }
    ],
    "color": "#1cfa67",
    "start_name": "용화주막집 / 봉평곰탕",
    "length_meter": 71.5,
    "time_minute": 1
  },
  {
    "path_id": 3,
    "path": [
      {
        "lat": 34.82235,
        "lng": 128.414825
      },
      {
        "lat": 34.822239,
        "lng": 128.414795
      }
    ],
    "color": "#87ae8d",
    "start_name": "미륵편의점 / 용화사 광장주차장 / 용화산방",
    "length_meter": 76.8,
    "time_minute": 1
  },
  {
    "path_id": 4,
    "path": [
      {
        "lat": 34.822239,
        "lng": 128.414795
      },
      {
        "lat": 34.821613,
        "lng": 128.414063
      }
    ],
    "color": "#fb6a1b",
    "start_name": "화장실",
    "length_meter": 96.5,
    "time_minute": 1
  },
  {
    "path_id": 5,
    "path": [
      {
        "lat": 34.821613,
        "lng": 128.414063
      },
      {
        "lat": 34.821766,
        "lng": 128.412109
      }
    ],
    "color": "#ca2867",
    "start_name": "갈림길 10",
    "length_meter": 179.2,
    "time_minute": 2
  },
  {
    "path_id": 6,
    "path": [
      {
        "lat": 34.821766,
        "lng": 128.412109
      },
      {
        "lat": 34.821102,
        "lng": 128.408966
      }
    ],
    "color": "#bc9d71",
    "start_name": "갈림길 11",
    "length_meter": 296.3,
    "time_minute": 4
  },
  {
    "path_id": 7,
    "path": [
      {
        "lat": 34.821102,
        "lng": 128.408966
      },
      {
        "lat": 34.819778,
        "lng": 128.404694
      }
    ],
    "color": "#d10162",
    "start_name": "갈림길 12 / 갈림길 14",
    "length_meter": 445.8,
    "time_minute": 7
  },
  {
    "path_id": 8,
    "path": [
      {
        "lat": 34.819778,
        "lng": 128.404694
      },
      {
        "lat": 34.817467,
        "lng": 128.40358
      }
    ],
    "color": "#2eafc6",
    "start_name": "갈림길 19",
    "length_meter": 276.4,
    "time_minute": 4
  },
  {
    "path_id": 9,
    "path": [
      {
        "lat": 34.817467,
        "lng": 128.40358
      },
      {
        "lat": 34.817135,
        "lng": 128.402298
      }
    ],
    "color": "#27cc27",
    "start_name": "갈림길 20 / 갈림길 21",
    "length_meter": 122.7,
    "time_minute": 2
  },
  {
    "path_id": 10,
    "path": [
      {
        "lat": 34.817135,
        "lng": 128.402298
      },
      {
        "lat": 34.817833,
        "lng": 128.406036
      }
    ],
    "color": "#2bf350",
    "start_name": "현금산 정상 339미터",
    "length_meter": 350.0,
    "time_minute": 5
  },
  {
    "path_id": 11,
    "path": [
      {
        "lat": 34.817833,
        "lng": 128.406036
      },
      {
        "lat": 34.817516,
        "lng": 128.407135
      }
    ],
    "color": "#0eb584",
    "start_name": "천지봉 정상",
    "length_meter": 106.3,
    "time_minute": 1
  },
  {
    "path_id": 12,
    "path": [
      {
        "lat": 34.817516,
        "lng": 128.407135
      },
      {
        "lat": 34.815922,
        "lng": 128.410355
      }
    ],
    "color": "#cf080c",
    "start_name": "KBS중계탑옆 조망처",
    "length_meter": 343.3,
    "time_minute": 5
  },
  {
    "path_id": 13,
    "path": [
      {
        "lat": 34.815922,
        "lng": 128.410355
      },
      {
        "lat": 34.811089,
        "lng": 128.415375
      }
    ],
    "color": "#569d24",
    "start_name": "갈림길 29",
    "length_meter": 706.3,
    "time_minute": 11
  },
  {
    "path_id": 14,
    "path": [
      {
        "lat": 34.811089,
        "lng": 128.415375
      },
      {
        "lat": 34.810749,
        "lng": 128.416092
      }
    ],
    "color": "#3fe7e3",
    "start_name": "정상직전 멋진소나무",
    "length_meter": 75.6,
    "time_minute": 1
  },
  {
    "path_id": 15,
    "path": [
      {
        "lat": 34.810749,
        "lng": 128.416092
      },
      {
        "lat": 34.807171,
        "lng": 128.418793
      }
    ],
    "color": "#484ef6",
    "start_name": "미륵산",
    "length_meter": 468.1,
    "time_minute": 7
  },
  {
    "path_id": 16,
    "path": [
      {
        "lat": 34.807171,
        "lng": 128.418793
      },
      {
        "lat": 34.812881,
        "lng": 128.420654
      }
    ],
    "color": "#fd7b43",
    "start_name": "갈림길 42 / 용화사 갈림길 쉼터 / 용화사 갈림길 약수터",
    "length_meter": 665.1,
    "time_minute": 11
  }
]