[
  {
    "path_id": 0,
    "path": [
      {
        "lat": 34.828857,
        "lng": 128.405243
      },
      {
        "lat": 34.829609,
        "lng": 128.405579
      }
    ],
    "color": "#6f407f",
    "start_name": "통영해양관광공원",
    "length_meter": 89.1,
    "time_minute": 1
  },
  {
    "path_id": 1,
    "path": [
      {
        "lat": 34.829609,
        "lng": 128.405579
      },
      {
        "lat": 34.830425,
        "lng": 128.404495
      }
    ],
    "color": "#beb90e",
    "start_name": "놀이시설 / 운동시설",
    "length_meter": 141.1,
    "time_minute": 2
  },
  {
    "path_id": 2,
    "path": [
      {
        "lat": 34.830425,
        "lng": 128.404495
      },
      {
        "lat": 34.829296,
        "lng": 128.405121
      }
    ],
    "color": "#095d09",
    "start_name": "걷기시설.바다풍경",
    "length_meter": 137.9,
    "time_minute": 2
  },
  {
    "path_id": 3,
    "path": [
      {
        "lat": 34.829296,
        "lng": 128.405121
      },
      {
        "lat": 34.828598,
        "lng": 128.406021
      }
    ],
    "color": "#56992f",
    "start_name": "공영주차장",
    "length_meter": 113.0,
    "time_minute": 1
  },
  {
    "path_id": 4,
    "path": [
      {
        "lat": 34.828598,
        "lng": 128.406021
      },
      {
        "lat": 34.82835,
        "lng": 128.406311
      }
    ],
    "color": "#0047a0",
    "start_name": "현대아파트 하차장",
    "length_meter": 38.2,
    "time_minute": 0
  },
  {
    "path_id": 5,
    "path": [
      {
        "lat": 34.82835,
        "lng": 128.406311
      },
      {
        "lat": 34.828236,
        "lng": 128.409958
      }
    ],
    "color": "#7b9e25",
    "start_name": "등산로 입구",
    "length_meter": 333.1,
    "time_minute": 5
  },
  {
    "path_id": 6,
    "path": [
      {
        "lat": 34.828236,
        "lng": 128.409958
      },
      {
        "lat": 34.825783,
        "lng": 128.409042
      }
    ],
    "color": "#4a0044",
    "start_name": "갈림길",
    "length_meter": 285.3,
    "time_minute": 4
  },
  {
    "path_id": 7,
    "path": [
      {
        "lat": 34.825783,
        "lng": 128.409042
      },
      {
        "lat": 34.825203,
        "lng": 128.408997
      }
    ],
    "color": "#b46300",
    "start_name": "약수터",
    "length_meter": 64.6,
    "time_minute": 1
  },
  {
    "path_id": 8,
    "path": [
      {
        "lat": 34.825203,
        "lng": 128.408997
      },
      {
        "lat": 34.825974,
        "lng": 128.404572
      }
    ],
    "color": "#9f4e1a",
    "start_name": "갈림길",
    "length_meter": 412.9,
    "time_minute": 6
  },
  {
    "path_id": 9,
    "path": [
      {
        "lat": 34.825974,
        "lng": 128.404572
      },
      {
        "lat": 34.823002,
        "lng": 128.405457
      }
    ],
    "color": "#208035",
    "start_name": "등산로 입구",
    "length_meter": 340.2,
    "time_minute": 5
  },
  {
    "path_id": 10,
    "path": [
      {
        "lat": 34.823002,
        "lng": 128.405457
      },
      {
        "lat": 34.825153,
        "lng": 128.403687
      }
    ],
    "color": "#245441",
    "start_name": "갈림길",
    "length_meter": 288.6,
    "time_minute": 4
  },
  {
    "path_id": 11,
    "path": [
      {
        "lat": 34.825153,
        "lng": 128.403687
      },
      {
        "lat": 34.825008,
        "lng": 128.401886
      }
    ],
    "color": "#108e27",
    "start_name": "등산로 입구",
    "length_meter": 165.2,
    "time_minute": 2
  },
  {
    "path_id": 12,
    "path": [
      {
        "lat": 34.825008,
        "lng": 128.401886
      },
      {
        "lat": 34.823883,
        "lng": 128.40184
      }
    ],
    "color": "#9c4e2b",
    "start_name": "갈림길",
    "length_meter": 125.2,
    "time_minute": 2
  },
  {
    "path_id": 13,
    "path": [
      {
        "lat": 34.823883,
        "lng": 128.40184
      },
      {
        "lat": 34.820927,
        "lng": 128.40448
      }
    ],
    "color": "#6c0f0b",
    "start_name": "등산로 입구",
    "length_meter": 407.6,
    "time_minute": 6
  },
  {
    "path_id": 14,
    "path": [
      {
        "lat": 34.820927,
        "lng": 128.40448
      },
      {
        "lat": 34.818825,
        "lng": 128.407867
      }
    ],
    "color": "#274833",
    "start_name": "갈림길",
    "length_meter": 387.6,
    "time_minute": 6
  },
  {
    "path_id": 15,
    "path": [
      {
        "lat": 34.818825,
        "lng": 128.407867
      },
      {
        "lat": 34.81834,
        "lng": 128.407562
      }
    ],
    "color": "#5e28be",
    "start_name": "바위조망처",
    "length_meter": 60.7,
    "time_minute": 1
  },
  {
    "path_id": 16,
    "path": [
      {
        "lat": 34.81834,
        "lng": 128.407562
      },
      {
        "lat": 34.822945,
        "lng": 128.408478
      }
    ],
    "color": "#2824b6",
    "start_name": "갈림길",
    "length_meter": 518.8,
    "time_minute": 8
  },
  {
    "path_id": 17,
    "path": [
      {
        "lat": 34.822945,
        "lng": 128.408478
      },
      {
        "lat": 34.823414,
        "lng": 128.409164
      }
    ],
    "color": "#007a60",
    "start_name": "약수터",
    "length_meter": 81.5,
    "time_minute": 1
  },
  {
    "path_id": 18,
    "path": [
      {
        "lat": 34.823414,
        "lng": 128.409164
      },
      {
        "lat": 34.820633,
        "lng": 128.404251
      }
    ],
    "color": "#5b637e",
    "start_name": "굿터기점 / 갈림길",
    "length_meter": 582.5,
    "time_minute": 9
  },
  {
    "path_id": 19,
    "path": [
      {
        "lat": 34.820633,
        "lng": 128.404251
      },
      {
        "lat": 34.82061,
        "lng": 128.4039
      }
    ],
    "color": "#9e5734",
    "start_name": "선금산약수터",
    "length_meter": 32.1,
    "time_minute": 0
  },
  {
    "path_id": 20,
    "path": [
      {
        "lat": 34.82061,
        "lng": 128.4039
      },
      {
        "lat": 34.820675,
        "lng": 128.402832
      }
    ],
    "color": "#26bb1a",
    "start_name": "선금산약수터 조망",
    "length_meter": 97.8,
    "time_minute": 1
  },
  {
    "path_id": 21,
    "path": [
      {
        "lat": 34.820675,
        "lng": 128.402832
      },
      {
        "lat": 34.821953,
        "lng": 128.396774
      }
    ],
    "color": "#2a2a44",
    "start_name": "갈림길",
    "length_meter": 571.0,
    "time_minute": 9
  },
  {
    "path_id": 22,
    "path": [
      {
        "lat": 34.821953,
        "lng": 128.396774
      },
      {
        "lat": 34.82325,
        "lng": 128.399963
      }
    ],
    "color": "#569177",
    "start_name": "미수휴먼시아 등산로 입구",
    "length_meter": 324.9,
    "time_minute": 5
  },
  {
    "path_id": 23,
    "path": [
      {
        "lat": 34.82325,
        "lng": 128.399963
      },
      {
        "lat": 34.822456,
        "lng": 128.400421
      }
    ],
    "color": "#0a63ba",
    "start_name": "등산로 입구",
    "length_meter": 97.7,
    "time_minute": 1
  }
]