[
    {
        "name": "유치곤기념관   주차장",
        "lat": 35.700035,
        "lon": 128.499146
    },
    {
        "name": "유치곤기념관  화장실",
        "lat": 35.699921,
        "lon": 128.498962
    },
    {
        "name": "유치곤장군 기념관",
        "lat": 35.699898,
        "lon": 128.498917
    },
    {
        "name": "쉼터",
        "lat": 35.700184,
        "lon": 128.505188
    },
    {
        "name": "돌산",
        "lat": 35.703827,
        "lon": 128.513931
    },
    {
        "name": "쉼터2",
        "lat": 35.706524,
        "lon": 128.519241
    },
    {
        "name": "쉼터",
        "lat": 35.702488,
        "lon": 128.522903
    },
    {
        "name": "멋진뷰",
        "lat": 35.702518,
        "lon": 128.522903
    },
    {
        "name": "멋진뷰",
        "lat": 35.70137,
        "lon": 128.523743
    },
    {
        "name": "포토존",
        "lat": 35.701355,
        "lon": 128.523727
    },
    {
        "name": "갈림길",
        "lat": 35.700886,
        "lon": 128.530334
    },
    {
        "name": "참꽃군락지 쉼터",
        "lat": 35.700859,
        "lon": 128.53035
    },
    {
        "name": "참꽃군락지",
        "lat": 35.700874,
        "lon": 128.531982
    },
    {
        "name": "갈림길",
        "lat": 35.703686,
        "lon": 128.533173
    },
    {
        "name": "청도비슬산 둘레길 안내도",
        "lat": 35.704231,
        "lon": 128.533615
    },
    {
        "name": "갈림길",
        "lat": 35.70417,
        "lon": 128.533615
    },
    {
        "name": "월광봉 뷰",
        "lat": 35.704189,
        "lon": 128.533615
    },
    {
        "name": "월광봉",
        "lat": 35.704239,
        "lon": 128.5336
    },
    {
        "name": "참꽃군락지  포토존",
        "lat": 35.700871,
        "lon": 128.531998
    },
    {
        "name": "갈림길",
        "lat": 35.696854,
        "lon": 128.529526
    },
    {
        "name": "용리사지2",
        "lat": 35.69342,
        "lon": 128.519608
    },
    {
        "name": "돌산",
        "lat": 35.690536,
        "lon": 128.517944
    }
]