[
    {
        "path_id": 1,
        "name": "갈림길",
        "lat": 35.733219,
        "lon": 127.802238
    },
    {
        "path_id": 2,
        "name": "벤치2개",
        "lat": 35.734909,
        "lon": 127.801292
    },
    {
        "path_id": 3,
        "name": "현성산 암릉",
        "lat": 35.738029,
        "lon": 127.800591
    },
    {
        "path_id": 4,
        "name": "현성산",
        "lat": 35.743237,
        "lon": 127.795052
    },
    {
        "path_id": 5,
        "name": "갈림길",
        "lat": 35.743385,
        "lon": 127.79493
    },
    {
        "path_id": 11,
        "name": "선녀담",
        "lat": 35.731987,
        "lon": 127.799919
    },
    {
        "path_id": 12,
        "name": "입구화장실",
        "lat": 35.731888,
        "lon": 127.800156
    }
]