[
  {
    "path_id": 0,
    "path": [
      {
        "lat": 36.068874,
        "lng": 127.834534
      },
      {
        "lat": 36.069042,
        "lng": 127.835152
      }
    ],
    "color": "#45d7f1",
    "start_name": "도마령 등산로  입구 / 도마령 입구주차장 / 도마령 등산로 입구 / 등산로  시작점 / 도마령입구 / 들머리",
    "length_meter": 99.0,
    "time_minute": 1
  },
  {
    "path_id": 1,
    "path": [
      {
        "lat": 36.069042,
        "lng": 127.835152
      },
      {
        "lat": 36.06255,
        "lng": 127.846169
      }
    ],
    "color": "#ff0c97",
    "start_name": "상용정",
    "length_meter": 1225.4,
    "time_minute": 20
  },
  {
    "path_id": 2,
    "path": [
      {
        "lat": 36.06255,
        "lng": 127.846169
      },
      {
        "lat": 36.062256,
        "lng": 127.846771
      }
    ],
    "color": "#6d1c8d",
    "start_name": "각호산 / 각호산 정상",
    "length_meter": 63.2,
    "time_minute": 1
  },
  {
    "path_id": 3,
    "path": [
      {
        "lat": 36.062256,
        "lng": 127.846771
      },
      {
        "lat": 36.042431,
        "lng": 127.850037
      }
    ],
    "color": "#1275ee",
    "start_name": "갈림길",
    "length_meter": 2223.9,
    "time_minute": 37
  },
  {
    "path_id": 4,
    "path": [
      {
        "lat": 36.042431,
        "lng": 127.850037
      },
      {
        "lat": 36.04076,
        "lng": 127.849701
      }
    ],
    "color": "#3dd38d",
    "start_name": "대피소",
    "length_meter": 188.2,
    "time_minute": 3
  },
  {
    "path_id": 5,
    "path": [
      {
        "lat": 36.04076,
        "lng": 127.849701
      },
      {
        "lat": 36.039799,
        "lng": 127.849297
      }
    ],
    "color": "#c8c091",
    "start_name": "갈림길",
    "length_meter": 112.9,
    "time_minute": 1
  },
  {
    "path_id": 6,
    "path": [
      {
        "lat": 36.039799,
        "lng": 127.849297
      },
      {
        "lat": 36.039631,
        "lng": 127.85022
      }
    ],
    "color": "#786579",
    "start_name": "민주지산",
    "length_meter": 85.1,
    "time_minute": 1
  },
  {
    "path_id": 7,
    "path": [
      {
        "lat": 36.039631,
        "lng": 127.85022
      },
      {
        "lat": 36.04673,
        "lng": 127.870041
      }
    ],
    "color": "#470033",
    "start_name": "갈림길",
    "length_meter": 1949.1,
    "time_minute": 32
  },
  {
    "path_id": 8,
    "path": [
      {
        "lat": 36.04673,
        "lng": 127.870041
      },
      {
        "lat": 36.049427,
        "lng": 127.870811
      }
    ],
    "color": "#400b8e",
    "start_name": "화장실 / 명품숲길종합아래도",
    "length_meter": 308.5,
    "time_minute": 5
  },
  {
    "path_id": 9,
    "path": [
      {
        "lat": 36.049427,
        "lng": 127.870811
      },
      {
        "lat": 36.054222,
        "lng": 127.872322
      }
    ],
    "color": "#57d824",
    "start_name": "화장실",
    "length_meter": 550.2,
    "time_minute": 9
  },
  {
    "path_id": 10,
    "path": [
      {
        "lat": 36.054222,
        "lng": 127.872322
      },
      {
        "lat": 36.05542,
        "lng": 127.872192
      }
    ],
    "color": "#cbc037",
    "start_name": "황룡사",
    "length_meter": 133.7,
    "time_minute": 2
  },
  {
    "path_id": 11,
    "path": [
      {
        "lat": 36.05542,
        "lng": 127.872192
      },
      {
        "lat": 36.056389,
        "lng": 127.872894
      }
    ],
    "color": "#a47ac3",
    "start_name": "삼도봉식당",
    "length_meter": 124.9,
    "time_minute": 2
  },
  {
    "path_id": 12,
    "path": [
      {
        "lat": 36.056389,
        "lng": 127.872894
      },
      {
        "lat": 36.057159,
        "lng": 127.873276
      }
    ],
    "color": "#b7ec81",
    "start_name": "들머리 등산 안내도 / 화장실",
    "length_meter": 94.6,
    "time_minute": 1
  },
  {
    "path_id": 13,
    "path": [
      {
        "lat": 36.057159,
        "lng": 127.873276
      },
      {
        "lat": 36.058517,
        "lng": 127.874573
      }
    ],
    "color": "#be9a7a",
    "start_name": "물한계곡 이정표 / 나그네가든",
    "length_meter": 192.7,
    "time_minute": 3
  }
]