[
  {
    "path_id": 0,
    "path": [
      {
        "lat": 34.754009,
        "lng": 126.664825
      },
      {
        "lat": 34.753448,
        "lng": 126.671829
      }
    ],
    "color": "#5e83ce",
    "start_name": "갈림길",
    "length_meter": 642.9,
    "time_minute": 10
  },
  {
    "path_id": 1,
    "path": [
      {
        "lat": 34.753448,
        "lng": 126.671829
      },
      {
        "lat": 34.754593,
        "lng": 126.681305
      }
    ],
    "color": "#d4b3a9",
    "start_name": "계곡내 바위",
    "length_meter": 875.0,
    "time_minute": 14
  },
  {
    "path_id": 2,
    "path": [
      {
        "lat": 34.754593,
        "lng": 126.681305
      },
      {
        "lat": 34.753769,
        "lng": 126.685226
      }
    ],
    "color": "#a33fc7",
    "start_name": "동백군락지 끝지점",
    "length_meter": 369.7,
    "time_minute": 6
  },
  {
    "path_id": 3,
    "path": [
      {
        "lat": 34.753769,
        "lng": 126.685226
      },
      {
        "lat": 34.765816,
        "lng": 126.70845
      }
    ],
    "color": "#25ddd9",
    "start_name": "소국 / ㅂ기",
    "length_meter": 2512.8,
    "time_minute": 41
  },
  {
    "path_id": 4,
    "path": [
      {
        "lat": 34.765816,
        "lng": 126.70845
      },
      {
        "lat": 34.76524,
        "lng": 126.709816
      }
    ],
    "color": "#bcf8bc",
    "start_name": "추락사고위험지역 / 천황봉",
    "length_meter": 140.3,
    "time_minute": 2
  },
  {
    "path_id": 5,
    "path": [
      {
        "lat": 34.76524,
        "lng": 126.709816
      },
      {
        "lat": 34.76585,
        "lng": 126.710709
      }
    ],
    "color": "#1e1673",
    "start_name": "국가지점번호 / 구름다리 / 기암바위 뒤로 활성산 풍력",
    "length_meter": 108.6,
    "time_minute": 1
  },
  {
    "path_id": 6,
    "path": [
      {
        "lat": 34.76585,
        "lng": 126.710709
      },
      {
        "lat": 34.766102,
        "lng": 126.711906
      }
    ],
    "color": "#e9af6e",
    "start_name": "급경사지 붕괴위험지역 / 국가지점번호 / 책바위 / 이정표",
    "length_meter": 174.1,
    "time_minute": 2
  },
  {
    "path_id": 7,
    "path": [
      {
        "lat": 34.766102,
        "lng": 126.711906
      },
      {
        "lat": 34.76704,
        "lng": 126.712433
      }
    ],
    "color": "#30cf89",
    "start_name": "심장마비 사망 사고지역",
    "length_meter": 114.9,
    "time_minute": 1
  },
  {
    "path_id": 8,
    "path": [
      {
        "lat": 34.76704,
        "lng": 126.712433
      },
      {
        "lat": 34.768116,
        "lng": 126.712151
      }
    ],
    "color": "#3f3398",
    "start_name": "국가지점번호 / 뱀딸기꽃 / 이정표 / 재난감시용cctv",
    "length_meter": 130.1,
    "time_minute": 2
  },
  {
    "path_id": 9,
    "path": [
      {
        "lat": 34.768116,
        "lng": 126.712151
      },
      {
        "lat": 34.768913,
        "lng": 126.711815
      }
    ],
    "color": "#3b01e4",
    "start_name": "이정표 / 사자봉",
    "length_meter": 93.8,
    "time_minute": 1
  },
  {
    "path_id": 10,
    "path": [
      {
        "lat": 34.768913,
        "lng": 126.711815
      },
      {
        "lat": 34.768913,
        "lng": 126.712395
      }
    ],
    "color": "#7c66d1",
    "start_name": "바람폭포 / 구름다리 / 이정표 / 구름다리 쉼터",
    "length_meter": 68.1,
    "time_minute": 1
  },
  {
    "path_id": 11,
    "path": [
      {
        "lat": 34.768913,
        "lng": 126.712395
      },
      {
        "lat": 34.76825,
        "lng": 126.712677
      }
    ],
    "color": "#d528d2",
    "start_name": "구름다리 / 구름다리안내 / 사고위험지역 / 갈림길 / 탐방로안내 / 국가지점번호 / 쉼터정자 / 비상구급함 / 낙석주의",
    "length_meter": 81.8,
    "time_minute": 1
  },
  {
    "path_id": 12,
    "path": [
      {
        "lat": 34.76825,
        "lng": 126.712677
      },
      {
        "lat": 34.767826,
        "lng": 126.713173
      }
    ],
    "color": "#47d58c",
    "start_name": "급경사로 붕괴 위험지역 / 낙석주의",
    "length_meter": 65.7,
    "time_minute": 1
  },
  {
    "path_id": 13,
    "path": [
      {
        "lat": 34.767826,
        "lng": 126.713173
      },
      {
        "lat": 34.769409,
        "lng": 126.71389
      }
    ],
    "color": "#6fca08",
    "start_name": "국가지점번호 / 낙석주의",
    "length_meter": 190.5,
    "time_minute": 3
  },
  {
    "path_id": 14,
    "path": [
      {
        "lat": 34.769409,
        "lng": 126.71389
      },
      {
        "lat": 34.770096,
        "lng": 126.7146
      }
    ],
    "color": "#5ca4e0",
    "start_name": "이정표 / 바위",
    "length_meter": 102.1,
    "time_minute": 1
  },
  {
    "path_id": 15,
    "path": [
      {
        "lat": 34.770096,
        "lng": 126.7146
      },
      {
        "lat": 34.771194,
        "lng": 126.716743
      }
    ],
    "color": "#a54b06",
    "start_name": "국가지점번호",
    "length_meter": 230.7,
    "time_minute": 3
  },
  {
    "path_id": 16,
    "path": [
      {
        "lat": 34.771194,
        "lng": 126.716743
      },
      {
        "lat": 34.771313,
        "lng": 126.716949
      }
    ],
    "color": "#283dde",
    "start_name": "벌쏘임주의 / 천황사터",
    "length_meter": 96.0,
    "time_minute": 1
  },
  {
    "path_id": 17,
    "path": [
      {
        "lat": 34.771313,
        "lng": 126.716949
      },
      {
        "lat": 34.772469,
        "lng": 126.71817
      }
    ],
    "color": "#397a71",
    "start_name": "이정표 / 천황사",
    "length_meter": 216.7,
    "time_minute": 3
  }
]