{
  "max_ele": 745.0,
  "total_length_km": "6.4km",
  "total_time": "1시간 20분",
  "start_name": "월출산 도갑사주차장화장실",
  "end_name": "갈림길",
  "track": [
    {
      "path_id": 0,
      "path": [
        {
          "lat": 34.75597,
          "lng": 126.657715
        },
        {
          "lat": 34.753788,
          "lng": 126.660568
        }
      ],
      "color": "#9e8aa5",
      "start_name": "월출산 도갑사주차장화장실 / 도갑사주차장화장실 / 월출산 도갑시코스 입구",
      "length_meter": 360.8,
      "time_minute": 6
    },
    {
      "path_id": 1,
      "path": [
        {
          "lat": 34.753788,
          "lng": 126.660568
        },
        {
          "lat": 34.753578,
          "lng": 126.660126
        }
      ],
      "color": "#6a747e",
      "start_name": "보호수",
      "length_meter": 46.6,
      "time_minute": 0
    },
    {
      "path_id": 2,
      "path": [
        {
          "lat": 34.753578,
          "lng": 126.660126
        },
        {
          "lat": 34.752819,
          "lng": 126.661987
        }
      ],
      "color": "#0d13a7",
      "start_name": "대중교통승강장 / 갈림길",
      "length_meter": 214.9,
      "time_minute": 3
    },
    {
      "path_id": 3,
      "path": [
        {
          "lat": 34.752819,
          "lng": 126.661987
        },
        {
          "lat": 34.75325,
          "lng": 126.663704
        }
      ],
      "color": "#0a3fa7",
      "start_name": "도갑사 해탈문 / 도갑사",
      "length_meter": 171.4,
      "time_minute": 2
    },
    {
      "path_id": 4,
      "path": [
        {
          "lat": 34.75325,
          "lng": 126.663704
        },
        {
          "lat": 34.753757,
          "lng": 126.664177
        }
      ],
      "color": "#787667",
      "start_name": "탐방로입구 / 입구",
      "length_meter": 71.8,
      "time_minute": 1
    },
    {
      "path_id": 5,
      "path": [
        {
          "lat": 34.753757,
          "lng": 126.664177
        },
        {
          "lat": 34.754303,
          "lng": 126.66526
        }
      ],
      "color": "#34c115",
      "start_name": "목구조목 / 도갑사계곡",
      "length_meter": 117.3,
      "time_minute": 1
    },
    {
      "path_id": 6,
      "path": [
        {
          "lat": 34.754303,
          "lng": 126.66526
        },
        {
          "lat": 34.753014,
          "lng": 126.668549
        }
      ],
      "color": "#848348",
      "start_name": "도선국사비각",
      "length_meter": 332.9,
      "time_minute": 4
    },
    {
      "path_id": 7,
      "path": [
        {
          "lat": 34.753014,
          "lng": 126.668549
        },
        {
          "lat": 34.7533,
          "lng": 126.686104
        }
      ],
      "color": "#b39640",
      "start_name": "목구조목",
      "length_meter": 1604.1,
      "time_minute": 20
    },
    {
      "path_id": 8,
      "path": [
        {
          "lat": 34.7533,
          "lng": 126.686104
        },
        {
          "lat": 34.753971,
          "lng": 126.68692
        }
      ],
      "color": "#a53d51",
      "start_name": "갈림길 / 억새밭 전망대",
      "length_meter": 115.1,
      "time_minute": 1
    },
    {
      "path_id": 9,
      "path": [
        {
          "lat": 34.753971,
          "lng": 126.68692
        },
        {
          "lat": 34.754187,
          "lng": 126.688411
        }
      ],
      "color": "#922c89",
      "start_name": "목구조목",
      "length_meter": 138.3,
      "time_minute": 1
    },
    {
      "path_id": 10,
      "path": [
        {
          "lat": 34.754187,
          "lng": 126.688411
        },
        {
          "lat": 34.754517,
          "lng": 126.689453
        }
      ],
      "color": "#422004",
      "start_name": "웨이포인트 25",
      "length_meter": 102.0,
      "time_minute": 1
    },
    {
      "path_id": 11,
      "path": [
        {
          "lat": 34.754517,
          "lng": 126.689453
        },
        {
          "lat": 34.755451,
          "lng": 126.690765
        }
      ],
      "color": "#0ea780",
      "start_name": "목구조목",
      "length_meter": 158.6,
      "time_minute": 1
    },
    {
      "path_id": 12,
      "path": [
        {
          "lat": 34.755451,
          "lng": 126.690765
        },
        {
          "lat": 34.757484,
          "lng": 126.692833
        }
      ],
      "color": "#185e6a",
      "start_name": "갈림길 / 목구조목",
      "length_meter": 298.6,
      "time_minute": 4
    },
    {
      "path_id": 13,
      "path": [
        {
          "lat": 34.757484,
          "lng": 126.692833
        },
        {
          "lat": 34.759281,
          "lng": 126.692719
        }
      ],
      "color": "#99a4c4",
      "start_name": "향로봉",
      "length_meter": 200.1,
      "time_minute": 2
    },
    {
      "path_id": 14,
      "path": [
        {
          "lat": 34.759281,
          "lng": 126.692719
        },
        {
          "lat": 34.760395,
          "lng": 126.693642
        }
      ],
      "color": "#63c590",
      "start_name": "갈림길",
      "length_meter": 149.8,
      "time_minute": 1
    },
    {
      "path_id": 15,
      "path": [
        {
          "lat": 34.760395,
          "lng": 126.693642
        },
        {
          "lat": 34.761494,
          "lng": 126.693703
        }
      ],
      "color": "#4d702a",
      "start_name": "목구조목",
      "length_meter": 122.3,
      "time_minute": 1
    },
    {
      "path_id": 16,
      "path": [
        {
          "lat": 34.761494,
          "lng": 126.693703
        },
        {
          "lat": 34.761646,
          "lng": 126.694061
        }
      ],
      "color": "#19c663",
      "start_name": "갈림길",
      "length_meter": 36.8,
      "time_minute": 0
    },
    {
      "path_id": 17,
      "path": [
        {
          "lat": 34.761646,
          "lng": 126.694061
        },
        {
          "lat": 34.762775,
          "lng": 126.692497
        }
      ],
      "color": "#7d60b2",
      "start_name": "구정봉",
      "length_meter": 190.2,
      "time_minute": 2
    },
    {
      "path_id": 18,
      "path": [
        {
          "lat": 34.762775,
          "lng": 126.692497
        },
        {
          "lat": 34.763393,
          "lng": 126.691986
        }
      ],
      "color": "#413222",
      "start_name": "갈림길 / 웨이포인트 48",
      "length_meter": 84.5,
      "time_minute": 1
    },
    {
      "path_id": 19,
      "path": [
        {
          "lat": 34.763393,
          "lng": 126.691986
        },
        {
          "lat": 34.764122,
          "lng": 126.690628
        }
      ],
      "color": "#5d171c",
      "start_name": "목구조목",
      "length_meter": 148.2,
      "time_minute": 1
    },
    {
      "path_id": 20,
      "path": [
        {
          "lat": 34.764122,
          "lng": 126.690628
        },
        {
          "lat": 34.763916,
          "lng": 126.690514
        }
      ],
      "color": "#0d5b21",
      "start_name": "갈림길 / 목구조목",
      "length_meter": 27.2,
      "time_minute": 0
    },
    {
      "path_id": 21,
      "path": [
        {
          "lat": 34.763916,
          "lng": 126.690514
        },
        {
          "lat": 34.764591,
          "lng": 126.689751
        }
      ],
      "color": "#ba9d09",
      "start_name": "마애여래좌상 / 갈림길",
      "length_meter": 106.1,
      "time_minute": 1
    },
    {
      "path_id": 22,
      "path": [
        {
          "lat": 34.764591,
          "lng": 126.689751
        },
        {
          "lat": 34.763476,
          "lng": 126.691813
        }
      ],
      "color": "#47556c",
      "start_name": "삼층석탑",
      "length_meter": 225.5,
      "time_minute": 2
    },
    {
      "path_id": 23,
      "path": [
        {
          "lat": 34.763476,
          "lng": 126.691813
        },
        {
          "lat": 34.760826,
          "lng": 126.69429
        }
      ],
      "color": "#57661f",
      "start_name": "웨이포인트 46 / 웨이포인트 47",
      "length_meter": 371.5,
      "time_minute": 6
    },
    {
      "path_id": 24,
      "path": [
        {
          "lat": 34.760826,
          "lng": 126.69429
        },
        {
          "lat": 34.760644,
          "lng": 126.69636
        }
      ],
      "color": "#1a3978",
      "start_name": "배틀굴",
      "length_meter": 190.2,
      "time_minute": 2
    },
    {
      "path_id": 25,
      "path": [
        {
          "lat": 34.760644,
          "lng": 126.69636
        },
        {
          "lat": 34.761196,
          "lng": 126.697639
        }
      ],
      "color": "#393259",
      "start_name": "웨이포인트 50",
      "length_meter": 132.0,
      "time_minute": 1
    },
    {
      "path_id": 26,
      "path": [
        {
          "lat": 34.761196,
          "lng": 126.697639
        },
        {
          "lat": 34.761758,
          "lng": 126.698929
        }
      ],
      "color": "#708600",
      "start_name": "갈림길 / 목구조목",
      "length_meter": 133.6,
      "time_minute": 2
    },
    {
      "path_id": 27,
      "path": [
        {
          "lat": 34.761758,
          "lng": 126.698929
        },
        {
          "lat": 34.764099,
          "lng": 126.701088
        }
      ],
      "color": "#6e8347",
      "start_name": "웨이포인트 54",
      "length_meter": 326.6,
      "time_minute": 4
    },
    {
      "path_id": 28,
      "path": [
        {
          "lat": 34.764099,
          "lng": 126.701088
        },
        {
          "lat": 34.764507,
          "lng": 126.701385
        }
      ],
      "color": "#c36fc2",
      "start_name": "갈림길",
      "length_meter": 52.9,
      "time_minute": 0
    },
    {
      "path_id": 29,
      "path": [
        {
          "lat": 34.764507,
          "lng": 126.701385
        },
        {
          "lat": 34.76601,
          "lng": 126.702599
        }
      ],
      "color": "#87babd",
      "start_name": "목구조목",
      "length_meter": 200.6,
      "time_minute": 2
    }
  ]
}