[
  {
    "path_id": 0,
    "path": [
      {
        "lat": 34.75597,
        "lng": 126.657715
      },
      {
        "lat": 34.753788,
        "lng": 126.660568
      }
    ],
    "color": "#2c1913",
    "start_name": "월출산 도갑사주차장화장실 / 도갑사주차장화장실 / 월출산 도갑시코스 입구",
    "length_meter": 360.8,
    "time_minute": 6
  },
  {
    "path_id": 1,
    "path": [
      {
        "lat": 34.753788,
        "lng": 126.660568
      },
      {
        "lat": 34.753578,
        "lng": 126.660126
      }
    ],
    "color": "#ab6b04",
    "start_name": "보호수",
    "length_meter": 46.6,
    "time_minute": 0
  },
  {
    "path_id": 2,
    "path": [
      {
        "lat": 34.753578,
        "lng": 126.660126
      },
      {
        "lat": 34.752819,
        "lng": 126.661987
      }
    ],
    "color": "#af313e",
    "start_name": "대중교통승강장 / 갈림길",
    "length_meter": 214.9,
    "time_minute": 3
  },
  {
    "path_id": 3,
    "path": [
      {
        "lat": 34.752819,
        "lng": 126.661987
      },
      {
        "lat": 34.75325,
        "lng": 126.663704
      }
    ],
    "color": "#851d9a",
    "start_name": "도갑사 해탈문 / 도갑사",
    "length_meter": 171.4,
    "time_minute": 2
  },
  {
    "path_id": 4,
    "path": [
      {
        "lat": 34.75325,
        "lng": 126.663704
      },
      {
        "lat": 34.753757,
        "lng": 126.664177
      }
    ],
    "color": "#63c247",
    "start_name": "탐방로입구 / 입구",
    "length_meter": 71.8,
    "time_minute": 1
  },
  {
    "path_id": 5,
    "path": [
      {
        "lat": 34.753757,
        "lng": 126.664177
      },
      {
        "lat": 34.754002,
        "lng": 126.664841
      }
    ],
    "color": "#1dab45",
    "start_name": "목구조목",
    "length_meter": 66.5,
    "time_minute": 1
  },
  {
    "path_id": 6,
    "path": [
      {
        "lat": 34.754002,
        "lng": 126.664841
      },
      {
        "lat": 34.753014,
        "lng": 126.668549
      }
    ],
    "color": "#384b04",
    "start_name": "도갑사계곡 / 도선국사비각",
    "length_meter": 383.8,
    "time_minute": 6
  },
  {
    "path_id": 7,
    "path": [
      {
        "lat": 34.753014,
        "lng": 126.668549
      },
      {
        "lat": 34.7533,
        "lng": 126.686104
      }
    ],
    "color": "#8f2daa",
    "start_name": "목구조목",
    "length_meter": 1604.1,
    "time_minute": 26
  },
  {
    "path_id": 8,
    "path": [
      {
        "lat": 34.7533,
        "lng": 126.686104
      },
      {
        "lat": 34.753971,
        "lng": 126.68692
      }
    ],
    "color": "#06c306",
    "start_name": "갈림길 / 억새밭 전망대",
    "length_meter": 115.1,
    "time_minute": 1
  },
  {
    "path_id": 9,
    "path": [
      {
        "lat": 34.753971,
        "lng": 126.68692
      },
      {
        "lat": 34.754187,
        "lng": 126.688411
      }
    ],
    "color": "#908f95",
    "start_name": "목구조목",
    "length_meter": 138.3,
    "time_minute": 2
  },
  {
    "path_id": 10,
    "path": [
      {
        "lat": 34.754187,
        "lng": 126.688411
      },
      {
        "lat": 34.754517,
        "lng": 126.689453
      }
    ],
    "color": "#77829a",
    "start_name": "웨이포인트 25",
    "length_meter": 102.0,
    "time_minute": 1
  },
  {
    "path_id": 11,
    "path": [
      {
        "lat": 34.754517,
        "lng": 126.689453
      },
      {
        "lat": 34.755451,
        "lng": 126.690765
      }
    ],
    "color": "#ae4986",
    "start_name": "목구조목",
    "length_meter": 158.6,
    "time_minute": 2
  },
  {
    "path_id": 12,
    "path": [
      {
        "lat": 34.755451,
        "lng": 126.690765
      },
      {
        "lat": 34.757484,
        "lng": 126.692833
      }
    ],
    "color": "#253159",
    "start_name": "갈림길 / 목구조목",
    "length_meter": 298.6,
    "time_minute": 4
  },
  {
    "path_id": 13,
    "path": [
      {
        "lat": 34.757484,
        "lng": 126.692833
      },
      {
        "lat": 34.759281,
        "lng": 126.692719
      }
    ],
    "color": "#80a5a6",
    "start_name": "향로봉",
    "length_meter": 200.1,
    "time_minute": 3
  },
  {
    "path_id": 14,
    "path": [
      {
        "lat": 34.759281,
        "lng": 126.692719
      },
      {
        "lat": 34.760395,
        "lng": 126.693642
      }
    ],
    "color": "#18a212",
    "start_name": "갈림길",
    "length_meter": 149.8,
    "time_minute": 2
  },
  {
    "path_id": 15,
    "path": [
      {
        "lat": 34.760395,
        "lng": 126.693642
      },
      {
        "lat": 34.761494,
        "lng": 126.693703
      }
    ],
    "color": "#6810ae",
    "start_name": "목구조목",
    "length_meter": 122.3,
    "time_minute": 2
  },
  {
    "path_id": 16,
    "path": [
      {
        "lat": 34.761494,
        "lng": 126.693703
      },
      {
        "lat": 34.761646,
        "lng": 126.694061
      }
    ],
    "color": "#bb8237",
    "start_name": "갈림길",
    "length_meter": 36.8,
    "time_minute": 0
  },
  {
    "path_id": 17,
    "path": [
      {
        "lat": 34.761646,
        "lng": 126.694061
      },
      {
        "lat": 34.762775,
        "lng": 126.692497
      }
    ],
    "color": "#3a2e1a",
    "start_name": "구정봉",
    "length_meter": 190.2,
    "time_minute": 3
  },
  {
    "path_id": 18,
    "path": [
      {
        "lat": 34.762775,
        "lng": 126.692497
      },
      {
        "lat": 34.763393,
        "lng": 126.691986
      }
    ],
    "color": "#27bc28",
    "start_name": "갈림길 / 웨이포인트 48",
    "length_meter": 84.5,
    "time_minute": 1
  },
  {
    "path_id": 19,
    "path": [
      {
        "lat": 34.763393,
        "lng": 126.691986
      },
      {
        "lat": 34.764122,
        "lng": 126.690628
      }
    ],
    "color": "#67b11c",
    "start_name": "목구조목",
    "length_meter": 148.2,
    "time_minute": 2
  },
  {
    "path_id": 20,
    "path": [
      {
        "lat": 34.764122,
        "lng": 126.690628
      },
      {
        "lat": 34.763916,
        "lng": 126.690514
      }
    ],
    "color": "#8f9c18",
    "start_name": "갈림길 / 목구조목",
    "length_meter": 27.2,
    "time_minute": 0
  },
  {
    "path_id": 21,
    "path": [
      {
        "lat": 34.763916,
        "lng": 126.690514
      },
      {
        "lat": 34.764591,
        "lng": 126.689751
      }
    ],
    "color": "#81057b",
    "start_name": "마애여래좌상 / 갈림길",
    "length_meter": 106.1,
    "time_minute": 1
  },
  {
    "path_id": 22,
    "path": [
      {
        "lat": 34.764591,
        "lng": 126.689751
      },
      {
        "lat": 34.763476,
        "lng": 126.691813
      }
    ],
    "color": "#7c6f97",
    "start_name": "삼층석탑",
    "length_meter": 225.5,
    "time_minute": 3
  },
  {
    "path_id": 23,
    "path": [
      {
        "lat": 34.763476,
        "lng": 126.691813
      },
      {
        "lat": 34.760826,
        "lng": 126.69429
      }
    ],
    "color": "#bf487b",
    "start_name": "웨이포인트 46 / 웨이포인트 47",
    "length_meter": 371.5,
    "time_minute": 6
  },
  {
    "path_id": 24,
    "path": [
      {
        "lat": 34.760826,
        "lng": 126.69429
      },
      {
        "lat": 34.760644,
        "lng": 126.69636
      }
    ],
    "color": "#491675",
    "start_name": "배틀굴",
    "length_meter": 190.2,
    "time_minute": 3
  },
  {
    "path_id": 25,
    "path": [
      {
        "lat": 34.760644,
        "lng": 126.69636
      },
      {
        "lat": 34.761196,
        "lng": 126.697639
      }
    ],
    "color": "#58b398",
    "start_name": "웨이포인트 50",
    "length_meter": 132.0,
    "time_minute": 2
  },
  {
    "path_id": 26,
    "path": [
      {
        "lat": 34.761196,
        "lng": 126.697639
      },
      {
        "lat": 34.761758,
        "lng": 126.698929
      }
    ],
    "color": "#783964",
    "start_name": "갈림길 / 목구조목",
    "length_meter": 133.6,
    "time_minute": 2
  },
  {
    "path_id": 27,
    "path": [
      {
        "lat": 34.761758,
        "lng": 126.698929
      },
      {
        "lat": 34.764099,
        "lng": 126.701088
      }
    ],
    "color": "#39545b",
    "start_name": "웨이포인트 54",
    "length_meter": 326.6,
    "time_minute": 5
  },
  {
    "path_id": 28,
    "path": [
      {
        "lat": 34.764099,
        "lng": 126.701088
      },
      {
        "lat": 34.764507,
        "lng": 126.701385
      }
    ],
    "color": "#60c568",
    "start_name": "갈림길",
    "length_meter": 52.9,
    "time_minute": 0
  },
  {
    "path_id": 29,
    "path": [
      {
        "lat": 34.764507,
        "lng": 126.701385
      },
      {
        "lat": 34.76601,
        "lng": 126.702599
      }
    ],
    "color": "#91906f",
    "start_name": "목구조목",
    "length_meter": 200.6,
    "time_minute": 3
  }
]