[
  {
    "path_id": 0,
    "path": [
      {
        "lat": 35.60939,
        "lng": 126.582047
      },
      {
        "lat": 35.615734,
        "lng": 126.577629
      }
    ],
    "color": "#cf3d11",
    "start_name": "원암매표소",
    "length_meter": 810.6,
    "time_minute": 13
  },
  {
    "path_id": 1,
    "path": [
      {
        "lat": 35.615734,
        "lng": 126.577629
      },
      {
        "lat": 35.618469,
        "lng": 126.575539
      }
    ],
    "color": "#73200c",
    "start_name": "주능선조망",
    "length_meter": 358.0,
    "time_minute": 5
  },
  {
    "path_id": 2,
    "path": [
      {
        "lat": 35.618469,
        "lng": 126.575539
      },
      {
        "lat": 35.618855,
        "lng": 126.573715
      }
    ],
    "color": "#9c132b",
    "start_name": "갈림길 / 재백이삼거리 쉄터 / 재백이삼거리",
    "length_meter": 192.1,
    "time_minute": 3
  },
  {
    "path_id": 3,
    "path": [
      {
        "lat": 35.618855,
        "lng": 126.573715
      },
      {
        "lat": 35.618942,
        "lng": 126.572708
      }
    ],
    "color": "#e3c9b8",
    "start_name": "원시림숲길",
    "length_meter": 91.5,
    "time_minute": 1
  },
  {
    "path_id": 4,
    "path": [
      {
        "lat": 35.618942,
        "lng": 126.572708
      },
      {
        "lat": 35.620235,
        "lng": 126.572212
      }
    ],
    "color": "#1fdc63",
    "start_name": "재백이다리 / 비상우회로",
    "length_meter": 150.7,
    "time_minute": 2
  },
  {
    "path_id": 5,
    "path": [
      {
        "lat": 35.620235,
        "lng": 126.572212
      },
      {
        "lat": 35.626915,
        "lng": 126.569519
      }
    ],
    "color": "#d0cdab",
    "start_name": "갈림길",
    "length_meter": 781.6,
    "time_minute": 13
  },
  {
    "path_id": 6,
    "path": [
      {
        "lat": 35.626915,
        "lng": 126.569519
      },
      {
        "lat": 35.627399,
        "lng": 126.570129
      }
    ],
    "color": "#1113bf",
    "start_name": "직소폭포 상단",
    "length_meter": 77.0,
    "time_minute": 1
  },
  {
    "path_id": 7,
    "path": [
      {
        "lat": 35.627399,
        "lng": 126.570129
      },
      {
        "lat": 35.62701,
        "lng": 126.570045
      }
    ],
    "color": "#7ab24a",
    "start_name": "직소폭포인근 / 직소폭포 조망 / 갈림길",
    "length_meter": 145.7,
    "time_minute": 2
  },
  {
    "path_id": 8,
    "path": [
      {
        "lat": 35.62701,
        "lng": 126.570045
      },
      {
        "lat": 35.627754,
        "lng": 126.570763
      }
    ],
    "color": "#fb46eb",
    "start_name": "직소폭포",
    "length_meter": 105.1,
    "time_minute": 1
  },
  {
    "path_id": 9,
    "path": [
      {
        "lat": 35.627754,
        "lng": 126.570763
      },
      {
        "lat": 35.628502,
        "lng": 126.573357
      }
    ],
    "color": "#2668fc",
    "start_name": "직소폭포전망대 / 적소폭포외",
    "length_meter": 267.8,
    "time_minute": 4
  },
  {
    "path_id": 10,
    "path": [
      {
        "lat": 35.628502,
        "lng": 126.573357
      },
      {
        "lat": 35.630245,
        "lng": 126.573341
      }
    ],
    "color": "#df386d",
    "start_name": "선녀탕 / 갈림길",
    "length_meter": 195.7,
    "time_minute": 3
  },
  {
    "path_id": 11,
    "path": [
      {
        "lat": 35.630245,
        "lng": 126.573341
      },
      {
        "lat": 35.631741,
        "lng": 126.57238
      }
    ],
    "color": "#cfe9b6",
    "start_name": "직소보 / 직소보",
    "length_meter": 187.7,
    "time_minute": 3
  },
  {
    "path_id": 12,
    "path": [
      {
        "lat": 35.631741,
        "lng": 126.57238
      },
      {
        "lat": 35.632404,
        "lng": 126.573547
      }
    ],
    "color": "#236ad7",
    "start_name": "직소보전망대",
    "length_meter": 128.7,
    "time_minute": 2
  },
  {
    "path_id": 13,
    "path": [
      {
        "lat": 35.632404,
        "lng": 126.573547
      },
      {
        "lat": 35.637234,
        "lng": 126.568954
      }
    ],
    "color": "#692b44",
    "start_name": "자연보호헌장 / 갈림길",
    "length_meter": 681.0,
    "time_minute": 11
  },
  {
    "path_id": 14,
    "path": [
      {
        "lat": 35.637234,
        "lng": 126.568954
      },
      {
        "lat": 35.639278,
        "lng": 126.567162
      }
    ],
    "color": "#ed9191",
    "start_name": "포토존",
    "length_meter": 279.1,
    "time_minute": 4
  },
  {
    "path_id": 15,
    "path": [
      {
        "lat": 35.639278,
        "lng": 126.567162
      },
      {
        "lat": 35.640511,
        "lng": 126.55822
      }
    ],
    "color": "#e390f9",
    "start_name": "개별쉄터",
    "length_meter": 819.6,
    "time_minute": 13
  },
  {
    "path_id": 16,
    "path": [
      {
        "lat": 35.640511,
        "lng": 126.55822
      },
      {
        "lat": 35.643318,
        "lng": 126.557159
      }
    ],
    "color": "#fa36b4",
    "start_name": "월명암",
    "length_meter": 326.5,
    "time_minute": 5
  },
  {
    "path_id": 17,
    "path": [
      {
        "lat": 35.643318,
        "lng": 126.557159
      },
      {
        "lat": 35.647533,
        "lng": 126.553108
      }
    ],
    "color": "#28a5ea",
    "start_name": "갈림길",
    "length_meter": 594.7,
    "time_minute": 9
  },
  {
    "path_id": 18,
    "path": [
      {
        "lat": 35.647533,
        "lng": 126.553108
      },
      {
        "lat": 35.651192,
        "lng": 126.547539
      }
    ],
    "color": "#72e3b1",
    "start_name": "내변산쉄터",
    "length_meter": 647.1,
    "time_minute": 10
  },
  {
    "path_id": 19,
    "path": [
      {
        "lat": 35.651192,
        "lng": 126.547539
      },
      {
        "lat": 35.651093,
        "lng": 126.547585
      }
    ],
    "color": "#692fdd",
    "start_name": "남여치주차장",
    "length_meter": 11.8,
    "time_minute": 0
  }
]