{
  "max_ele": 1009.786,
  "track": [
    {
      "path_id": 1,
      "name": "유치곤기념관 주차장",
      "lat": 35.700035,
      "lon": 128.499146,
      "ele": 315.874
    },
    {
      "path_id": 2,
      "name": "유치곤기념관 화장실",
      "lat": 35.699921,
      "lon": 128.498962,
      "ele": 314.794
    },
    {
      "path_id": 3,
      "name": "유치곤장군 기념관",
      "lat": 35.699898,
      "lon": 128.498917,
      "ele": 314.074
    },
    {
      "path_id": 4,
      "name": "쉼터",
      "lat": 35.700184,
      "lon": 128.505188,
      "ele": 354.551
    },
    {
      "path_id": 5,
      "name": "돌산",
      "lat": 35.703827,
      "lon": 128.513931,
      "ele": 513.873
    },
    {
      "path_id": 6,
      "name": "쉼터2",
      "lat": 35.706524,
      "lon": 128.519241,
      "ele": 706.338
    },
    {
      "path_id": 7,
      "name": "쉼터",
      "lat": 35.702488,
      "lon": 128.522903,
      "ele": 909.852
    },
    {
      "path_id": 8,
      "name": "멋진뷰",
      "lat": 35.702518,
      "lon": 128.522903,
      "ele": 908.093
    },
    {
      "path_id": 9,
      "name": "멋진뷰",
      "lat": 35.70137,
      "lon": 128.523743,
      "ele": 949.614
    },
    {
      "path_id": 10,
      "name": "포토존",
      "lat": 35.701355,
      "lon": 128.523727,
      "ele": 949.786
    },
    {
      "path_id": 11,
      "name": "갈림길",
      "lat": 35.700886,
      "lon": 128.530334,
      "ele": 974.426
    },
    {
      "path_id": 12,
      "name": "참꽃군락지 쉼터",
      "lat": 35.700859,
      "lon": 128.53035,
      "ele": 974.35
    },
    {
      "path_id": 13,
      "name": "참꽃군락지",
      "lat": 35.700874,
      "lon": 128.531982,
      "ele": 972.535
    },
    {
      "path_id": 14,
      "name": "갈림길",
      "lat": 35.703686,
      "lon": 128.533173,
      "ele": 981.814
    },
    {
      "path_id": 15,
      "name": "청도비슬산 둘레길 안내도",
      "lat": 35.704231,
      "lon": 128.533615,
      "ele": 1009.786
    },
    {
      "path_id": 16,
      "name": "갈림길",
      "lat": 35.70417,
      "lon": 128.533615,
      "ele": 998.684
    },
    {
      "path_id": 17,
      "name": "월광봉 뷰",
      "lat": 35.704189,
      "lon": 128.533615,
      "ele": 1004.734
    },
    {
      "path_id": 18,
      "name": "월광봉",
      "lat": 35.704239,
      "lon": 128.5336,
      "ele": 988.475
    },
    {
      "path_id": 19,
      "name": "참꽃군락지 포토존",
      "lat": 35.700871,
      "lon": 128.531998,
      "ele": 972.557
    },
    {
      "path_id": 20,
      "name": "갈림길",
      "lat": 35.696854,
      "lon": 128.529526,
      "ele": 1001.785
    },
    {
      "path_id": 21,
      "name": "용리사지2",
      "lat": 35.69342,
      "lon": 128.519608,
      "ele": 850.268
    },
    {
      "path_id": 22,
      "name": "돌산",
      "lat": 35.690536,
      "lon": 128.517944,
      "ele": 691.165
    }
  ]
}
