[
  {
    "path_id": 0,
    "path": [
      {
        "lat": 37.146011,
        "lng": 128.492233
      },
      {
        "lat": 37.13168,
        "lng": 128.503632
      }
    ],
    "color": "#572806",
    "start_name": "태화산 유아 숲 체험원",
    "length_meter": 1886.9,
    "time_minute": 31
  },
  {
    "path_id": 1,
    "path": [
      {
        "lat": 37.13168,
        "lng": 128.503632
      },
      {
        "lat": 37.132839,
        "lng": 128.503067
      }
    ],
    "color": "#4c660c",
    "start_name": "갈림길 6",
    "length_meter": 138.3,
    "time_minute": 2
  },
  {
    "path_id": 2,
    "path": [
      {
        "lat": 37.132839,
        "lng": 128.503067
      },
      {
        "lat": 37.123077,
        "lng": 128.490173
      }
    ],
    "color": "#318116",
    "start_name": "태화산성",
    "length_meter": 1576.4,
    "time_minute": 26
  },
  {
    "path_id": 3,
    "path": [
      {
        "lat": 37.123077,
        "lng": 128.490173
      },
      {
        "lat": 37.121571,
        "lng": 128.489334
      }
    ],
    "color": "#a9e5ee",
    "start_name": "쉼터",
    "length_meter": 183.2,
    "time_minute": 3
  },
  {
    "path_id": 4,
    "path": [
      {
        "lat": 37.121571,
        "lng": 128.489334
      },
      {
        "lat": 37.117867,
        "lng": 128.486526
      }
    ],
    "color": "#3c0e04",
    "start_name": "갈림길 10",
    "length_meter": 481.3,
    "time_minute": 8
  },
  {
    "path_id": 5,
    "path": [
      {
        "lat": 37.117867,
        "lng": 128.486526
      },
      {
        "lat": 37.117607,
        "lng": 128.485626
      }
    ],
    "color": "#59131b",
    "start_name": "쉼터",
    "length_meter": 84.9,
    "time_minute": 1
  },
  {
    "path_id": 6,
    "path": [
      {
        "lat": 37.117607,
        "lng": 128.485626
      },
      {
        "lat": 37.14257,
        "lng": 128.46933
      }
    ],
    "color": "#728d04",
    "start_name": "태화산정상",
    "length_meter": 3129.2,
    "time_minute": 52
  },
  {
    "path_id": 7,
    "path": [
      {
        "lat": 37.14257,
        "lng": 128.46933
      },
      {
        "lat": 37.14259,
        "lng": 128.469589
      }
    ],
    "color": "#58b308",
    "start_name": "화장실 / 큰골버스승강장",
    "length_meter": 23.3,
    "time_minute": 0
  }
]