{
  "max_ele": 1044.541,
  "total_length_km": "7.5km",
  "total_time": "1시간 33분",
  "start_name": "태화산 유아 숲 체험원",
  "end_name": "큰골버스승강장",
  "track": [
    {
      "path_id": 0,
      "path": [
        {
          "lat": 37.146011,
          "lng": 128.492233
        },
        {
          "lat": 37.13168,
          "lng": 128.503632
        }
      ],
      "color": "#822f9c",
      "start_name": "태화산 유아 숲 체험원",
      "length_meter": 1886.9,
      "time_minute": 23
    },
    {
      "path_id": 1,
      "path": [
        {
          "lat": 37.13168,
          "lng": 128.503632
        },
        {
          "lat": 37.132839,
          "lng": 128.503067
        }
      ],
      "color": "#0d0b24",
      "start_name": "갈림길",
      "length_meter": 138.3,
      "time_minute": 1
    },
    {
      "path_id": 2,
      "path": [
        {
          "lat": 37.132839,
          "lng": 128.503067
        },
        {
          "lat": 37.123077,
          "lng": 128.490173
        }
      ],
      "color": "#788d17",
      "start_name": "태화산성",
      "length_meter": 1576.4,
      "time_minute": 19
    },
    {
      "path_id": 3,
      "path": [
        {
          "lat": 37.123077,
          "lng": 128.490173
        },
        {
          "lat": 37.121571,
          "lng": 128.489334
        }
      ],
      "color": "#a49067",
      "start_name": "쉼터",
      "length_meter": 183.2,
      "time_minute": 2
    },
    {
      "path_id": 4,
      "path": [
        {
          "lat": 37.121571,
          "lng": 128.489334
        },
        {
          "lat": 37.117867,
          "lng": 128.486526
        }
      ],
      "color": "#3f012f",
      "start_name": "갈림길",
      "length_meter": 481.3,
      "time_minute": 6
    },
    {
      "path_id": 5,
      "path": [
        {
          "lat": 37.117867,
          "lng": 128.486526
        },
        {
          "lat": 37.117607,
          "lng": 128.485626
        }
      ],
      "color": "#514d3d",
      "start_name": "쉼터",
      "length_meter": 84.9,
      "time_minute": 1
    },
    {
      "path_id": 6,
      "path": [
        {
          "lat": 37.117607,
          "lng": 128.485626
        },
        {
          "lat": 37.142597,
          "lng": 128.469513
        }
      ],
      "color": "#8f0f2d",
      "start_name": "태화산정상",
      "length_meter": 3124.4,
      "time_minute": 39
    }
  ]
}