[
  {
    "path_id": 0,
    "path": [
      {
        "lat": 37.146011,
        "lng": 128.492233
      },
      {
        "lat": 37.13168,
        "lng": 128.503632
      }
    ],
    "color": "#bbc8d0",
    "start_name": "태화산 유아 숲 체험원",
    "length_meter": 1886.9,
    "time_minute": 31
  },
  {
    "path_id": 1,
    "path": [
      {
        "lat": 37.13168,
        "lng": 128.503632
      },
      {
        "lat": 37.132839,
        "lng": 128.503067
      }
    ],
    "color": "#1a10a6",
    "start_name": "갈림길 6",
    "length_meter": 138.3,
    "time_minute": 2
  },
  {
    "path_id": 2,
    "path": [
      {
        "lat": 37.132839,
        "lng": 128.503067
      },
      {
        "lat": 37.121571,
        "lng": 128.489334
      }
    ],
    "color": "#915dc8",
    "start_name": "태화산성",
    "length_meter": 1747.1,
    "time_minute": 29
  },
  {
    "path_id": 3,
    "path": [
      {
        "lat": 37.121571,
        "lng": 128.489334
      },
      {
        "lat": 37.117607,
        "lng": 128.485626
      }
    ],
    "color": "#aa4518",
    "start_name": "갈림길 10",
    "length_meter": 549.9,
    "time_minute": 9
  },
  {
    "path_id": 4,
    "path": [
      {
        "lat": 37.117607,
        "lng": 128.485626
      },
      {
        "lat": 37.14257,
        "lng": 128.46933
      }
    ],
    "color": "#5df950",
    "start_name": "태화산정상",
    "length_meter": 3129.2,
    "time_minute": 52
  },
  {
    "path_id": 5,
    "path": [
      {
        "lat": 37.14257,
        "lng": 128.46933
      },
      {
        "lat": 37.142597,
        "lng": 128.469513
      }
    ],
    "color": "#a75023",
    "start_name": "화장실",
    "length_meter": 16.5,
    "time_minute": 0
  }
]