[
  {
    "path_id": 0,
    "path": [
      {
        "lat": 37.146011,
        "lng": 128.492233
      },
      {
        "lat": 37.13168,
        "lng": 128.503632
      }
    ],
    "color": "#ee605d",
    "start_point_name": "태화산 유아 숲 체험원",
    "length": 1886,
    "time": "31"
  },
  {
    "path_id": 1,
    "path": [
      {
        "lat": 37.13168,
        "lng": 128.503632
      },
      {
        "lat": 37.132839,
        "lng": 128.503067
      }
    ],
    "color": "#a8530d",
    "start_point_name": "갈림길 6",
    "length": 138,
    "time": "2"
  },
  {
    "path_id": 2,
    "path": [
      {
        "lat": 37.132839,
        "lng": 128.503067
      },
      {
        "lat": 37.123077,
        "lng": 128.490173
      }
    ],
    "color": "#8ece3b",
    "start_point_name": "태화산성",
    "length": 1576,
    "time": "26"
  },
  {
    "path_id": 3,
    "path": [
      {
        "lat": 37.123077,
        "lng": 128.490173
      },
      {
        "lat": 37.121571,
        "lng": 128.489334
      }
    ],
    "color": "#89d8ca",
    "start_point_name": "쉼터",
    "length": 183,
    "time": "3"
  },
  {
    "path_id": 4,
    "path": [
      {
        "lat": 37.121571,
        "lng": 128.489334
      },
      {
        "lat": 37.117867,
        "lng": 128.486526
      }
    ],
    "color": "#6832a8",
    "start_point_name": "갈림길 10",
    "length": 481,
    "time": "8"
  },
  {
    "path_id": 5,
    "path": [
      {
        "lat": 37.117867,
        "lng": 128.486526
      },
      {
        "lat": 37.117607,
        "lng": 128.485626
      }
    ],
    "color": "#9478d4",
    "start_point_name": "쉼터",
    "length": 84,
    "time": "1"
  },
  {
    "path_id": 6,
    "path": [
      {
        "lat": 37.117607,
        "lng": 128.485626
      },
      {
        "lat": 37.14257,
        "lng": 128.46933
      }
    ],
    "color": "#d9a3ea",
    "start_point_name": "태화산정상",
    "length": 3129,
    "time": "52"
  },
  {
    "path_id": 7,
    "path": [
      {
        "lat": 37.14257,
        "lng": 128.46933
      },
      {
        "lat": 37.142597,
        "lng": 128.469513
      }
    ],
    "color": "#d76a89",
    "start_point_name": "화장실",
    "length": 16,
    "time": "0"
  },
  {
    "path_id": 8,
    "path": [
      {
        "lat": 37.142597,
        "lng": 128.469513
      },
      {
        "lat": 37.14259,
        "lng": 128.469589
      }
    ],
    "color": "#1e1360",
    "start_point_name": "큰골버스승강장",
    "length": 6,
    "time": "0"
  }
]