[
  {
    "path_id": 0,
    "path": [
      {
        "lat": 37.612511,
        "lng": 126.448242
      },
      {
        "lat": 37.609676,
        "lng": 126.443558
      }
    ],
    "color": "#ff623f",
    "start_name": "갈림길 / 갈림길 / 화장실",
    "length_meter": 543.8,
    "time_minute": 9
  },
  {
    "path_id": 1,
    "path": [
      {
        "lat": 37.609676,
        "lng": 126.443558
      },
      {
        "lat": 37.608868,
        "lng": 126.443642
      }
    ],
    "color": "#1a2250",
    "start_name": "갈림길",
    "length_meter": 90.1,
    "time_minute": 1
  },
  {
    "path_id": 2,
    "path": [
      {
        "lat": 37.608868,
        "lng": 126.443642
      },
      {
        "lat": 37.609665,
        "lng": 126.441025
      }
    ],
    "color": "#c993c1",
    "start_name": "사랑의하트석 / 갈림길",
    "length_meter": 275.5,
    "time_minute": 4
  },
  {
    "path_id": 3,
    "path": [
      {
        "lat": 37.609665,
        "lng": 126.441025
      },
      {
        "lat": 37.609814,
        "lng": 126.440315
      }
    ],
    "color": "#1d38a3",
    "start_name": "미끄럼주의 / 미끄럼주의",
    "length_meter": 66.1,
    "time_minute": 1
  },
  {
    "path_id": 4,
    "path": [
      {
        "lat": 37.609814,
        "lng": 126.440315
      },
      {
        "lat": 37.610806,
        "lng": 126.439171
      }
    ],
    "color": "#61c776",
    "start_name": "추락주의",
    "length_meter": 149.4,
    "time_minute": 2
  },
  {
    "path_id": 5,
    "path": [
      {
        "lat": 37.610806,
        "lng": 126.439171
      },
      {
        "lat": 37.612125,
        "lng": 126.438034
      }
    ],
    "color": "#5fb4de",
    "start_name": "추락주의",
    "length_meter": 177.6,
    "time_minute": 2
  },
  {
    "path_id": 6,
    "path": [
      {
        "lat": 37.612125,
        "lng": 126.438034
      },
      {
        "lat": 37.61356,
        "lng": 126.440643
      }
    ],
    "color": "#8b18b9",
    "start_name": "추락사고위험구간 / 갈림길",
    "length_meter": 280.4,
    "time_minute": 4
  },
  {
    "path_id": 7,
    "path": [
      {
        "lat": 37.61356,
        "lng": 126.440643
      },
      {
        "lat": 37.612217,
        "lng": 126.443977
      }
    ],
    "color": "#73b1b4",
    "start_name": "갈림길",
    "length_meter": 329.5,
    "time_minute": 5
  },
  {
    "path_id": 8,
    "path": [
      {
        "lat": 37.612217,
        "lng": 126.443977
      },
      {
        "lat": 37.609936,
        "lng": 126.443565
      }
    ],
    "color": "#d461f4",
    "start_name": "갈림길",
    "length_meter": 256.2,
    "time_minute": 4
  },
  {
    "path_id": 9,
    "path": [
      {
        "lat": 37.609936,
        "lng": 126.443565
      },
      {
        "lat": 37.612679,
        "lng": 126.44519
      }
    ],
    "color": "#88041f",
    "start_name": "갈림길",
    "length_meter": 336.9,
    "time_minute": 5
  },
  {
    "path_id": 10,
    "path": [
      {
        "lat": 37.612679,
        "lng": 126.44519
      },
      {
        "lat": 37.612789,
        "lng": 126.446022
      }
    ],
    "color": "#874555",
    "start_name": "추락사고위험",
    "length_meter": 74.3,
    "time_minute": 1
  },
  {
    "path_id": 11,
    "path": [
      {
        "lat": 37.612789,
        "lng": 126.446022
      },
      {
        "lat": 37.612789,
        "lng": 126.447151
      }
    ],
    "color": "#9229fa",
    "start_name": "함허동천계곡 / 야영장쉼터",
    "length_meter": 128.2,
    "time_minute": 2
  },
  {
    "path_id": 12,
    "path": [
      {
        "lat": 37.612789,
        "lng": 126.447151
      },
      {
        "lat": 37.612312,
        "lng": 126.448166
      }
    ],
    "color": "#24a73b",
    "start_name": "야영장 쉼터 / 야영장쉼터 / 화장실",
    "length_meter": 110.7,
    "time_minute": 1
  },
  {
    "path_id": 13,
    "path": [
      {
        "lat": 37.612312,
        "lng": 126.448166
      },
      {
        "lat": 37.611984,
        "lng": 126.448639
      }
    ],
    "color": "#486d78",
    "start_name": "야영장쉼터 / 야영장쉼터",
    "length_meter": 56.2,
    "time_minute": 0
  }
]