[
  {
    "path_id": 0,
    "path": [
      {
        "lat": 37.609451,
        "lng": 126.456833
      },
      {
        "lat": 37.609673,
        "lng": 126.456306
      }
    ],
    "color": "#1aa90b",
    "start_name": "함허동천 / 함허동천 주차장 / 함허동천 2,  3주차장",
    "length_meter": 66.7,
    "time_minute": 1
  },
  {
    "path_id": 1,
    "path": [
      {
        "lat": 37.609673,
        "lng": 126.456306
      },
      {
        "lat": 37.610039,
        "lng": 126.455589
      }
    ],
    "color": "#723616",
    "start_name": "야영장 만남 슈퍼",
    "length_meter": 75.1,
    "time_minute": 1
  },
  {
    "path_id": 2,
    "path": [
      {
        "lat": 37.610039,
        "lng": 126.455589
      },
      {
        "lat": 37.610329,
        "lng": 126.454834
      }
    ],
    "color": "#1a0181",
    "start_name": "입구 화장실 / 1주차장 / 이레가든",
    "length_meter": 74.5,
    "time_minute": 1
  },
  {
    "path_id": 3,
    "path": [
      {
        "lat": 37.610329,
        "lng": 126.454834
      },
      {
        "lat": 37.610756,
        "lng": 126.454376
      }
    ],
    "color": "#58ac7a",
    "start_name": "구름계곡 슈퍼",
    "length_meter": 62.3,
    "time_minute": 1
  },
  {
    "path_id": 4,
    "path": [
      {
        "lat": 37.610756,
        "lng": 126.454376
      },
      {
        "lat": 37.611355,
        "lng": 126.45314
      }
    ],
    "color": "#81ac7a",
    "start_name": "입구 매표소",
    "length_meter": 127.6,
    "time_minute": 2
  },
  {
    "path_id": 5,
    "path": [
      {
        "lat": 37.611355,
        "lng": 126.45314
      },
      {
        "lat": 37.612072,
        "lng": 126.452118
      }
    ],
    "color": "#802c73",
    "start_name": "매점 / 화장실",
    "length_meter": 123.5,
    "time_minute": 2
  },
  {
    "path_id": 6,
    "path": [
      {
        "lat": 37.612072,
        "lng": 126.452118
      },
      {
        "lat": 37.611843,
        "lng": 126.451057
      }
    ],
    "color": "#919c7c",
    "start_name": "2야영장 / 갈림길",
    "length_meter": 114.1,
    "time_minute": 1
  },
  {
    "path_id": 7,
    "path": [
      {
        "lat": 37.611843,
        "lng": 126.451057
      },
      {
        "lat": 37.612972,
        "lng": 126.435555
      }
    ],
    "color": "#1a6828",
    "start_name": "함허정 / 갈림길",
    "length_meter": 1394.8,
    "time_minute": 23
  },
  {
    "path_id": 8,
    "path": [
      {
        "lat": 37.612972,
        "lng": 126.435555
      },
      {
        "lat": 37.615139,
        "lng": 126.431122
      }
    ],
    "color": "#ac4611",
    "start_name": "능선길2",
    "length_meter": 458.8,
    "time_minute": 7
  },
  {
    "path_id": 9,
    "path": [
      {
        "lat": 37.615139,
        "lng": 126.431122
      },
      {
        "lat": 37.614395,
        "lng": 126.432266
      }
    ],
    "color": "#0c0b61",
    "start_name": "참성단 중수비",
    "length_meter": 130.4,
    "time_minute": 2
  },
  {
    "path_id": 10,
    "path": [
      {
        "lat": 37.614395,
        "lng": 126.432266
      },
      {
        "lat": 37.607464,
        "lng": 126.443993
      }
    ],
    "color": "#624fa6",
    "start_name": "능선길 바다경관",
    "length_meter": 1288.8,
    "time_minute": 21
  },
  {
    "path_id": 11,
    "path": [
      {
        "lat": 37.607464,
        "lng": 126.443993
      },
      {
        "lat": 37.607349,
        "lng": 126.443855
      }
    ],
    "color": "#23773b",
    "start_name": "정수사로 매표소",
    "length_meter": 17.6,
    "time_minute": 0
  },
  {
    "path_id": 12,
    "path": [
      {
        "lat": 37.607349,
        "lng": 126.443855
      },
      {
        "lat": 37.60738,
        "lng": 126.445091
      }
    ],
    "color": "#a3634a",
    "start_name": "간이화장실 / 갈림길",
    "length_meter": 112.1,
    "time_minute": 1
  },
  {
    "path_id": 13,
    "path": [
      {
        "lat": 37.60738,
        "lng": 126.445091
      },
      {
        "lat": 37.606773,
        "lng": 126.445267
      }
    ],
    "color": "#c18972",
    "start_name": "정수사",
    "length_meter": 69.3,
    "time_minute": 1
  },
  {
    "path_id": 14,
    "path": [
      {
        "lat": 37.606773,
        "lng": 126.445267
      },
      {
        "lat": 37.605957,
        "lng": 126.448982
      }
    ],
    "color": "#80116c",
    "start_name": "화장실",
    "length_meter": 339.6,
    "time_minute": 5
  },
  {
    "path_id": 15,
    "path": [
      {
        "lat": 37.605957,
        "lng": 126.448982
      },
      {
        "lat": 37.604019,
        "lng": 126.457169
      }
    ],
    "color": "#857356",
    "start_name": "갈림길",
    "length_meter": 752.7,
    "time_minute": 12
  }
]