{
  "max_ele": 452.277,
  "track": [
    {
      "path_id": 0,
      "path": [
        {
          "lat": 37.612511,
          "lng": 126.448242
        },
        {
          "lat": 37.608868,
          "lng": 126.443642
        }
      ],
      "color": "#0faa71",
      "start_name": "갈림길",
      "length_meter": 573.0,
      "time_minute": 9
    },
    {
      "path_id": 1,
      "path": [
        {
          "lat": 37.608868,
          "lng": 126.443642
        },
        {
          "lat": 37.612125,
          "lng": 126.438034
        }
      ],
      "color": "#3b56ba",
      "start_name": "사랑의하트석 / 갈림길",
      "length_meter": 647.6,
      "time_minute": 10
    },
    {
      "path_id": 2,
      "path": [
        {
          "lat": 37.612125,
          "lng": 126.438034
        },
        {
          "lat": 37.612679,
          "lng": 126.44519
        }
      ],
      "color": "#4a79b2",
      "start_name": "추락사고위험구간 / 갈림길",
      "length_meter": 640.5,
      "time_minute": 10
    },
    {
      "path_id": 3,
      "path": [
        {
          "lat": 37.612679,
          "lng": 126.44519
        },
        {
          "lat": 37.612789,
          "lng": 126.446022
        }
      ],
      "color": "#4668b3",
      "start_name": "추락사고위험",
      "length_meter": 74.3,
      "time_minute": 1
    },
    {
      "path_id": 4,
      "path": [
        {
          "lat": 37.612789,
          "lng": 126.446022
        },
        {
          "lat": 37.612789,
          "lng": 126.447151
        }
      ],
      "color": "#7b0b73",
      "start_name": "함허동천계곡 / 야영장쉼터",
      "length_meter": 128.2,
      "time_minute": 2
    },
    {
      "path_id": 5,
      "path": [
        {
          "lat": 37.612789,
          "lng": 126.447151
        },
        {
          "lat": 37.61272,
          "lng": 126.447533
        }
      ],
      "color": "#0c2611",
      "start_name": "야영장 쉼터",
      "length_meter": 34.5,
      "time_minute": 0
    }
  ]
}