{
  "max_ele": 452.277,
  "total_length_km": "2.1km",
  "total_time": "0시간 26분",
  "track": [
    {
      "path_id": 0,
      "path": [
        {
          "lat": 37.612511,
          "lng": 126.448242
        },
        {
          "lat": 37.608868,
          "lng": 126.443642
        }
      ],
      "color": "#92c793",
      "start_name": "갈림길",
      "length_meter": 573.0,
      "time_minute": 7
    },
    {
      "path_id": 1,
      "path": [
        {
          "lat": 37.608868,
          "lng": 126.443642
        },
        {
          "lat": 37.612125,
          "lng": 126.438034
        }
      ],
      "color": "#450c18",
      "start_name": "사랑의하트석 / 갈림길",
      "length_meter": 647.6,
      "time_minute": 10
    },
    {
      "path_id": 2,
      "path": [
        {
          "lat": 37.612125,
          "lng": 126.438034
        },
        {
          "lat": 37.612679,
          "lng": 126.44519
        }
      ],
      "color": "#af530e",
      "start_name": "추락사고위험구간 / 갈림길",
      "length_meter": 640.5,
      "time_minute": 10
    },
    {
      "path_id": 3,
      "path": [
        {
          "lat": 37.612679,
          "lng": 126.44519
        },
        {
          "lat": 37.613148,
          "lng": 126.446472
        }
      ],
      "color": "#150817",
      "start_name": "추락사고위험 / 함허동천계곡",
      "length_meter": 130.6,
      "time_minute": 1
    },
    {
      "path_id": 4,
      "path": [
        {
          "lat": 37.613148,
          "lng": 126.446472
        },
        {
          "lat": 37.61272,
          "lng": 126.447533
        }
      ],
      "color": "#929889",
      "start_name": "야영장쉼터 / 야영장 쉼터",
      "length_meter": 106.4,
      "time_minute": 1
    }
  ]
}