[
  {
    "path_id": 0,
    "path": [
      {
        "lat": 37.612511,
        "lng": 126.448242
      },
      {
        "lat": 37.609676,
        "lng": 126.443558
      }
    ],
    "color": "#1475fe",
    "start_name": "갈림길 / 화장실",
    "length_meter": 541.1,
    "time_minute": 9
  },
  {
    "path_id": 1,
    "path": [
      {
        "lat": 37.609676,
        "lng": 126.443558
      },
      {
        "lat": 37.608868,
        "lng": 126.443642
      }
    ],
    "color": "#7a2f14",
    "start_name": "갈림길",
    "length_meter": 90.1,
    "time_minute": 1
  },
  {
    "path_id": 2,
    "path": [
      {
        "lat": 37.608868,
        "lng": 126.443642
      },
      {
        "lat": 37.609665,
        "lng": 126.441025
      }
    ],
    "color": "#8282bc",
    "start_name": "사랑의하트석 / 갈림길",
    "length_meter": 275.5,
    "time_minute": 4
  },
  {
    "path_id": 3,
    "path": [
      {
        "lat": 37.609665,
        "lng": 126.441025
      },
      {
        "lat": 37.612125,
        "lng": 126.438034
      }
    ],
    "color": "#ec8d57",
    "start_name": "미끄럼주의",
    "length_meter": 379.8,
    "time_minute": 6
  },
  {
    "path_id": 4,
    "path": [
      {
        "lat": 37.612125,
        "lng": 126.438034
      },
      {
        "lat": 37.612679,
        "lng": 126.44519
      }
    ],
    "color": "#7e1d41",
    "start_name": "추락사고위험구간 / 갈림길",
    "length_meter": 640.5,
    "time_minute": 10
  },
  {
    "path_id": 5,
    "path": [
      {
        "lat": 37.612679,
        "lng": 126.44519
      },
      {
        "lat": 37.612789,
        "lng": 126.446022
      }
    ],
    "color": "#493a24",
    "start_name": "추락사고위험",
    "length_meter": 74.3,
    "time_minute": 1
  },
  {
    "path_id": 6,
    "path": [
      {
        "lat": 37.612789,
        "lng": 126.446022
      },
      {
        "lat": 37.612789,
        "lng": 126.447151
      }
    ],
    "color": "#2c554d",
    "start_name": "함허동천계곡 / 야영장쉼터",
    "length_meter": 128.2,
    "time_minute": 2
  },
  {
    "path_id": 7,
    "path": [
      {
        "lat": 37.612789,
        "lng": 126.447151
      },
      {
        "lat": 37.612312,
        "lng": 126.448166
      }
    ],
    "color": "#a8178f",
    "start_name": "야영장 쉼터 / 야영장쉼터 / 화장실",
    "length_meter": 110.7,
    "time_minute": 1
  }
]