[
  {
    "path_id": 0,
    "path": [
      {
        "lat": 35.636925,
        "lng": 127.735756
      },
      {
        "lat": 35.650478,
        "lng": 127.738022
      }
    ],
    "color": "#6b5280",
    "start_name": "우전마을",
    "length_meter": 1520.9,
    "time_minute": 25
  },
  {
    "path_id": 1,
    "path": [
      {
        "lat": 35.650478,
        "lng": 127.738022
      },
      {
        "lat": 35.650642,
        "lng": 127.738937
      }
    ],
    "color": "#4ccf10",
    "start_name": "진석사방댐2호 / 함양군 종합안내판",
    "length_meter": 102.1,
    "time_minute": 1
  },
  {
    "path_id": 2,
    "path": [
      {
        "lat": 35.650642,
        "lng": 127.738937
      },
      {
        "lat": 35.650867,
        "lng": 127.739731
      }
    ],
    "color": "#d1ef93",
    "start_name": "황석산 등산 안내도",
    "length_meter": 76.0,
    "time_minute": 1
  },
  {
    "path_id": 3,
    "path": [
      {
        "lat": 35.650867,
        "lng": 127.739731
      },
      {
        "lat": 35.651279,
        "lng": 127.745163
      }
    ],
    "color": "#291b89",
    "start_name": "갈림길",
    "length_meter": 492.9,
    "time_minute": 8
  },
  {
    "path_id": 4,
    "path": [
      {
        "lat": 35.651279,
        "lng": 127.745163
      },
      {
        "lat": 35.649403,
        "lng": 127.745216
      }
    ],
    "color": "#3bde42",
    "start_name": "피바위",
    "length_meter": 208.7,
    "time_minute": 3
  },
  {
    "path_id": 5,
    "path": [
      {
        "lat": 35.649403,
        "lng": 127.745216
      },
      {
        "lat": 35.650417,
        "lng": 127.747963
      }
    ],
    "color": "#ab2579",
    "start_name": "황석산 정상가는길",
    "length_meter": 272.6,
    "time_minute": 4
  },
  {
    "path_id": 6,
    "path": [
      {
        "lat": 35.650417,
        "lng": 127.747963
      },
      {
        "lat": 35.65366,
        "lng": 127.7519
      }
    ],
    "color": "#24fdc6",
    "start_name": "황석산성",
    "length_meter": 506.5,
    "time_minute": 8
  },
  {
    "path_id": 7,
    "path": [
      {
        "lat": 35.65366,
        "lng": 127.7519
      },
      {
        "lat": 35.636818,
        "lng": 127.73568
      }
    ],
    "color": "#669349",
    "start_name": "갈림길",
    "length_meter": 2378.1,
    "time_minute": 39
  }
]