[
  {
    "path_id": 0,
    "path": [
      {
        "lat": 35.731609,
        "lng": 127.798271
      },
      {
        "lat": 35.732967,
        "lng": 127.793686
      }
    ],
    "color": "#4d01b0",
    "start_name": "금원산 관리사무소 / 금원산 자연휴양림 매점",
    "length_meter": 440.8,
    "time_minute": 7
  },
  {
    "path_id": 1,
    "path": [
      {
        "lat": 35.732967,
        "lng": 127.793686
      },
      {
        "lat": 35.733601,
        "lng": 127.792595
      }
    ],
    "color": "#20214f",
    "start_name": "문바위",
    "length_meter": 121.1,
    "time_minute": 2
  },
  {
    "path_id": 2,
    "path": [
      {
        "lat": 35.733601,
        "lng": 127.792595
      },
      {
        "lat": 35.736801,
        "lng": 127.7892
      }
    ],
    "color": "#8a6ba4",
    "start_name": "화장실",
    "length_meter": 469.6,
    "time_minute": 7
  },
  {
    "path_id": 3,
    "path": [
      {
        "lat": 35.736801,
        "lng": 127.7892
      },
      {
        "lat": 35.736931,
        "lng": 127.787613
      }
    ],
    "color": "#0f9785",
    "start_name": "갈림길",
    "length_meter": 144.0,
    "time_minute": 2
  },
  {
    "path_id": 4,
    "path": [
      {
        "lat": 35.736931,
        "lng": 127.787613
      },
      {
        "lat": 35.737804,
        "lng": 127.784622
      }
    ],
    "color": "#9d1a59",
    "start_name": "지재미쉼터",
    "length_meter": 286.9,
    "time_minute": 4
  },
  {
    "path_id": 5,
    "path": [
      {
        "lat": 35.737804,
        "lng": 127.784622
      },
      {
        "lat": 35.738781,
        "lng": 127.778976
      }
    ],
    "color": "#35a281",
    "start_name": "갈림길",
    "length_meter": 521.0,
    "time_minute": 8
  },
  {
    "path_id": 6,
    "path": [
      {
        "lat": 35.738781,
        "lng": 127.778976
      },
      {
        "lat": 35.740639,
        "lng": 127.770348
      }
    ],
    "color": "#39ab4f",
    "start_name": "금원산 등산안내도",
    "length_meter": 805.7,
    "time_minute": 13
  },
  {
    "path_id": 7,
    "path": [
      {
        "lat": 35.740639,
        "lng": 127.770348
      },
      {
        "lat": 35.728199,
        "lng": 127.76207
      }
    ],
    "color": "#4a1722",
    "start_name": "갈림길",
    "length_meter": 1572.2,
    "time_minute": 26
  },
  {
    "path_id": 8,
    "path": [
      {
        "lat": 35.728199,
        "lng": 127.76207
      },
      {
        "lat": 35.727455,
        "lng": 127.762695
      }
    ],
    "color": "#298735",
    "start_name": "정자 / 갈림길",
    "length_meter": 105.3,
    "time_minute": 1
  },
  {
    "path_id": 9,
    "path": [
      {
        "lat": 35.727455,
        "lng": 127.762695
      },
      {
        "lat": 35.722622,
        "lng": 127.778526
      }
    ],
    "color": "#4fb094",
    "start_name": "샘터",
    "length_meter": 1526.8,
    "time_minute": 25
  },
  {
    "path_id": 10,
    "path": [
      {
        "lat": 35.722622,
        "lng": 127.778526
      },
      {
        "lat": 35.722439,
        "lng": 127.782265
      }
    ],
    "color": "#3f731d",
    "start_name": "금원산 등산안내도 / 갈림길",
    "length_meter": 342.7,
    "time_minute": 5
  },
  {
    "path_id": 11,
    "path": [
      {
        "lat": 35.722439,
        "lng": 127.782265
      },
      {
        "lat": 35.722599,
        "lng": 127.782791
      }
    ],
    "color": "#7e12bb",
    "start_name": "금원산 생태수목원 / 금원산 생태수목원 안내도",
    "length_meter": 50.8,
    "time_minute": 0
  },
  {
    "path_id": 12,
    "path": [
      {
        "lat": 35.722599,
        "lng": 127.782791
      },
      {
        "lat": 35.722576,
        "lng": 127.783524
      }
    ],
    "color": "#74100c",
    "start_name": "수목원 화장실",
    "length_meter": 66.2,
    "time_minute": 1
  },
  {
    "path_id": 13,
    "path": [
      {
        "lat": 35.722576,
        "lng": 127.783524
      },
      {
        "lat": 35.722672,
        "lng": 127.78421
      }
    ],
    "color": "#a09e58",
    "start_name": "갈림길",
    "length_meter": 62.8,
    "time_minute": 1
  },
  {
    "path_id": 14,
    "path": [
      {
        "lat": 35.722672,
        "lng": 127.78421
      },
      {
        "lat": 35.722881,
        "lng": 127.784874
      }
    ],
    "color": "#496757",
    "start_name": "만병초테마정원",
    "length_meter": 64.3,
    "time_minute": 1
  },
  {
    "path_id": 15,
    "path": [
      {
        "lat": 35.722881,
        "lng": 127.784874
      },
      {
        "lat": 35.722298,
        "lng": 127.784683
      }
    ],
    "color": "#434845",
    "start_name": "갈림길",
    "length_meter": 67.1,
    "time_minute": 1
  },
  {
    "path_id": 16,
    "path": [
      {
        "lat": 35.722298,
        "lng": 127.784683
      },
      {
        "lat": 35.725403,
        "lng": 127.788338
      }
    ],
    "color": "#2cb225",
    "start_name": "화장실",
    "length_meter": 477.6,
    "time_minute": 7
  },
  {
    "path_id": 17,
    "path": [
      {
        "lat": 35.725403,
        "lng": 127.788338
      },
      {
        "lat": 35.728695,
        "lng": 127.790291
      }
    ],
    "color": "#8c1c38",
    "start_name": "갈림길",
    "length_meter": 406.3,
    "time_minute": 6
  },
  {
    "path_id": 18,
    "path": [
      {
        "lat": 35.728695,
        "lng": 127.790291
      },
      {
        "lat": 35.727524,
        "lng": 127.792305
      }
    ],
    "color": "#670744",
    "start_name": "숲속의집",
    "length_meter": 223.6,
    "time_minute": 3
  },
  {
    "path_id": 19,
    "path": [
      {
        "lat": 35.727524,
        "lng": 127.792305
      },
      {
        "lat": 35.727207,
        "lng": 127.795494
      }
    ],
    "color": "#802859",
    "start_name": "자운폭포",
    "length_meter": 290.0,
    "time_minute": 4
  },
  {
    "path_id": 20,
    "path": [
      {
        "lat": 35.727207,
        "lng": 127.795494
      },
      {
        "lat": 35.731361,
        "lng": 127.798225
      }
    ],
    "color": "#195b18",
    "start_name": "갈림길 / 화장실",
    "length_meter": 532.9,
    "time_minute": 8
  }
]