[
  {
    "path_id": 0,
    "path": [
      {
        "lat": 35.636925,
        "lng": 127.735756
      },
      {
        "lat": 35.650478,
        "lng": 127.738022
      }
    ],
    "color": "#bd066f",
    "start_point_name": "우전마을",
    "length": 1520,
    "time": "25"
  },
  {
    "path_id": 1,
    "path": [
      {
        "lat": 35.650478,
        "lng": 127.738022
      },
      {
        "lat": 35.650818,
        "lng": 127.738457
      }
    ],
    "color": "#c37033",
    "start_point_name": "진석사방댐2호",
    "length": 54,
    "time": "0"
  },
  {
    "path_id": 2,
    "path": [
      {
        "lat": 35.650818,
        "lng": 127.738457
      },
      {
        "lat": 35.650642,
        "lng": 127.738937
      }
    ],
    "color": "#3e7107",
    "start_point_name": "함양군 종합안내판",
    "length": 47,
    "time": "0"
  },
  {
    "path_id": 3,
    "path": [
      {
        "lat": 35.650642,
        "lng": 127.738937
      },
      {
        "lat": 35.650867,
        "lng": 127.739731
      }
    ],
    "color": "#c05490",
    "start_point_name": "황석산 등산 안내도",
    "length": 75,
    "time": "1"
  },
  {
    "path_id": 4,
    "path": [
      {
        "lat": 35.650867,
        "lng": 127.739731
      },
      {
        "lat": 35.651279,
        "lng": 127.745163
      }
    ],
    "color": "#18112b",
    "start_point_name": "갈림길 5",
    "length": 492,
    "time": "8"
  },
  {
    "path_id": 5,
    "path": [
      {
        "lat": 35.651279,
        "lng": 127.745163
      },
      {
        "lat": 35.649403,
        "lng": 127.745216
      }
    ],
    "color": "#64dc29",
    "start_point_name": "피바위",
    "length": 208,
    "time": "3"
  },
  {
    "path_id": 6,
    "path": [
      {
        "lat": 35.649403,
        "lng": 127.745216
      },
      {
        "lat": 35.650135,
        "lng": 127.747307
      }
    ],
    "color": "#2bf85b",
    "start_point_name": "황석산 정상가는길",
    "length": 205,
    "time": "3"
  },
  {
    "path_id": 7,
    "path": [
      {
        "lat": 35.650135,
        "lng": 127.747307
      },
      {
        "lat": 35.650417,
        "lng": 127.747963
      }
    ],
    "color": "#f13ce3",
    "start_point_name": "황석산 정상가는길",
    "length": 67,
    "time": "1"
  },
  {
    "path_id": 8,
    "path": [
      {
        "lat": 35.650417,
        "lng": 127.747963
      },
      {
        "lat": 35.65366,
        "lng": 127.7519
      }
    ],
    "color": "#c8bd5c",
    "start_point_name": "황석산성",
    "length": 506,
    "time": "8"
  },
  {
    "path_id": 9,
    "path": [
      {
        "lat": 35.65366,
        "lng": 127.7519
      },
      {
        "lat": 35.636818,
        "lng": 127.73568
      }
    ],
    "color": "#bba98b",
    "start_point_name": "갈림길 10",
    "length": 2378,
    "time": "39"
  }
]