[
    {
        "name": "보경사  주차장",
        "lat": 36.250694,
        "lon": 129.318146
    },
    {
        "name": "보경사 입구",
        "lat": 36.250683,
        "lon": 129.318481
    },
    {
        "name": "보경사 화장실",
        "lat": 36.251362,
        "lon": 129.317749
    },
    {
        "name": "보경사",
        "lat": 36.251469,
        "lon": 129.317719
    },
    {
        "name": "내연산 보경사 안내도",
        "lat": 36.251572,
        "lon": 129.317719
    },
    {
        "name": "보경사 포토존",
        "lat": 36.251579,
        "lon": 129.31749
    },
    {
        "name": "갓부처",
        "lat": 36.259338,
        "lon": 129.305359
    },
    {
        "name": "갈림길",
        "lat": 36.263691,
        "lon": 129.298676
    },
    {
        "name": "굴참나무군락지",
        "lat": 36.264668,
        "lon": 129.298706
    },
    {
        "name": "집터",
        "lat": 36.265308,
        "lon": 129.299362
    },
    {
        "name": "갈림길",
        "lat": 36.269569,
        "lon": 129.302521
    },
    {
        "name": "갈림길",
        "lat": 36.270271,
        "lon": 129.301743
    },
    {
        "name": "굴참나무군락지",
        "lat": 36.270432,
        "lon": 129.299789
    },
    {
        "name": "서어나무군락지",
        "lat": 36.271358,
        "lon": 129.294434
    },
    {
        "name": "동해바다 조망권",
        "lat": 36.265305,
        "lon": 129.293701
    },
    {
        "name": "우척봉과 능선  조망권",
        "lat": 36.264599,
        "lon": 129.29332
    },
    {
        "name": "앞쪽 우척봉",
        "lat": 36.264847,
        "lon": 129.294617
    },
    {
        "name": "바위 넓은 장소",
        "lat": 36.264805,
        "lon": 129.294617
    },
    {
        "name": "넓은 평지",
        "lat": 36.264629,
        "lon": 129.295151
    },
    {
        "name": "청하골",
        "lat": 36.264626,
        "lon": 129.295151
    },
    {
        "name": "갈림길",
        "lat": 36.263214,
        "lon": 129.297745
    },
    {
        "name": "선일대",
        "lat": 36.259289,
        "lon": 129.301514
    },
    {
        "name": "선일대",
        "lat": 36.259327,
        "lon": 129.30162
    },
    {
        "name": "연산구름다리",
        "lat": 36.260647,
        "lon": 129.301483
    },
    {
        "name": "신라식당",
        "lat": 36.250347,
        "lon": 129.318848
    },
    {
        "name": "GS25",
        "lat": 36.250328,
        "lon": 129.318817
    },
    {
        "name": "보경사 매표소",
        "lat": 36.250484,
        "lon": 129.318771
    }
]