[
    {
        "name": "공중화장실",
        "lat": 36.268757,
        "lon": 129.235977
    },
    {
        "name": "하옥계곡 매점",
        "lat": 36.268795,
        "lon": 129.236008
    },
    {
        "name": "상옥리 조망권",
        "lat": 36.271721,
        "lon": 129.243866
    },
    {
        "name": "능선정상 쉼터",
        "lat": 36.272522,
        "lon": 129.245728
    },
    {
        "name": "가는잎그늘사초 군락지",
        "lat": 36.272694,
        "lon": 129.245956
    },
    {
        "name": "큰소나무",
        "lat": 36.272793,
        "lon": 129.246094
    },
    {
        "name": "큰굴참나무",
        "lat": 36.273151,
        "lon": 129.246399
    },
    {
        "name": "능선정상 쉼터",
        "lat": 36.273636,
        "lon": 129.247253
    },
    {
        "name": "산갈나무 군락지",
        "lat": 36.273571,
        "lon": 129.247818
    },
    {
        "name": "단풍나무 군락지",
        "lat": 36.273415,
        "lon": 129.248123
    },
    {
        "name": "겨우살이",
        "lat": 36.273064,
        "lon": 129.249191
    },
    {
        "name": "하옥계곡",
        "lat": 36.273064,
        "lon": 129.249176
    },
    {
        "name": "미역줄나무 군락지",
        "lat": 36.272945,
        "lon": 129.251389
    },
    {
        "name": "단풍나무  군락지",
        "lat": 36.272758,
        "lon": 129.254196
    },
    {
        "name": "내연산삼지봉, 동대산 조망권",
        "lat": 36.269928,
        "lon": 129.26088
    },
    {
        "name": "갈림길",
        "lat": 36.268318,
        "lon": 129.261093
    },
    {
        "name": "하옥계곡",
        "lat": 36.268429,
        "lon": 129.262589
    },
    {
        "name": "신갈나무 군락지",
        "lat": 36.273697,
        "lon": 129.269836
    },
    {
        "name": "능선정상 쉼터",
        "lat": 36.274292,
        "lon": 129.270859
    },
    {
        "name": "천남성",
        "lat": 36.274517,
        "lon": 129.27179
    },
    {
        "name": "능선정상 쉼터",
        "lat": 36.274582,
        "lon": 129.275925
    },
    {
        "name": "가는잎그늘사초  군락지",
        "lat": 36.275688,
        "lon": 129.2854
    },
    {
        "name": "철쭉 군락지",
        "lat": 36.278557,
        "lon": 129.289413
    },
    {
        "name": "내연산삼지봉",
        "lat": 36.278606,
        "lon": 129.289673
    },
    {
        "name": "보경사 계곡",
        "lat": 36.274464,
        "lon": 129.279419
    },
    {
        "name": "갈림길",
        "lat": 36.270504,
        "lon": 129.26886
    },
    {
        "name": "큰 팥배나무",
        "lat": 36.272964,
        "lon": 129.252335
    },
    {
        "name": "큰상수리나무",
        "lat": 36.272968,
        "lon": 129.249359
    }
]