{
    "max_ele": 636.564,
    "min_ele": 116.061,
    "track": [
        {
            "path_id": 1,
            "name": "보경사  주차장",
            "lat": 36.250694,
            "lon": 129.318146,
            "ele": 116.061
        },
        {
            "path_id": 2,
            "name": "보경사 입구",
            "lat": 36.250683,
            "lon": 129.318481,
            "ele": 117.178
        },
        {
            "path_id": 3,
            "name": "보경사 화장실",
            "lat": 36.251362,
            "lon": 129.317749,
            "ele": 121.401
        },
        {
            "path_id": 4,
            "name": "보경사",
            "lat": 36.251469,
            "lon": 129.317719,
            "ele": 121.947
        },
        {
            "path_id": 5,
            "name": "내연산 보경사 안내도",
            "lat": 36.251572,
            "lon": 129.317719,
            "ele": 122.021
        },
        {
            "path_id": 6,
            "name": "보경사 포토존",
            "lat": 36.251579,
            "lon": 129.31749,
            "ele": 123.474
        },
        {
            "path_id": 7,
            "name": "갓부처",
            "lat": 36.259338,
            "lon": 129.305359,
            "ele": 238.469
        },
        {
            "path_id": 8,
            "name": "갈림길",
            "lat": 36.263691,
            "lon": 129.298676,
            "ele": 277.228
        },
        {
            "path_id": 9,
            "name": "굴참나무군락지",
            "lat": 36.264668,
            "lon": 129.298706,
            "ele": 323.527
        },
        {
            "path_id": 10,
            "name": "집터",
            "lat": 36.265308,
            "lon": 129.299362,
            "ele": 352.472
        },
        {
            "path_id": 11,
            "name": "갈림길",
            "lat": 36.269569,
            "lon": 129.302521,
            "ele": 629.251
        },
        {
            "path_id": 12,
            "name": "갈림길",
            "lat": 36.270271,
            "lon": 129.301743,
            "ele": 636.564
        },
        {
            "path_id": 13,
            "name": "굴참나무군락지",
            "lat": 36.270432,
            "lon": 129.299789,
            "ele": 614.176
        },
        {
            "path_id": 14,
            "name": "서어나무군락지",
            "lat": 36.271358,
            "lon": 129.294434,
            "ele": 565.154
        },
        {
            "path_id": 15,
            "name": "동해바다 조망권",
            "lat": 36.265305,
            "lon": 129.293701,
            "ele": 474.112
        },
        {
            "path_id": 16,
            "name": "우척봉과 능선  조망권",
            "lat": 36.264599,
            "lon": 129.29332,
            "ele": 425.273
        },
        {
            "path_id": 17,
            "name": "앞쪽 우척봉",
            "lat": 36.264847,
            "lon": 129.294617,
            "ele": 413.644
        },
        {
            "path_id": 18,
            "name": "바위 넓은 장소",
            "lat": 36.264805,
            "lon": 129.294617,
            "ele": 412.445
        },
        {
            "path_id": 19,
            "name": "넓은 평지",
            "lat": 36.264629,
            "lon": 129.295151,
            "ele": 402.094
        },
        {
            "path_id": 20,
            "name": "청하골",
            "lat": 36.264626,
            "lon": 129.295151,
            "ele": 401.562
        },
        {
            "path_id": 21,
            "name": "갈림길",
            "lat": 36.263214,
            "lon": 129.297745,
            "ele": 272.94
        },
        {
            "path_id": 22,
            "name": "선일대",
            "lat": 36.259289,
            "lon": 129.301514,
            "ele": 336.51
        },
        {
            "path_id": 23,
            "name": "선일대",
            "lat": 36.259327,
            "lon": 129.30162,
            "ele": 341.695
        },
        {
            "path_id": 24,
            "name": "연산구름다리",
            "lat": 36.260647,
            "lon": 129.301483,
            "ele": 248.969
        },
        {
            "path_id": 25,
            "name": "신라식당",
            "lat": 36.250347,
            "lon": 129.318848,
            "ele": 134.472
        },
        {
            "path_id": 26,
            "name": "GS25",
            "lat": 36.250328,
            "lon": 129.318817,
            "ele": 135.507
        },
        {
            "path_id": 27,
            "name": "보경사 매표소",
            "lat": 36.250484,
            "lon": 129.318771,
            "ele": 122.438
        }
    ]
}