[
    {
        "name": "보경사군립공원안내소",
        "lat": 36.245705,
        "lon": 129.319473
    },
    {
        "name": "포항시관광안내소",
        "lat": 36.24913,
        "lon": 129.31987
    },
    {
        "name": "gs25",
        "lat": 36.249794,
        "lon": 129.319366
    },
    {
        "name": "연산온천",
        "lat": 36.249855,
        "lon": 129.319305
    },
    {
        "name": "갈림길 13",
        "lat": 36.252819,
        "lon": 129.316803
    },
    {
        "name": "갈림길 14",
        "lat": 36.254944,
        "lon": 129.309113
    },
    {
        "name": "쌍폭포  조망",
        "lat": 36.256721,
        "lon": 129.310074
    },
    {
        "name": "갈림길 16",
        "lat": 36.259506,
        "lon": 129.310196
    },
    {
        "name": "갈림길 17",
        "lat": 36.259506,
        "lon": 129.310196
    },
    {
        "name": "굴참나무군락지",
        "lat": 36.260582,
        "lon": 129.310913
    },
    {
        "name": "왕소나무",
        "lat": 36.260944,
        "lon": 129.310867
    },
    {
        "name": "능선 쉼터",
        "lat": 36.261772,
        "lon": 129.310883
    },
    {
        "name": "소나무군락지",
        "lat": 36.263901,
        "lon": 129.312134
    },
    {
        "name": "문수봉",
        "lat": 36.267765,
        "lon": 129.308151
    },
    {
        "name": "갈림길 24",
        "lat": 36.278442,
        "lon": 129.292389
    },
    {
        "name": "갈림길 26",
        "lat": 36.274284,
        "lon": 129.295273
    },
    {
        "name": "식수대",
        "lat": 36.266777,
        "lon": 129.308899
    },
    {
        "name": "갈림길 22",
        "lat": 36.26638,
        "lon": 129.31073
    },
    {
        "name": "갈림길 30",
        "lat": 36.264675,
        "lon": 129.312042
    },
    {
        "name": "갈림길 31",
        "lat": 36.257652,
        "lon": 129.314117
    }
]