{
  "max_ele": 683.192,
  "total_length_km": "4.0km",
  "total_time": "0시간 49분",
  "start_name": "염불암삼거리",
  "end_name": "모악산 주차장",
  "track": [
    {
      "path_id": 0,
      "path": [
        {
          "lat": 35.739677,
          "lng": 127.071915
        },
        {
          "lat": 35.740543,
          "lng": 127.070923
        }
      ],
      "color": "#724a3c",
      "start_name": "염불암삼거리 / 갈림길",
      "length_meter": 141.7,
      "time_minute": 2
    },
    {
      "path_id": 1,
      "path": [
        {
          "lat": 35.740543,
          "lng": 127.070923
        },
        {
          "lat": 35.740376,
          "lng": 127.070679
        }
      ],
      "color": "#9d0732",
      "start_name": "쉼터 / 갈림길",
      "length_meter": 36.9,
      "time_minute": 0
    },
    {
      "path_id": 2,
      "path": [
        {
          "lat": 35.740376,
          "lng": 127.070679
        },
        {
          "lat": 35.739662,
          "lng": 127.069878
        }
      ],
      "color": "#a31534",
      "start_name": "조망터",
      "length_meter": 107.4,
      "time_minute": 1
    },
    {
      "path_id": 3,
      "path": [
        {
          "lat": 35.739662,
          "lng": 127.069878
        },
        {
          "lat": 35.738838,
          "lng": 127.066628
        }
      ],
      "color": "#52a573",
      "start_name": "갈림길",
      "length_meter": 307.3,
      "time_minute": 3
    },
    {
      "path_id": 4,
      "path": [
        {
          "lat": 35.738838,
          "lng": 127.066628
        },
        {
          "lat": 35.738098,
          "lng": 127.064323
        }
      ],
      "color": "#1748b2",
      "start_name": "웨이포인트 9",
      "length_meter": 223.7,
      "time_minute": 2
    },
    {
      "path_id": 5,
      "path": [
        {
          "lat": 35.738098,
          "lng": 127.064323
        },
        {
          "lat": 35.736668,
          "lng": 127.062805
        }
      ],
      "color": "#540012",
      "start_name": "쉼터 / 웨이포인트 11",
      "length_meter": 210.5,
      "time_minute": 3
    },
    {
      "path_id": 6,
      "path": [
        {
          "lat": 35.736668,
          "lng": 127.062805
        },
        {
          "lat": 35.735992,
          "lng": 127.060806
        }
      ],
      "color": "#b83116",
      "start_name": "웨이포인트 12",
      "length_meter": 195.5,
      "time_minute": 2
    },
    {
      "path_id": 7,
      "path": [
        {
          "lat": 35.735992,
          "lng": 127.060806
        },
        {
          "lat": 35.734615,
          "lng": 127.058823
        }
      ],
      "color": "#457e03",
      "start_name": "웨이포인트 13",
      "length_meter": 235.5,
      "time_minute": 2
    },
    {
      "path_id": 8,
      "path": [
        {
          "lat": 35.734615,
          "lng": 127.058823
        },
        {
          "lat": 35.733524,
          "lng": 127.05706
        }
      ],
      "color": "#a97676",
      "start_name": "웨이포인트 14",
      "length_meter": 200.1,
      "time_minute": 2
    },
    {
      "path_id": 9,
      "path": [
        {
          "lat": 35.733524,
          "lng": 127.05706
        },
        {
          "lat": 35.732857,
          "lng": 127.055992
        }
      ],
      "color": "#69ab92",
      "start_name": "쉼터 / 갈림길",
      "length_meter": 122.4,
      "time_minute": 1
    },
    {
      "path_id": 10,
      "path": [
        {
          "lat": 35.732857,
          "lng": 127.055992
        },
        {
          "lat": 35.732647,
          "lng": 127.054741
        }
      ],
      "color": "#a5656e",
      "start_name": "웨이포인트 18",
      "length_meter": 115.3,
      "time_minute": 1
    },
    {
      "path_id": 11,
      "path": [
        {
          "lat": 35.732647,
          "lng": 127.054741
        },
        {
          "lat": 35.731953,
          "lng": 127.053192
        }
      ],
      "color": "#3e0150",
      "start_name": "갈림길",
      "length_meter": 159.7,
      "time_minute": 1
    },
    {
      "path_id": 12,
      "path": [
        {
          "lat": 35.731953,
          "lng": 127.053192
        },
        {
          "lat": 35.721958,
          "lng": 127.043922
        }
      ],
      "color": "#076668",
      "start_name": "쉼터 / 갈림길",
      "length_meter": 1391.2,
      "time_minute": 22
    },
    {
      "path_id": 13,
      "path": [
        {
          "lat": 35.721958,
          "lng": 127.043922
        },
        {
          "lat": 35.719917,
          "lng": 127.041847
        }
      ],
      "color": "#55a629",
      "start_name": "모악산 닭지붕",
      "length_meter": 294.3,
      "time_minute": 3
    },
    {
      "path_id": 14,
      "path": [
        {
          "lat": 35.719917,
          "lng": 127.041847
        },
        {
          "lat": 35.71891,
          "lng": 127.040054
        }
      ],
      "color": "#bb4705",
      "start_name": "쉼터",
      "length_meter": 196.8,
      "time_minute": 2
    },
    {
      "path_id": 15,
      "path": [
        {
          "lat": 35.71891,
          "lng": 127.040054
        },
        {
          "lat": 35.718685,
          "lng": 127.040253
        }
      ],
      "color": "#ba2181",
      "start_name": "먼지 털이개 / 모악산  관광 안내소",
      "length_meter": 37.4,
      "time_minute": 0
    }
  ]
}