[
  {
    "path_id": 0,
    "path": [
      {
        "lat": 35.930077,
        "lng": 127.709969
      },
      {
        "lat": 35.93042,
        "lng": 127.708794
      }
    ],
    "color": "#64a15a",
    "start_name": "버스터미널",
    "length_meter": 112.5,
    "time_minute": 1
  },
  {
    "path_id": 1,
    "path": [
      {
        "lat": 35.93042,
        "lng": 127.708794
      },
      {
        "lat": 35.936878,
        "lng": 127.701195
      }
    ],
    "color": "#3bd530",
    "start_name": "치목마을주차장 / 화장실 / 갈림길",
    "length_meter": 1027.5,
    "time_minute": 17
  },
  {
    "path_id": 2,
    "path": [
      {
        "lat": 35.936878,
        "lng": 127.701195
      },
      {
        "lat": 35.937687,
        "lng": 127.699532
      }
    ],
    "color": "#07976d",
    "start_name": "곰출현주의",
    "length_meter": 174.7,
    "time_minute": 2
  },
  {
    "path_id": 3,
    "path": [
      {
        "lat": 35.937687,
        "lng": 127.699532
      },
      {
        "lat": 35.939781,
        "lng": 127.699707
      }
    ],
    "color": "#6ef1bc",
    "start_name": "낙석주의",
    "length_meter": 233.4,
    "time_minute": 3
  },
  {
    "path_id": 4,
    "path": [
      {
        "lat": 35.939781,
        "lng": 127.699707
      },
      {
        "lat": 35.940426,
        "lng": 127.699425
      }
    ],
    "color": "#c72148",
    "start_name": "급경사지 낙석지역",
    "length_meter": 76.1,
    "time_minute": 1
  },
  {
    "path_id": 5,
    "path": [
      {
        "lat": 35.940426,
        "lng": 127.699425
      },
      {
        "lat": 35.940636,
        "lng": 127.698807
      }
    ],
    "color": "#e50643",
    "start_name": "추락주의 / 낙석주의",
    "length_meter": 60.4,
    "time_minute": 1
  },
  {
    "path_id": 6,
    "path": [
      {
        "lat": 35.940636,
        "lng": 127.698807
      },
      {
        "lat": 35.941414,
        "lng": 127.698456
      }
    ],
    "color": "#76fd9e",
    "start_name": "낙석주의 / 급경사지 위험지역",
    "length_meter": 95.0,
    "time_minute": 1
  },
  {
    "path_id": 7,
    "path": [
      {
        "lat": 35.941414,
        "lng": 127.698456
      },
      {
        "lat": 35.944374,
        "lng": 127.697426
      }
    ],
    "color": "#bba30a",
    "start_name": "송대폭포 / 추락주의 / 급경사지 낙석 위험지역",
    "length_meter": 370.7,
    "time_minute": 6
  },
  {
    "path_id": 8,
    "path": [
      {
        "lat": 35.944374,
        "lng": 127.697426
      },
      {
        "lat": 35.94503,
        "lng": 127.696465
      }
    ],
    "color": "#fb6777",
    "start_name": "추락위험 / 급경사지 낙석지역",
    "length_meter": 113.5,
    "time_minute": 1
  },
  {
    "path_id": 9,
    "path": [
      {
        "lat": 35.94503,
        "lng": 127.696465
      },
      {
        "lat": 35.94627,
        "lng": 127.695259
      }
    ],
    "color": "#dcf3e3",
    "start_name": "낙석주의 추락주의 / 추락위험 / 산사태주의",
    "length_meter": 175.8,
    "time_minute": 2
  },
  {
    "path_id": 10,
    "path": [
      {
        "lat": 35.94627,
        "lng": 127.695259
      },
      {
        "lat": 35.947701,
        "lng": 127.694954
      }
    ],
    "color": "#64696c",
    "start_name": "낙석주의 / 산사태주의 / 급경사지 낙석 위험지역",
    "length_meter": 161.8,
    "time_minute": 2
  },
  {
    "path_id": 11,
    "path": [
      {
        "lat": 35.947701,
        "lng": 127.694954
      },
      {
        "lat": 35.948723,
        "lng": 127.693619
      }
    ],
    "color": "#994385",
    "start_name": "갈림길",
    "length_meter": 165.4,
    "time_minute": 2
  },
  {
    "path_id": 12,
    "path": [
      {
        "lat": 35.948723,
        "lng": 127.693619
      },
      {
        "lat": 35.949261,
        "lng": 127.693237
      }
    ],
    "color": "#8fe761",
    "start_name": "대형주차장 / 갈림길",
    "length_meter": 89.1,
    "time_minute": 1
  },
  {
    "path_id": 13,
    "path": [
      {
        "lat": 35.949261,
        "lng": 127.693237
      },
      {
        "lat": 35.948673,
        "lng": 127.693581
      }
    ],
    "color": "#570267",
    "start_name": "화장실 / 뱀 진드기 벌 주의",
    "length_meter": 72.4,
    "time_minute": 1
  },
  {
    "path_id": 14,
    "path": [
      {
        "lat": 35.948673,
        "lng": 127.693581
      },
      {
        "lat": 35.945885,
        "lng": 127.693161
      }
    ],
    "color": "#04460b",
    "start_name": "매표소",
    "length_meter": 312.3,
    "time_minute": 5
  },
  {
    "path_id": 15,
    "path": [
      {
        "lat": 35.945885,
        "lng": 127.693161
      },
      {
        "lat": 35.944721,
        "lng": 127.692085
      }
    ],
    "color": "#39d313",
    "start_name": "갈림길",
    "length_meter": 161.7,
    "time_minute": 2
  },
  {
    "path_id": 16,
    "path": [
      {
        "lat": 35.944721,
        "lng": 127.692085
      },
      {
        "lat": 35.944176,
        "lng": 127.691833
      }
    ],
    "color": "#75a30d",
    "start_name": "갈림길",
    "length_meter": 64.7,
    "time_minute": 1
  },
  {
    "path_id": 17,
    "path": [
      {
        "lat": 35.944176,
        "lng": 127.691833
      },
      {
        "lat": 35.94508,
        "lng": 127.691689
      }
    ],
    "color": "#c47ee0",
    "start_name": "갈림길 / 적상산성 호국사비 / 안국사 화장실",
    "length_meter": 127.3,
    "time_minute": 2
  },
  {
    "path_id": 18,
    "path": [
      {
        "lat": 35.94508,
        "lng": 127.691689
      },
      {
        "lat": 35.944599,
        "lng": 127.691704
      }
    ],
    "color": "#41d10a",
    "start_name": "극락전 / 갈림길",
    "length_meter": 73.8,
    "time_minute": 1
  },
  {
    "path_id": 19,
    "path": [
      {
        "lat": 35.944599,
        "lng": 127.691704
      },
      {
        "lat": 35.945831,
        "lng": 127.689941
      }
    ],
    "color": "#637a20",
    "start_name": "안국사 / 주차장 / 성보박물관 전통찻집",
    "length_meter": 209.7,
    "time_minute": 3
  },
  {
    "path_id": 20,
    "path": [
      {
        "lat": 35.945831,
        "lng": 127.689941
      },
      {
        "lat": 35.952087,
        "lng": 127.688065
      }
    ],
    "color": "#5fb1f8",
    "start_name": "갈림길",
    "length_meter": 715.8,
    "time_minute": 11
  },
  {
    "path_id": 21,
    "path": [
      {
        "lat": 35.952087,
        "lng": 127.688065
      },
      {
        "lat": 35.95668,
        "lng": 127.687225
      }
    ],
    "color": "#84255f",
    "start_name": "갈림길",
    "length_meter": 516.3,
    "time_minute": 8
  },
  {
    "path_id": 22,
    "path": [
      {
        "lat": 35.95668,
        "lng": 127.687225
      },
      {
        "lat": 35.953888,
        "lng": 127.684708
      }
    ],
    "color": "#bee41d",
    "start_name": "향로봉 / 향로봉 조망",
    "length_meter": 385.6,
    "time_minute": 6
  },
  {
    "path_id": 23,
    "path": [
      {
        "lat": 35.953888,
        "lng": 127.684708
      },
      {
        "lat": 35.953835,
        "lng": 127.684235
      }
    ],
    "color": "#f11a64",
    "start_name": "무주 적상산성 서문지 / 추락주의 / 급경사지 낙석 위험지역 / 바위 / 장도바위 / 급경사지 낙석지역",
    "length_meter": 93.5,
    "time_minute": 1
  },
  {
    "path_id": 24,
    "path": [
      {
        "lat": 35.953835,
        "lng": 127.684235
      },
      {
        "lat": 35.954372,
        "lng": 127.683693
      }
    ],
    "color": "#bdfe94",
    "start_name": "낙석주의 / 급경사지 낙석지역",
    "length_meter": 80.7,
    "time_minute": 1
  },
  {
    "path_id": 25,
    "path": [
      {
        "lat": 35.954372,
        "lng": 127.683693
      },
      {
        "lat": 35.953369,
        "lng": 127.683563
      }
    ],
    "color": "#979b5a",
    "start_name": "벤치",
    "length_meter": 112.1,
    "time_minute": 1
  },
  {
    "path_id": 26,
    "path": [
      {
        "lat": 35.953369,
        "lng": 127.683563
      },
      {
        "lat": 35.949879,
        "lng": 127.67395
      }
    ],
    "color": "#fdd167",
    "start_name": "조망점",
    "length_meter": 948.3,
    "time_minute": 15
  },
  {
    "path_id": 27,
    "path": [
      {
        "lat": 35.949879,
        "lng": 127.67395
      },
      {
        "lat": 35.949501,
        "lng": 127.672905
      }
    ],
    "color": "#e01a24",
    "start_name": "안내판  등산지도 / 갈림길",
    "length_meter": 103.4,
    "time_minute": 1
  },
  {
    "path_id": 28,
    "path": [
      {
        "lat": 35.949501,
        "lng": 127.672905
      },
      {
        "lat": 35.948902,
        "lng": 127.671623
      }
    ],
    "color": "#148439",
    "start_name": "산촌순두부",
    "length_meter": 133.2,
    "time_minute": 2
  },
  {
    "path_id": 29,
    "path": [
      {
        "lat": 35.948902,
        "lng": 127.671623
      },
      {
        "lat": 35.949162,
        "lng": 127.670212
      }
    ],
    "color": "#806c6c",
    "start_name": "주차장 / 화장실",
    "length_meter": 132.8,
    "time_minute": 2
  },
  {
    "path_id": 30,
    "path": [
      {
        "lat": 35.949162,
        "lng": 127.670212
      },
      {
        "lat": 35.952621,
        "lng": 127.662651
      }
    ],
    "color": "#ce48f5",
    "start_name": "주차장",
    "length_meter": 781.8,
    "time_minute": 13
  }
]