[
  {
    "path_id": 0,
    "path": [
      {
        "lat": 35.930077,
        "lng": 127.709969
      },
      {
        "lat": 35.93042,
        "lng": 127.708794
      }
    ],
    "color": "#35b9da",
    "start_point_name": "버스터미널",
    "length": 112,
    "time": "1"
  },
  {
    "path_id": 1,
    "path": [
      {
        "lat": 35.93042,
        "lng": 127.708794
      },
      {
        "lat": 35.930405,
        "lng": 127.708763
      }
    ],
    "color": "#9beb8e",
    "start_point_name": "치목마을주차장",
    "length": 3,
    "time": "0"
  },
  {
    "path_id": 2,
    "path": [
      {
        "lat": 35.930405,
        "lng": 127.708763
      },
      {
        "lat": 35.930218,
        "lng": 127.708344
      }
    ],
    "color": "#3637f0",
    "start_point_name": "화장실",
    "length": 43,
    "time": "0"
  },
  {
    "path_id": 3,
    "path": [
      {
        "lat": 35.930218,
        "lng": 127.708344
      },
      {
        "lat": 35.936878,
        "lng": 127.701195
      }
    ],
    "color": "#e2383f",
    "start_point_name": "갈림길",
    "length": 981,
    "time": "16"
  },
  {
    "path_id": 4,
    "path": [
      {
        "lat": 35.936878,
        "lng": 127.701195
      },
      {
        "lat": 35.937687,
        "lng": 127.699532
      }
    ],
    "color": "#42cef3",
    "start_point_name": "곰출현주의",
    "length": 174,
    "time": "2"
  },
  {
    "path_id": 5,
    "path": [
      {
        "lat": 35.937687,
        "lng": 127.699532
      },
      {
        "lat": 35.939781,
        "lng": 127.699707
      }
    ],
    "color": "#84c14b",
    "start_point_name": "낙석주의",
    "length": 233,
    "time": "3"
  },
  {
    "path_id": 6,
    "path": [
      {
        "lat": 35.939781,
        "lng": 127.699707
      },
      {
        "lat": 35.940426,
        "lng": 127.699425
      }
    ],
    "color": "#17090f",
    "start_point_name": "급경사지 낙석지역",
    "length": 76,
    "time": "1"
  },
  {
    "path_id": 7,
    "path": [
      {
        "lat": 35.940426,
        "lng": 127.699425
      },
      {
        "lat": 35.94043,
        "lng": 127.699394
      }
    ],
    "color": "#23f7aa",
    "start_point_name": "추락주의",
    "length": 2,
    "time": "0"
  },
  {
    "path_id": 8,
    "path": [
      {
        "lat": 35.94043,
        "lng": 127.699394
      },
      {
        "lat": 35.940636,
        "lng": 127.698807
      }
    ],
    "color": "#346729",
    "start_point_name": "낙석주의",
    "length": 57,
    "time": "0"
  },
  {
    "path_id": 9,
    "path": [
      {
        "lat": 35.940636,
        "lng": 127.698807
      },
      {
        "lat": 35.940899,
        "lng": 127.698555
      }
    ],
    "color": "#33b669",
    "start_point_name": "낙석주의",
    "length": 37,
    "time": "0"
  },
  {
    "path_id": 10,
    "path": [
      {
        "lat": 35.940899,
        "lng": 127.698555
      },
      {
        "lat": 35.941414,
        "lng": 127.698456
      }
    ],
    "color": "#285ed5",
    "start_point_name": "급경사지 위험지역",
    "length": 57,
    "time": "0"
  },
  {
    "path_id": 11,
    "path": [
      {
        "lat": 35.941414,
        "lng": 127.698456
      },
      {
        "lat": 35.941673,
        "lng": 127.698776
      }
    ],
    "color": "#2ba4e6",
    "start_point_name": "송대폭포",
    "length": 40,
    "time": "0"
  },
  {
    "path_id": 12,
    "path": [
      {
        "lat": 35.941673,
        "lng": 127.698776
      },
      {
        "lat": 35.941803,
        "lng": 127.69886
      }
    ],
    "color": "#3c69bd",
    "start_point_name": "추락주의",
    "length": 16,
    "time": "0"
  },
  {
    "path_id": 13,
    "path": [
      {
        "lat": 35.941803,
        "lng": 127.69886
      },
      {
        "lat": 35.944374,
        "lng": 127.697426
      }
    ],
    "color": "#f0f1aa",
    "start_point_name": "급경사지 낙석 위험지역",
    "length": 313,
    "time": "5"
  },
  {
    "path_id": 14,
    "path": [
      {
        "lat": 35.944374,
        "lng": 127.697426
      },
      {
        "lat": 35.944462,
        "lng": 127.697342
      }
    ],
    "color": "#5dfe02",
    "start_point_name": "추락위험",
    "length": 12,
    "time": "0"
  },
  {
    "path_id": 15,
    "path": [
      {
        "lat": 35.944462,
        "lng": 127.697342
      },
      {
        "lat": 35.94503,
        "lng": 127.696465
      }
    ],
    "color": "#d2b09d",
    "start_point_name": "급경사지 낙석지역",
    "length": 101,
    "time": "1"
  },
  {
    "path_id": 16,
    "path": [
      {
        "lat": 35.94503,
        "lng": 127.696465
      },
      {
        "lat": 35.945229,
        "lng": 127.696213
      }
    ],
    "color": "#ffa725",
    "start_point_name": "낙석주의 추락주의",
    "length": 31,
    "time": "0"
  },
  {
    "path_id": 17,
    "path": [
      {
        "lat": 35.945229,
        "lng": 127.696213
      },
      {
        "lat": 35.945305,
        "lng": 127.696152
      }
    ],
    "color": "#2cb17f",
    "start_point_name": "추락위험",
    "length": 10,
    "time": "0"
  },
  {
    "path_id": 18,
    "path": [
      {
        "lat": 35.945305,
        "lng": 127.696152
      },
      {
        "lat": 35.94627,
        "lng": 127.695259
      }
    ],
    "color": "#5a286f",
    "start_point_name": "산사태주의",
    "length": 134,
    "time": "2"
  },
  {
    "path_id": 19,
    "path": [
      {
        "lat": 35.94627,
        "lng": 127.695259
      },
      {
        "lat": 35.946529,
        "lng": 127.695244
      }
    ],
    "color": "#d71ede",
    "start_point_name": "낙석주의",
    "length": 28,
    "time": "0"
  },
  {
    "path_id": 20,
    "path": [
      {
        "lat": 35.946529,
        "lng": 127.695244
      },
      {
        "lat": 35.946625,
        "lng": 127.695213
      }
    ],
    "color": "#3e8cb7",
    "start_point_name": "산사태주의",
    "length": 11,
    "time": "0"
  },
  {
    "path_id": 21,
    "path": [
      {
        "lat": 35.946625,
        "lng": 127.695213
      },
      {
        "lat": 35.947701,
        "lng": 127.694954
      }
    ],
    "color": "#ec9a59",
    "start_point_name": "급경사지 낙석 위험지역",
    "length": 121,
    "time": "2"
  },
  {
    "path_id": 22,
    "path": [
      {
        "lat": 35.947701,
        "lng": 127.694954
      },
      {
        "lat": 35.948723,
        "lng": 127.693619
      }
    ],
    "color": "#f065d9",
    "start_point_name": "갈림길",
    "length": 165,
    "time": "2"
  },
  {
    "path_id": 23,
    "path": [
      {
        "lat": 35.948723,
        "lng": 127.693619
      },
      {
        "lat": 35.948627,
        "lng": 127.693619
      }
    ],
    "color": "#ae5d1d",
    "start_point_name": "대형주차장",
    "length": 10,
    "time": "0"
  },
  {
    "path_id": 24,
    "path": [
      {
        "lat": 35.948627,
        "lng": 127.693619
      },
      {
        "lat": 35.949261,
        "lng": 127.693237
      }
    ],
    "color": "#8d6be0",
    "start_point_name": "갈림길",
    "length": 78,
    "time": "1"
  },
  {
    "path_id": 25,
    "path": [
      {
        "lat": 35.949261,
        "lng": 127.693237
      },
      {
        "lat": 35.949223,
        "lng": 127.693253
      }
    ],
    "color": "#1efb28",
    "start_point_name": "화장실",
    "length": 4,
    "time": "0"
  },
  {
    "path_id": 26,
    "path": [
      {
        "lat": 35.949223,
        "lng": 127.693253
      },
      {
        "lat": 35.948673,
        "lng": 127.693581
      }
    ],
    "color": "#505dcb",
    "start_point_name": "뱀 진드기 벌 주의",
    "length": 67,
    "time": "1"
  },
  {
    "path_id": 27,
    "path": [
      {
        "lat": 35.948673,
        "lng": 127.693581
      },
      {
        "lat": 35.945885,
        "lng": 127.693161
      }
    ],
    "color": "#3a496f",
    "start_point_name": "매표소",
    "length": 312,
    "time": "5"
  },
  {
    "path_id": 28,
    "path": [
      {
        "lat": 35.945885,
        "lng": 127.693161
      },
      {
        "lat": 35.944721,
        "lng": 127.692085
      }
    ],
    "color": "#093673",
    "start_point_name": "갈림길",
    "length": 161,
    "time": "2"
  },
  {
    "path_id": 29,
    "path": [
      {
        "lat": 35.944721,
        "lng": 127.692085
      },
      {
        "lat": 35.944176,
        "lng": 127.691833
      }
    ],
    "color": "#bf5a69",
    "start_point_name": "갈림길",
    "length": 64,
    "time": "1"
  },
  {
    "path_id": 30,
    "path": [
      {
        "lat": 35.944176,
        "lng": 127.691833
      },
      {
        "lat": 35.944103,
        "lng": 127.691887
      }
    ],
    "color": "#b4bb65",
    "start_point_name": "갈림길",
    "length": 9,
    "time": "0"
  },
  {
    "path_id": 31,
    "path": [
      {
        "lat": 35.944103,
        "lng": 127.691887
      },
      {
        "lat": 35.944195,
        "lng": 127.691704
      }
    ],
    "color": "#fefcff",
    "start_point_name": "적상산성 호국사비",
    "length": 19,
    "time": "0"
  },
  {
    "path_id": 32,
    "path": [
      {
        "lat": 35.944195,
        "lng": 127.691704
      },
      {
        "lat": 35.94508,
        "lng": 127.691689
      }
    ],
    "color": "#b1d47e",
    "start_point_name": "안국사 화장실",
    "length": 98,
    "time": "1"
  },
  {
    "path_id": 33,
    "path": [
      {
        "lat": 35.94508,
        "lng": 127.691689
      },
      {
        "lat": 35.944805,
        "lng": 127.691978
      }
    ],
    "color": "#a9228d",
    "start_point_name": "극락전",
    "length": 40,
    "time": "0"
  },
  {
    "path_id": 34,
    "path": [
      {
        "lat": 35.944805,
        "lng": 127.691978
      },
      {
        "lat": 35.944599,
        "lng": 127.691704
      }
    ],
    "color": "#76ca93",
    "start_point_name": "갈림길",
    "length": 33,
    "time": "0"
  },
  {
    "path_id": 35,
    "path": [
      {
        "lat": 35.944599,
        "lng": 127.691704
      },
      {
        "lat": 35.944599,
        "lng": 127.691704
      }
    ],
    "color": "#7540cf",
    "start_point_name": "안국사",
    "length": 0,
    "time": "0"
  },
  {
    "path_id": 36,
    "path": [
      {
        "lat": 35.944599,
        "lng": 127.691704
      },
      {
        "lat": 35.944767,
        "lng": 127.69146
      }
    ],
    "color": "#ea416e",
    "start_point_name": "주차장",
    "length": 28,
    "time": "0"
  },
  {
    "path_id": 37,
    "path": [
      {
        "lat": 35.944767,
        "lng": 127.69146
      },
      {
        "lat": 35.945831,
        "lng": 127.689941
      }
    ],
    "color": "#702e28",
    "start_point_name": "성보박물관 전통찻집",
    "length": 180,
    "time": "3"
  },
  {
    "path_id": 38,
    "path": [
      {
        "lat": 35.945831,
        "lng": 127.689941
      },
      {
        "lat": 35.952087,
        "lng": 127.688065
      }
    ],
    "color": "#7d5acb",
    "start_point_name": "갈림길",
    "length": 715,
    "time": "11"
  },
  {
    "path_id": 39,
    "path": [
      {
        "lat": 35.952087,
        "lng": 127.688065
      },
      {
        "lat": 35.95668,
        "lng": 127.687225
      }
    ],
    "color": "#51bb8f",
    "start_point_name": "갈림길",
    "length": 516,
    "time": "8"
  },
  {
    "path_id": 40,
    "path": [
      {
        "lat": 35.95668,
        "lng": 127.687225
      },
      {
        "lat": 35.956684,
        "lng": 127.687202
      }
    ],
    "color": "#034403",
    "start_point_name": "향로봉",
    "length": 2,
    "time": "0"
  },
  {
    "path_id": 41,
    "path": [
      {
        "lat": 35.956684,
        "lng": 127.687202
      },
      {
        "lat": 35.953888,
        "lng": 127.684708
      }
    ],
    "color": "#806aac",
    "start_point_name": "향로봉 조망",
    "length": 383,
    "time": "6"
  },
  {
    "path_id": 42,
    "path": [
      {
        "lat": 35.953888,
        "lng": 127.684708
      },
      {
        "lat": 35.953873,
        "lng": 127.684662
      }
    ],
    "color": "#0a8fa9",
    "start_point_name": "무주 적상산성 서문지",
    "length": 4,
    "time": "0"
  },
  {
    "path_id": 43,
    "path": [
      {
        "lat": 35.953873,
        "lng": 127.684662
      },
      {
        "lat": 35.953888,
        "lng": 127.684502
      }
    ],
    "color": "#666a55",
    "start_point_name": "추락주의",
    "length": 14,
    "time": "0"
  },
  {
    "path_id": 44,
    "path": [
      {
        "lat": 35.953888,
        "lng": 127.684502
      },
      {
        "lat": 35.953796,
        "lng": 127.684471
      }
    ],
    "color": "#1c0b7d",
    "start_point_name": "급경사지 낙석 위험지역",
    "length": 10,
    "time": "0"
  },
  {
    "path_id": 45,
    "path": [
      {
        "lat": 35.953796,
        "lng": 127.684471
      },
      {
        "lat": 35.953648,
        "lng": 127.684547
      }
    ],
    "color": "#0ffa8c",
    "start_point_name": "바위",
    "length": 17,
    "time": "0"
  },
  {
    "path_id": 46,
    "path": [
      {
        "lat": 35.953648,
        "lng": 127.684547
      },
      {
        "lat": 35.953579,
        "lng": 127.684509
      }
    ],
    "color": "#804439",
    "start_point_name": "장도바위",
    "length": 8,
    "time": "0"
  },
  {
    "path_id": 47,
    "path": [
      {
        "lat": 35.953579,
        "lng": 127.684509
      },
      {
        "lat": 35.953835,
        "lng": 127.684235
      }
    ],
    "color": "#093f4c",
    "start_point_name": "급경사지 낙석지역",
    "length": 37,
    "time": "0"
  },
  {
    "path_id": 48,
    "path": [
      {
        "lat": 35.953835,
        "lng": 127.684235
      },
      {
        "lat": 35.953854,
        "lng": 127.684097
      }
    ],
    "color": "#352adb",
    "start_point_name": "낙석주의",
    "length": 12,
    "time": "0"
  },
  {
    "path_id": 49,
    "path": [
      {
        "lat": 35.953854,
        "lng": 127.684097
      },
      {
        "lat": 35.954372,
        "lng": 127.683693
      }
    ],
    "color": "#8fd6c6",
    "start_point_name": "급경사지 낙석지역",
    "length": 68,
    "time": "1"
  },
  {
    "path_id": 50,
    "path": [
      {
        "lat": 35.954372,
        "lng": 127.683693
      },
      {
        "lat": 35.953369,
        "lng": 127.683563
      }
    ],
    "color": "#cf715e",
    "start_point_name": "벤치",
    "length": 112,
    "time": "1"
  },
  {
    "path_id": 51,
    "path": [
      {
        "lat": 35.953369,
        "lng": 127.683563
      },
      {
        "lat": 35.949879,
        "lng": 127.67395
      }
    ],
    "color": "#beb63c",
    "start_point_name": "조망점",
    "length": 948,
    "time": "15"
  },
  {
    "path_id": 52,
    "path": [
      {
        "lat": 35.949879,
        "lng": 127.67395
      },
      {
        "lat": 35.949883,
        "lng": 127.673927
      }
    ],
    "color": "#6debc8",
    "start_point_name": "안내판  등산지도",
    "length": 2,
    "time": "0"
  },
  {
    "path_id": 53,
    "path": [
      {
        "lat": 35.949883,
        "lng": 127.673927
      },
      {
        "lat": 35.949501,
        "lng": 127.672905
      }
    ],
    "color": "#dfcead",
    "start_point_name": "갈림길",
    "length": 101,
    "time": "1"
  },
  {
    "path_id": 54,
    "path": [
      {
        "lat": 35.949501,
        "lng": 127.672905
      },
      {
        "lat": 35.948902,
        "lng": 127.671623
      }
    ],
    "color": "#28d9b8",
    "start_point_name": "산촌순두부",
    "length": 133,
    "time": "2"
  },
  {
    "path_id": 55,
    "path": [
      {
        "lat": 35.948902,
        "lng": 127.671623
      },
      {
        "lat": 35.949104,
        "lng": 127.67115
      }
    ],
    "color": "#5410a0",
    "start_point_name": "주차장",
    "length": 48,
    "time": "0"
  },
  {
    "path_id": 56,
    "path": [
      {
        "lat": 35.949104,
        "lng": 127.67115
      },
      {
        "lat": 35.949162,
        "lng": 127.670212
      }
    ],
    "color": "#8857cb",
    "start_point_name": "화장실",
    "length": 84,
    "time": "1"
  },
  {
    "path_id": 57,
    "path": [
      {
        "lat": 35.949162,
        "lng": 127.670212
      },
      {
        "lat": 35.952621,
        "lng": 127.662651
      }
    ],
    "color": "#fc16aa",
    "start_point_name": "주차장",
    "length": 781,
    "time": "13"
  }
]