[
  {
    "path_id": 0,
    "path": [
      {
        "lat": 37.65799,
        "lng": 126.945274
      },
      {
        "lat": 37.658024,
        "lng": 126.946571
      }
    ],
    "color": "#c1d6ae",
    "start_name": "북한산성입구 / 남도집",
    "length_meter": 115.7,
    "time_minute": 1
  },
  {
    "path_id": 1,
    "path": [
      {
        "lat": 37.658024,
        "lng": 126.946571
      },
      {
        "lat": 37.656796,
        "lng": 126.94754
      }
    ],
    "color": "#dc7d4a",
    "start_name": "쉼터",
    "length_meter": 161.0,
    "time_minute": 2
  },
  {
    "path_id": 2,
    "path": [
      {
        "lat": 37.656796,
        "lng": 126.94754
      },
      {
        "lat": 37.655956,
        "lng": 126.947792
      }
    ],
    "color": "#06a191",
    "start_name": "매점 / 상가(음식점) 주차장",
    "length_meter": 101.1,
    "time_minute": 1
  },
  {
    "path_id": 3,
    "path": [
      {
        "lat": 37.655956,
        "lng": 126.947792
      },
      {
        "lat": 37.655216,
        "lng": 126.948471
      }
    ],
    "color": "#278397",
    "start_name": "가야밀냉면",
    "length_meter": 101.7,
    "time_minute": 1
  },
  {
    "path_id": 4,
    "path": [
      {
        "lat": 37.655216,
        "lng": 126.948471
      },
      {
        "lat": 37.655148,
        "lng": 126.949074
      }
    ],
    "color": "#ed6176",
    "start_name": "북한산손칼국수 / 북한산성탐방로 입구 / 자전거 거치대.",
    "length_meter": 60.1,
    "time_minute": 1
  },
  {
    "path_id": 5,
    "path": [
      {
        "lat": 37.655148,
        "lng": 126.949074
      },
      {
        "lat": 37.654957,
        "lng": 126.949776
      }
    ],
    "color": "#5cff08",
    "start_name": "갈림길",
    "length_meter": 65.3,
    "time_minute": 1
  },
  {
    "path_id": 6,
    "path": [
      {
        "lat": 37.654957,
        "lng": 126.949776
      },
      {
        "lat": 37.654655,
        "lng": 126.950783
      }
    ],
    "color": "#30f29d",
    "start_name": "쉼터 / 스마일 북한산 명품 꽈배기",
    "length_meter": 95.3,
    "time_minute": 1
  },
  {
    "path_id": 7,
    "path": [
      {
        "lat": 37.654655,
        "lng": 126.950783
      },
      {
        "lat": 37.650135,
        "lng": 126.954033
      }
    ],
    "color": "#880945",
    "start_name": "쉼터",
    "length_meter": 578.3,
    "time_minute": 9
  },
  {
    "path_id": 8,
    "path": [
      {
        "lat": 37.650135,
        "lng": 126.954033
      },
      {
        "lat": 37.649448,
        "lng": 126.954735
      }
    ],
    "color": "#37e409",
    "start_name": "갈림길 / 사고위험지구",
    "length_meter": 98.6,
    "time_minute": 1
  },
  {
    "path_id": 9,
    "path": [
      {
        "lat": 37.649448,
        "lng": 126.954735
      },
      {
        "lat": 37.64946,
        "lng": 126.956139
      }
    ],
    "color": "#62d726",
    "start_name": "암벽 경사로 시작점",
    "length_meter": 123.6,
    "time_minute": 2
  },
  {
    "path_id": 10,
    "path": [
      {
        "lat": 37.64946,
        "lng": 126.956139
      },
      {
        "lat": 37.649517,
        "lng": 126.956787
      }
    ],
    "color": "#c494b6",
    "start_name": "쉼터 / 암릉 슬랩 / 쉼터",
    "length_meter": 61.7,
    "time_minute": 1
  },
  {
    "path_id": 11,
    "path": [
      {
        "lat": 37.649517,
        "lng": 126.956787
      },
      {
        "lat": 37.649212,
        "lng": 126.957848
      }
    ],
    "color": "#603195",
    "start_name": "철계단 / 토끼바위 / 추락주의 / 쉼터",
    "length_meter": 104.2,
    "time_minute": 1
  },
  {
    "path_id": 12,
    "path": [
      {
        "lat": 37.649212,
        "lng": 126.957848
      },
      {
        "lat": 37.649082,
        "lng": 126.958626
      }
    ],
    "color": "#750f30",
    "start_name": "성랑지 / 조망점 / 조망점 / 쉼터",
    "length_meter": 87.0,
    "time_minute": 1
  },
  {
    "path_id": 13,
    "path": [
      {
        "lat": 37.649082,
        "lng": 126.958626
      },
      {
        "lat": 37.648659,
        "lng": 126.959503
      }
    ],
    "color": "#a4bee0",
    "start_name": "쉼터 / 의상봉 오르는 등산로 / 쉼터 / 조망점 / 조망점",
    "length_meter": 95.9,
    "time_minute": 1
  },
  {
    "path_id": 14,
    "path": [
      {
        "lat": 37.648659,
        "lng": 126.959503
      },
      {
        "lat": 37.648201,
        "lng": 126.960487
      }
    ],
    "color": "#f13df4",
    "start_name": "사고위험지구 / 쉼터 / 의상대 / 조망점 / 조망점",
    "length_meter": 103.5,
    "time_minute": 1
  },
  {
    "path_id": 15,
    "path": [
      {
        "lat": 37.648201,
        "lng": 126.960487
      },
      {
        "lat": 37.647629,
        "lng": 126.960678
      }
    ],
    "color": "#97ab9a",
    "start_name": "의상봉 / 의약품 함 / 낙뢰 및 우천시 행동 요령 / 안전 쉼터 / 쉼터 / 조망점",
    "length_meter": 77.0,
    "time_minute": 1
  },
  {
    "path_id": 16,
    "path": [
      {
        "lat": 37.647629,
        "lng": 126.960678
      },
      {
        "lat": 37.646969,
        "lng": 126.960739
      }
    ],
    "color": "#36af8c",
    "start_name": "멋진 소나무와 용출봉 조망 / 조망점",
    "length_meter": 82.1,
    "time_minute": 1
  },
  {
    "path_id": 17,
    "path": [
      {
        "lat": 37.646969,
        "lng": 126.960739
      },
      {
        "lat": 37.646313,
        "lng": 126.960922
      }
    ],
    "color": "#003293",
    "start_name": "성랑지 / 성랑지",
    "length_meter": 74.8,
    "time_minute": 1
  },
  {
    "path_id": 18,
    "path": [
      {
        "lat": 37.646313,
        "lng": 126.960922
      },
      {
        "lat": 37.645817,
        "lng": 126.961227
      }
    ],
    "color": "#ae05ec",
    "start_name": "성랑지 / 재해위험지구 / 가사당암문 / 갈림길",
    "length_meter": 73.9,
    "time_minute": 1
  },
  {
    "path_id": 19,
    "path": [
      {
        "lat": 37.645817,
        "lng": 126.961227
      },
      {
        "lat": 37.645138,
        "lng": 126.961655
      }
    ],
    "color": "#dd75c0",
    "start_name": "성랑지",
    "length_meter": 84.4,
    "time_minute": 1
  },
  {
    "path_id": 20,
    "path": [
      {
        "lat": 37.645138,
        "lng": 126.961655
      },
      {
        "lat": 37.644543,
        "lng": 126.961647
      }
    ],
    "color": "#335353",
    "start_name": "성랑지 / 용출봉 오르는 암릉길",
    "length_meter": 66.2,
    "time_minute": 1
  },
  {
    "path_id": 21,
    "path": [
      {
        "lat": 37.644543,
        "lng": 126.961647
      },
      {
        "lat": 37.643822,
        "lng": 126.961876
      }
    ],
    "color": "#fbf2f0",
    "start_name": "멋진 바위 / 쉼터 / 쉼터 / 쉼터",
    "length_meter": 90.6,
    "time_minute": 1
  },
  {
    "path_id": 22,
    "path": [
      {
        "lat": 37.643822,
        "lng": 126.961876
      },
      {
        "lat": 37.64344,
        "lng": 126.962883
      }
    ],
    "color": "#dcb2b8",
    "start_name": "용출봉 / 추락주의 / 추락주의 / 국립공원 구급함 / 조망점 / 조망터",
    "length_meter": 109.1,
    "time_minute": 1
  },
  {
    "path_id": 23,
    "path": [
      {
        "lat": 37.64344,
        "lng": 126.962883
      },
      {
        "lat": 37.643173,
        "lng": 126.963821
      }
    ],
    "color": "#9b2fed",
    "start_name": "할미바위 / 쉼터",
    "length_meter": 89.2,
    "time_minute": 1
  },
  {
    "path_id": 24,
    "path": [
      {
        "lat": 37.643173,
        "lng": 126.963821
      },
      {
        "lat": 37.642994,
        "lng": 126.9646
      }
    ],
    "color": "#f0aa46",
    "start_name": "추락주의 / 낙뢰 발생시 대처 요령 / 용혈봉",
    "length_meter": 77.8,
    "time_minute": 1
  },
  {
    "path_id": 25,
    "path": [
      {
        "lat": 37.642994,
        "lng": 126.9646
      },
      {
        "lat": 37.642796,
        "lng": 126.965393
      }
    ],
    "color": "#136cb3",
    "start_name": "조망점 / 쉼터",
    "length_meter": 74.7,
    "time_minute": 1
  },
  {
    "path_id": 26,
    "path": [
      {
        "lat": 37.642796,
        "lng": 126.965393
      },
      {
        "lat": 37.642319,
        "lng": 126.965508
      }
    ],
    "color": "#a39fe4",
    "start_name": "산불감시초소 / 쉼터 / 증취봉",
    "length_meter": 60.7,
    "time_minute": 1
  },
  {
    "path_id": 27,
    "path": [
      {
        "lat": 37.642319,
        "lng": 126.965508
      },
      {
        "lat": 37.641808,
        "lng": 126.965729
      }
    ],
    "color": "#6ccebd",
    "start_name": "추락주의",
    "length_meter": 60.1,
    "time_minute": 1
  },
  {
    "path_id": 28,
    "path": [
      {
        "lat": 37.641808,
        "lng": 126.965729
      },
      {
        "lat": 37.641331,
        "lng": 126.965996
      }
    ],
    "color": "#a863d3",
    "start_name": "부왕동여장 / 쉼터 / 조망점",
    "length_meter": 63.6,
    "time_minute": 1
  },
  {
    "path_id": 29,
    "path": [
      {
        "lat": 37.641331,
        "lng": 126.965996
      },
      {
        "lat": 37.640671,
        "lng": 126.966942
      }
    ],
    "color": "#22e0e7",
    "start_name": "쉼터 / 멋진 바위 / 쉼터 / 우람한 바위들 / 성랑지 / 갈림길",
    "length_meter": 137.6,
    "time_minute": 2
  },
  {
    "path_id": 30,
    "path": [
      {
        "lat": 37.640671,
        "lng": 126.966942
      },
      {
        "lat": 37.640732,
        "lng": 126.967949
      }
    ],
    "color": "#888922",
    "start_name": "성랑지 / 부왕동암문 / 갈림길",
    "length_meter": 118.6,
    "time_minute": 1
  },
  {
    "path_id": 31,
    "path": [
      {
        "lat": 37.640732,
        "lng": 126.967949
      },
      {
        "lat": 37.641018,
        "lng": 126.969109
      }
    ],
    "color": "#4e877b",
    "start_name": "갈림길",
    "length_meter": 107.0,
    "time_minute": 1
  },
  {
    "path_id": 32,
    "path": [
      {
        "lat": 37.641018,
        "lng": 126.969109
      },
      {
        "lat": 37.642475,
        "lng": 126.970673
      }
    ],
    "color": "#298fb5",
    "start_name": "쉼터",
    "length_meter": 212.6,
    "time_minute": 3
  },
  {
    "path_id": 33,
    "path": [
      {
        "lat": 37.642475,
        "lng": 126.970673
      },
      {
        "lat": 37.642315,
        "lng": 126.971519
      }
    ],
    "color": "#1d7dca",
    "start_name": "쉼터 / 갈림길",
    "length_meter": 92.9,
    "time_minute": 1
  },
  {
    "path_id": 34,
    "path": [
      {
        "lat": 37.642315,
        "lng": 126.971519
      },
      {
        "lat": 37.64262,
        "lng": 126.971031
      }
    ],
    "color": "#ae083d",
    "start_name": "느티나무 밑 쉼터 / 부왕사지 / 부왕사지 느티나무",
    "length_meter": 77.9,
    "time_minute": 1
  },
  {
    "path_id": 35,
    "path": [
      {
        "lat": 37.64262,
        "lng": 126.971031
      },
      {
        "lat": 37.645004,
        "lng": 126.97287
      }
    ],
    "color": "#b55674",
    "start_name": "노루귀 군락지",
    "length_meter": 310.6,
    "time_minute": 5
  },
  {
    "path_id": 36,
    "path": [
      {
        "lat": 37.645004,
        "lng": 126.97287
      },
      {
        "lat": 37.64537,
        "lng": 126.973282
      }
    ],
    "color": "#496643",
    "start_name": "계곡 / 계곡",
    "length_meter": 66.4,
    "time_minute": 1
  },
  {
    "path_id": 37,
    "path": [
      {
        "lat": 37.64537,
        "lng": 126.973282
      },
      {
        "lat": 37.646542,
        "lng": 126.973145
      }
    ],
    "color": "#fc45da",
    "start_name": "계곡",
    "length_meter": 130.9,
    "time_minute": 2
  },
  {
    "path_id": 38,
    "path": [
      {
        "lat": 37.646542,
        "lng": 126.973145
      },
      {
        "lat": 37.648384,
        "lng": 126.972618
      }
    ],
    "color": "#e0c59e",
    "start_name": "백운동 계곡",
    "length_meter": 210.0,
    "time_minute": 3
  },
  {
    "path_id": 39,
    "path": [
      {
        "lat": 37.648384,
        "lng": 126.972618
      },
      {
        "lat": 37.64904,
        "lng": 126.972496
      }
    ],
    "color": "#67beca",
    "start_name": "갈림길 / 화장실",
    "length_meter": 85.6,
    "time_minute": 1
  },
  {
    "path_id": 40,
    "path": [
      {
        "lat": 37.64904,
        "lng": 126.972496
      },
      {
        "lat": 37.649384,
        "lng": 126.97303
      }
    ],
    "color": "#69a95b",
    "start_name": "공덕탑",
    "length_meter": 60.6,
    "time_minute": 1
  },
  {
    "path_id": 41,
    "path": [
      {
        "lat": 37.649384,
        "lng": 126.97303
      },
      {
        "lat": 37.648598,
        "lng": 126.971008
      }
    ],
    "color": "#374210",
    "start_name": "노적사 / 범종각 / 화장실 / 약수터",
    "length_meter": 232.8,
    "time_minute": 3
  },
  {
    "path_id": 42,
    "path": [
      {
        "lat": 37.648598,
        "lng": 126.971008
      },
      {
        "lat": 37.648773,
        "lng": 126.969559
      }
    ],
    "color": "#2ca44f",
    "start_name": "계곡, 소 / 중성문 / 중성문",
    "length_meter": 129.4,
    "time_minute": 2
  },
  {
    "path_id": 43,
    "path": [
      {
        "lat": 37.648773,
        "lng": 126.969559
      },
      {
        "lat": 37.650017,
        "lng": 126.966888
      }
    ],
    "color": "#7cd5a4",
    "start_name": "노적동계곡",
    "length_meter": 272.8,
    "time_minute": 4
  },
  {
    "path_id": 44,
    "path": [
      {
        "lat": 37.650017,
        "lng": 126.966888
      },
      {
        "lat": 37.651016,
        "lng": 126.965347
      }
    ],
    "color": "#65bb3a",
    "start_name": "갈림길 / 법용사 / 계곡 / 주차장 / 계곡",
    "length_meter": 179.1,
    "time_minute": 2
  },
  {
    "path_id": 45,
    "path": [
      {
        "lat": 37.651016,
        "lng": 126.965347
      },
      {
        "lat": 37.652088,
        "lng": 126.963394
      }
    ],
    "color": "#d0b09a",
    "start_name": "낙석 위험",
    "length_meter": 209.2,
    "time_minute": 3
  },
  {
    "path_id": 46,
    "path": [
      {
        "lat": 37.652088,
        "lng": 126.963394
      },
      {
        "lat": 37.652363,
        "lng": 126.962395
      }
    ],
    "color": "#ba438d",
    "start_name": "북한산국립공원 자생식물원 / 주차장",
    "length_meter": 94.3,
    "time_minute": 1
  },
  {
    "path_id": 47,
    "path": [
      {
        "lat": 37.652363,
        "lng": 126.962395
      },
      {
        "lat": 37.652897,
        "lng": 126.961624
      }
    ],
    "color": "#1d3123",
    "start_name": "북한동역사관",
    "length_meter": 90.2,
    "time_minute": 1
  },
  {
    "path_id": 48,
    "path": [
      {
        "lat": 37.652897,
        "lng": 126.961624
      },
      {
        "lat": 37.65316,
        "lng": 126.960609
      }
    ],
    "color": "#941115",
    "start_name": "갈림길",
    "length_meter": 94.0,
    "time_minute": 1
  },
  {
    "path_id": 49,
    "path": [
      {
        "lat": 37.65316,
        "lng": 126.960609
      },
      {
        "lat": 37.653843,
        "lng": 126.959312
      }
    ],
    "color": "#846f25",
    "start_name": "갈림길",
    "length_meter": 137.1,
    "time_minute": 2
  },
  {
    "path_id": 50,
    "path": [
      {
        "lat": 37.653843,
        "lng": 126.959312
      },
      {
        "lat": 37.653698,
        "lng": 126.95816
      }
    ],
    "color": "#4b81ca",
    "start_name": "무량사 / 낙석 위험",
    "length_meter": 102.8,
    "time_minute": 1
  },
  {
    "path_id": 51,
    "path": [
      {
        "lat": 37.653698,
        "lng": 126.95816
      },
      {
        "lat": 37.653904,
        "lng": 126.95742
      }
    ],
    "color": "#f117c1",
    "start_name": "낙석 위험 / 낙석 위험 / 화장실",
    "length_meter": 82.3,
    "time_minute": 1
  },
  {
    "path_id": 52,
    "path": [
      {
        "lat": 37.653904,
        "lng": 126.95742
      },
      {
        "lat": 37.65284,
        "lng": 126.954765
      }
    ],
    "color": "#5f97e1",
    "start_name": "주차장",
    "length_meter": 262.0,
    "time_minute": 4
  },
  {
    "path_id": 53,
    "path": [
      {
        "lat": 37.65284,
        "lng": 126.954765
      },
      {
        "lat": 37.652718,
        "lng": 126.953949
      }
    ],
    "color": "#d16784",
    "start_name": "갈림길",
    "length_meter": 73.1,
    "time_minute": 1
  },
  {
    "path_id": 54,
    "path": [
      {
        "lat": 37.652718,
        "lng": 126.953949
      },
      {
        "lat": 37.651985,
        "lng": 126.954361
      }
    ],
    "color": "#66dc7c",
    "start_name": "갈림길",
    "length_meter": 89.2,
    "time_minute": 1
  },
  {
    "path_id": 55,
    "path": [
      {
        "lat": 37.651985,
        "lng": 126.954361
      },
      {
        "lat": 37.651863,
        "lng": 126.953506
      }
    ],
    "color": "#b77f74",
    "start_name": "주차장 / 갈림길",
    "length_meter": 94.2,
    "time_minute": 1
  },
  {
    "path_id": 56,
    "path": [
      {
        "lat": 37.651863,
        "lng": 126.953506
      },
      {
        "lat": 37.654465,
        "lng": 126.950996
      }
    ],
    "color": "#47bead",
    "start_name": "갈림길 / 약수터 / 갈림길",
    "length_meter": 415.0,
    "time_minute": 6
  },
  {
    "path_id": 57,
    "path": [
      {
        "lat": 37.654465,
        "lng": 126.950996
      },
      {
        "lat": 37.656517,
        "lng": 126.947479
      }
    ],
    "color": "#736b8a",
    "start_name": "북한산국립공원 북한산성분소 / 갈림길",
    "length_meter": 386.7,
    "time_minute": 6
  }
]