[
  {
    "path_id": 0,
    "path": [
      {
        "lat": 37.65799,
        "lng": 126.945274
      },
      {
        "lat": 37.656796,
        "lng": 126.94754
      }
    ],
    "color": "#b1b308",
    "start_name": "북한산성입구 / 남도집",
    "length_meter": 254.2,
    "time_minute": 4
  },
  {
    "path_id": 1,
    "path": [
      {
        "lat": 37.656796,
        "lng": 126.94754
      },
      {
        "lat": 37.655956,
        "lng": 126.947792
      }
    ],
    "color": "#670b79",
    "start_name": "매점 / 상가(음식점) 주차장",
    "length_meter": 101.1,
    "time_minute": 1
  },
  {
    "path_id": 2,
    "path": [
      {
        "lat": 37.655956,
        "lng": 126.947792
      },
      {
        "lat": 37.655216,
        "lng": 126.948471
      }
    ],
    "color": "#914211",
    "start_name": "가야밀냉면",
    "length_meter": 101.7,
    "time_minute": 1
  },
  {
    "path_id": 3,
    "path": [
      {
        "lat": 37.655216,
        "lng": 126.948471
      },
      {
        "lat": 37.655128,
        "lng": 126.949097
      }
    ],
    "color": "#23bb2f",
    "start_name": "북한산손칼국수 / 북한산성탐방로 입구",
    "length_meter": 57.1,
    "time_minute": 0
  },
  {
    "path_id": 4,
    "path": [
      {
        "lat": 37.655128,
        "lng": 126.949097
      },
      {
        "lat": 37.65493,
        "lng": 126.949989
      }
    ],
    "color": "#973f1b",
    "start_name": "자전거 거치대. / 갈림길",
    "length_meter": 87.1,
    "time_minute": 1
  },
  {
    "path_id": 5,
    "path": [
      {
        "lat": 37.65493,
        "lng": 126.949989
      },
      {
        "lat": 37.650135,
        "lng": 126.954033
      }
    ],
    "color": "#39bc80",
    "start_name": "스마일 북한산 명품 꽈배기",
    "length_meter": 641.1,
    "time_minute": 10
  },
  {
    "path_id": 6,
    "path": [
      {
        "lat": 37.650135,
        "lng": 126.954033
      },
      {
        "lat": 37.649448,
        "lng": 126.954735
      }
    ],
    "color": "#8d0db2",
    "start_name": "갈림길",
    "length_meter": 98.3,
    "time_minute": 1
  },
  {
    "path_id": 7,
    "path": [
      {
        "lat": 37.649448,
        "lng": 126.954735
      },
      {
        "lat": 37.649521,
        "lng": 126.956383
      }
    ],
    "color": "#63734a",
    "start_name": "암벽 경사로 시작점",
    "length_meter": 145.3,
    "time_minute": 2
  },
  {
    "path_id": 8,
    "path": [
      {
        "lat": 37.649521,
        "lng": 126.956383
      },
      {
        "lat": 37.649426,
        "lng": 126.957321
      }
    ],
    "color": "#1d4a2a",
    "start_name": "암릉 슬랩 / 철계단",
    "length_meter": 83.7,
    "time_minute": 1
  },
  {
    "path_id": 9,
    "path": [
      {
        "lat": 37.649426,
        "lng": 126.957321
      },
      {
        "lat": 37.648991,
        "lng": 126.958794
      }
    ],
    "color": "#a221af",
    "start_name": "토끼바위 / 성랑지",
    "length_meter": 139.0,
    "time_minute": 2
  },
  {
    "path_id": 10,
    "path": [
      {
        "lat": 37.648991,
        "lng": 126.958794
      },
      {
        "lat": 37.648514,
        "lng": 126.959869
      }
    ],
    "color": "#9d1db3",
    "start_name": "의상봉 오르는 등산로",
    "length_meter": 108.5,
    "time_minute": 1
  },
  {
    "path_id": 11,
    "path": [
      {
        "lat": 37.648514,
        "lng": 126.959869
      },
      {
        "lat": 37.648201,
        "lng": 126.960487
      }
    ],
    "color": "#23394c",
    "start_name": "의상대",
    "length_meter": 64.6,
    "time_minute": 1
  },
  {
    "path_id": 12,
    "path": [
      {
        "lat": 37.648201,
        "lng": 126.960487
      },
      {
        "lat": 37.647629,
        "lng": 126.960678
      }
    ],
    "color": "#3c9ca0",
    "start_name": "의상봉 / 안전 쉼터",
    "length_meter": 71.8,
    "time_minute": 1
  },
  {
    "path_id": 13,
    "path": [
      {
        "lat": 37.647629,
        "lng": 126.960678
      },
      {
        "lat": 37.646969,
        "lng": 126.960739
      }
    ],
    "color": "#570404",
    "start_name": "멋진 소나무와 용출봉 조망",
    "length_meter": 73.6,
    "time_minute": 1
  },
  {
    "path_id": 14,
    "path": [
      {
        "lat": 37.646969,
        "lng": 126.960739
      },
      {
        "lat": 37.646217,
        "lng": 126.961067
      }
    ],
    "color": "#19a37f",
    "start_name": "성랑지",
    "length_meter": 88.5,
    "time_minute": 1
  },
  {
    "path_id": 15,
    "path": [
      {
        "lat": 37.646217,
        "lng": 126.961067
      },
      {
        "lat": 37.645008,
        "lng": 126.961655
      }
    ],
    "color": "#96353d",
    "start_name": "가사당암문 / 갈림길 / 성랑지",
    "length_meter": 151.9,
    "time_minute": 2
  },
  {
    "path_id": 16,
    "path": [
      {
        "lat": 37.645008,
        "lng": 126.961655
      },
      {
        "lat": 37.643822,
        "lng": 126.961876
      }
    ],
    "color": "#07bb9b",
    "start_name": "용출봉 오르는 암릉길 / 멋진 바위",
    "length_meter": 134.4,
    "time_minute": 2
  },
  {
    "path_id": 17,
    "path": [
      {
        "lat": 37.643822,
        "lng": 126.961876
      },
      {
        "lat": 37.64344,
        "lng": 126.962883
      }
    ],
    "color": "#c4107a",
    "start_name": "용출봉 / 국립공원 구급함 / 조망터",
    "length_meter": 102.6,
    "time_minute": 1
  },
  {
    "path_id": 18,
    "path": [
      {
        "lat": 37.64344,
        "lng": 126.962883
      },
      {
        "lat": 37.643215,
        "lng": 126.964104
      }
    ],
    "color": "#adae91",
    "start_name": "할미바위",
    "length_meter": 110.4,
    "time_minute": 1
  },
  {
    "path_id": 19,
    "path": [
      {
        "lat": 37.643215,
        "lng": 126.964104
      },
      {
        "lat": 37.642368,
        "lng": 126.965599
      }
    ],
    "color": "#a50540",
    "start_name": "낙뢰 발생시 대처 요령 / 용혈봉",
    "length_meter": 163.7,
    "time_minute": 2
  },
  {
    "path_id": 20,
    "path": [
      {
        "lat": 37.642368,
        "lng": 126.965599
      },
      {
        "lat": 37.641808,
        "lng": 126.965729
      }
    ],
    "color": "#6d5c77",
    "start_name": "증취봉",
    "length_meter": 63.3,
    "time_minute": 1
  },
  {
    "path_id": 21,
    "path": [
      {
        "lat": 37.641808,
        "lng": 126.965729
      },
      {
        "lat": 37.641171,
        "lng": 126.966202
      }
    ],
    "color": "#a4ac68",
    "start_name": "부왕동여장",
    "length_meter": 82.2,
    "time_minute": 1
  },
  {
    "path_id": 22,
    "path": [
      {
        "lat": 37.641171,
        "lng": 126.966202
      },
      {
        "lat": 37.641281,
        "lng": 126.966377
      }
    ],
    "color": "#808d7b",
    "start_name": "멋진 바위 / 우람한 바위들",
    "length_meter": 27.5,
    "time_minute": 0
  },
  {
    "path_id": 23,
    "path": [
      {
        "lat": 37.641281,
        "lng": 126.966377
      },
      {
        "lat": 37.640671,
        "lng": 126.966942
      }
    ],
    "color": "#045d7c",
    "start_name": "성랑지 / 갈림길",
    "length_meter": 84.7,
    "time_minute": 1
  },
  {
    "path_id": 24,
    "path": [
      {
        "lat": 37.640671,
        "lng": 126.966942
      },
      {
        "lat": 37.640404,
        "lng": 126.967201
      }
    ],
    "color": "#6f437a",
    "start_name": "성랑지",
    "length_meter": 37.4,
    "time_minute": 0
  },
  {
    "path_id": 25,
    "path": [
      {
        "lat": 37.640404,
        "lng": 126.967201
      },
      {
        "lat": 37.642315,
        "lng": 126.971519
      }
    ],
    "color": "#a71872",
    "start_name": "부왕동암문 / 갈림길",
    "length_meter": 441.1,
    "time_minute": 7
  },
  {
    "path_id": 26,
    "path": [
      {
        "lat": 37.642315,
        "lng": 126.971519
      },
      {
        "lat": 37.64262,
        "lng": 126.971031
      }
    ],
    "color": "#438ebc",
    "start_name": "느티나무 밑 쉼터 / 부왕사지 / 부왕사지 느티나무",
    "length_meter": 77.9,
    "time_minute": 1
  },
  {
    "path_id": 27,
    "path": [
      {
        "lat": 37.64262,
        "lng": 126.971031
      },
      {
        "lat": 37.645004,
        "lng": 126.97287
      }
    ],
    "color": "#bab094",
    "start_name": "노루귀 군락지",
    "length_meter": 310.6,
    "time_minute": 5
  },
  {
    "path_id": 28,
    "path": [
      {
        "lat": 37.645004,
        "lng": 126.97287
      },
      {
        "lat": 37.646542,
        "lng": 126.973145
      }
    ],
    "color": "#3e604e",
    "start_name": "계곡",
    "length_meter": 172.7,
    "time_minute": 2
  },
  {
    "path_id": 29,
    "path": [
      {
        "lat": 37.646542,
        "lng": 126.973145
      },
      {
        "lat": 37.648384,
        "lng": 126.972618
      }
    ],
    "color": "#9b9326",
    "start_name": "백운동 계곡",
    "length_meter": 210.0,
    "time_minute": 3
  },
  {
    "path_id": 30,
    "path": [
      {
        "lat": 37.648384,
        "lng": 126.972618
      },
      {
        "lat": 37.64904,
        "lng": 126.972496
      }
    ],
    "color": "#987d0f",
    "start_name": "갈림길 / 화장실",
    "length_meter": 85.6,
    "time_minute": 1
  },
  {
    "path_id": 31,
    "path": [
      {
        "lat": 37.64904,
        "lng": 126.972496
      },
      {
        "lat": 37.649384,
        "lng": 126.97303
      }
    ],
    "color": "#766361",
    "start_name": "공덕탑",
    "length_meter": 60.6,
    "time_minute": 1
  },
  {
    "path_id": 32,
    "path": [
      {
        "lat": 37.649384,
        "lng": 126.97303
      },
      {
        "lat": 37.648605,
        "lng": 126.970657
      }
    ],
    "color": "#8d8436",
    "start_name": "노적사 / 범종각 / 화장실 / 약수터",
    "length_meter": 258.1,
    "time_minute": 4
  },
  {
    "path_id": 33,
    "path": [
      {
        "lat": 37.648605,
        "lng": 126.970657
      },
      {
        "lat": 37.648773,
        "lng": 126.969559
      }
    ],
    "color": "#84c092",
    "start_name": "중성문",
    "length_meter": 98.5,
    "time_minute": 1
  },
  {
    "path_id": 34,
    "path": [
      {
        "lat": 37.648773,
        "lng": 126.969559
      },
      {
        "lat": 37.650017,
        "lng": 126.966888
      }
    ],
    "color": "#024994",
    "start_name": "노적동계곡",
    "length_meter": 272.8,
    "time_minute": 4
  },
  {
    "path_id": 35,
    "path": [
      {
        "lat": 37.650017,
        "lng": 126.966888
      },
      {
        "lat": 37.652088,
        "lng": 126.963394
      }
    ],
    "color": "#c15501",
    "start_name": "갈림길 / 법용사 / 계곡",
    "length_meter": 386.8,
    "time_minute": 6
  },
  {
    "path_id": 36,
    "path": [
      {
        "lat": 37.652088,
        "lng": 126.963394
      },
      {
        "lat": 37.652363,
        "lng": 126.962395
      }
    ],
    "color": "#3b6756",
    "start_name": "북한산국립공원 자생식물원",
    "length_meter": 93.1,
    "time_minute": 1
  },
  {
    "path_id": 37,
    "path": [
      {
        "lat": 37.652363,
        "lng": 126.962395
      },
      {
        "lat": 37.652897,
        "lng": 126.961624
      }
    ],
    "color": "#8417a8",
    "start_name": "북한동역사관",
    "length_meter": 90.2,
    "time_minute": 1
  },
  {
    "path_id": 38,
    "path": [
      {
        "lat": 37.652897,
        "lng": 126.961624
      },
      {
        "lat": 37.653843,
        "lng": 126.959312
      }
    ],
    "color": "#3eaf30",
    "start_name": "갈림길",
    "length_meter": 229.1,
    "time_minute": 3
  },
  {
    "path_id": 39,
    "path": [
      {
        "lat": 37.653843,
        "lng": 126.959312
      },
      {
        "lat": 37.654003,
        "lng": 126.957726
      }
    ],
    "color": "#9150a3",
    "start_name": "무량사",
    "length_meter": 140.8,
    "time_minute": 2
  },
  {
    "path_id": 40,
    "path": [
      {
        "lat": 37.654003,
        "lng": 126.957726
      },
      {
        "lat": 37.65284,
        "lng": 126.954765
      }
    ],
    "color": "#01833f",
    "start_name": "화장실",
    "length_meter": 291.0,
    "time_minute": 4
  },
  {
    "path_id": 41,
    "path": [
      {
        "lat": 37.65284,
        "lng": 126.954765
      },
      {
        "lat": 37.651855,
        "lng": 126.953415
      }
    ],
    "color": "#c2b748",
    "start_name": "갈림길",
    "length_meter": 161.6,
    "time_minute": 2
  },
  {
    "path_id": 42,
    "path": [
      {
        "lat": 37.651855,
        "lng": 126.953415
      },
      {
        "lat": 37.654465,
        "lng": 126.950996
      }
    ],
    "color": "#ae6056",
    "start_name": "약수터",
    "length_meter": 360.0,
    "time_minute": 5
  },
  {
    "path_id": 43,
    "path": [
      {
        "lat": 37.654465,
        "lng": 126.950996
      },
      {
        "lat": 37.656517,
        "lng": 126.947479
      }
    ],
    "color": "#42b4c0",
    "start_name": "북한산국립공원 북한산성분소 / 갈림길",
    "length_meter": 386.7,
    "time_minute": 6
  }
]