[
  {
    "path_id": 0,
    "path": [
      {
        "lat": 36.865013,
        "lng": 128.088028
      },
      {
        "lat": 36.866463,
        "lng": 128.088181
      }
    ],
    "color": "#907937",
    "start_name": "송계 계곡",
    "length_meter": 161.8,
    "time_minute": 2
  },
  {
    "path_id": 1,
    "path": [
      {
        "lat": 36.866463,
        "lng": 128.088181
      },
      {
        "lat": 36.86821,
        "lng": 128.087891
      }
    ],
    "color": "#d04076",
    "start_name": "캠핑장",
    "length_meter": 196.0,
    "time_minute": 3
  },
  {
    "path_id": 2,
    "path": [
      {
        "lat": 36.86821,
        "lng": 128.087891
      },
      {
        "lat": 36.869873,
        "lng": 128.087296
      }
    ],
    "color": "#983fe0",
    "start_name": "야영장 안내도 / 송계 계곡",
    "length_meter": 193.4,
    "time_minute": 3
  },
  {
    "path_id": 3,
    "path": [
      {
        "lat": 36.869873,
        "lng": 128.087296
      },
      {
        "lat": 36.870564,
        "lng": 128.086334
      }
    ],
    "color": "#96dee0",
    "start_name": "벤치",
    "length_meter": 115.0,
    "time_minute": 1
  },
  {
    "path_id": 4,
    "path": [
      {
        "lat": 36.870564,
        "lng": 128.086334
      },
      {
        "lat": 36.871716,
        "lng": 128.084534
      }
    ],
    "color": "#5d89cd",
    "start_name": "골뫼골",
    "length_meter": 205.1,
    "time_minute": 3
  },
  {
    "path_id": 5,
    "path": [
      {
        "lat": 36.871716,
        "lng": 128.084534
      },
      {
        "lat": 36.87532,
        "lng": 128.082428
      }
    ],
    "color": "#fa3252",
    "start_name": "송계게곡",
    "length_meter": 442.4,
    "time_minute": 7
  },
  {
    "path_id": 6,
    "path": [
      {
        "lat": 36.87532,
        "lng": 128.082428
      },
      {
        "lat": 36.875858,
        "lng": 128.082504
      }
    ],
    "color": "#6cb91b",
    "start_name": "영봉",
    "length_meter": 60.2,
    "time_minute": 1
  },
  {
    "path_id": 7,
    "path": [
      {
        "lat": 36.875858,
        "lng": 128.082504
      },
      {
        "lat": 36.876514,
        "lng": 128.082596
      }
    ],
    "color": "#723468",
    "start_name": "펜션마을 주차장 / 펜션마을",
    "length_meter": 74.0,
    "time_minute": 1
  },
  {
    "path_id": 8,
    "path": [
      {
        "lat": 36.876514,
        "lng": 128.082596
      },
      {
        "lat": 36.877594,
        "lng": 128.082764
      }
    ],
    "color": "#6769de",
    "start_name": "펜션마을 전경",
    "length_meter": 121.0,
    "time_minute": 2
  },
  {
    "path_id": 9,
    "path": [
      {
        "lat": 36.877594,
        "lng": 128.082764
      },
      {
        "lat": 36.879681,
        "lng": 128.081909
      }
    ],
    "color": "#d27a8d",
    "start_name": "자연경관",
    "length_meter": 244.2,
    "time_minute": 4
  },
  {
    "path_id": 10,
    "path": [
      {
        "lat": 36.879681,
        "lng": 128.081909
      },
      {
        "lat": 36.880169,
        "lng": 128.081589
      }
    ],
    "color": "#aada06",
    "start_name": "안내소 / 동창교 입구",
    "length_meter": 61.4,
    "time_minute": 1
  },
  {
    "path_id": 11,
    "path": [
      {
        "lat": 36.880169,
        "lng": 128.081589
      },
      {
        "lat": 36.880947,
        "lng": 128.081924
      }
    ],
    "color": "#b55b4c",
    "start_name": "이정표 / 마트 / 자광사 / 식당",
    "length_meter": 117.0,
    "time_minute": 1
  },
  {
    "path_id": 12,
    "path": [
      {
        "lat": 36.880947,
        "lng": 128.081924
      },
      {
        "lat": 36.881405,
        "lng": 128.08255
      }
    ],
    "color": "#4b5d9f",
    "start_name": "동창교 화장실 / 동창교 코스 안내 / 계곡 / 펜션,식당 / 자광사",
    "length_meter": 77.4,
    "time_minute": 1
  },
  {
    "path_id": 13,
    "path": [
      {
        "lat": 36.881405,
        "lng": 128.08255
      },
      {
        "lat": 36.881729,
        "lng": 128.08342
      }
    ],
    "color": "#bd31dd",
    "start_name": "영봉 전경 / 자광사",
    "length_meter": 85.6,
    "time_minute": 1
  },
  {
    "path_id": 14,
    "path": [
      {
        "lat": 36.881729,
        "lng": 128.08342
      },
      {
        "lat": 36.881512,
        "lng": 128.08429
      }
    ],
    "color": "#dd38da",
    "start_name": "자연경관",
    "length_meter": 81.1,
    "time_minute": 1
  },
  {
    "path_id": 15,
    "path": [
      {
        "lat": 36.881512,
        "lng": 128.08429
      },
      {
        "lat": 36.881332,
        "lng": 128.084976
      }
    ],
    "color": "#2fd4bc",
    "start_name": "입산 시간 안내 / 계곡 / 오솔길",
    "length_meter": 64.3,
    "time_minute": 1
  },
  {
    "path_id": 16,
    "path": [
      {
        "lat": 36.881332,
        "lng": 128.084976
      },
      {
        "lat": 36.881413,
        "lng": 128.086304
      }
    ],
    "color": "#0dcc47",
    "start_name": "계곡",
    "length_meter": 118.5,
    "time_minute": 1
  },
  {
    "path_id": 17,
    "path": [
      {
        "lat": 36.881413,
        "lng": 128.086304
      },
      {
        "lat": 36.882225,
        "lng": 128.088287
      }
    ],
    "color": "#62beb2",
    "start_name": "이정표 / 길",
    "length_meter": 202.8,
    "time_minute": 3
  },
  {
    "path_id": 18,
    "path": [
      {
        "lat": 36.882225,
        "lng": 128.088287
      },
      {
        "lat": 36.882839,
        "lng": 128.088959
      }
    ],
    "color": "#be99d9",
    "start_name": "계곡 / 산신각 / 사고 위험지구",
    "length_meter": 92.8,
    "time_minute": 1
  },
  {
    "path_id": 19,
    "path": [
      {
        "lat": 36.882839,
        "lng": 128.088959
      },
      {
        "lat": 36.883041,
        "lng": 128.089767
      }
    ],
    "color": "#0ce645",
    "start_name": "오솔길 / 계곡",
    "length_meter": 76.2,
    "time_minute": 1
  },
  {
    "path_id": 20,
    "path": [
      {
        "lat": 36.883041,
        "lng": 128.089767
      },
      {
        "lat": 36.883121,
        "lng": 128.090927
      }
    ],
    "color": "#d5d35b",
    "start_name": "돌포장길",
    "length_meter": 103.6,
    "time_minute": 1
  },
  {
    "path_id": 21,
    "path": [
      {
        "lat": 36.883121,
        "lng": 128.090927
      },
      {
        "lat": 36.883476,
        "lng": 128.093063
      }
    ],
    "color": "#156fff",
    "start_name": "이정표 / 길",
    "length_meter": 201.1,
    "time_minute": 3
  },
  {
    "path_id": 22,
    "path": [
      {
        "lat": 36.883476,
        "lng": 128.093063
      },
      {
        "lat": 36.88356,
        "lng": 128.09375
      }
    ],
    "color": "#472d57",
    "start_name": "산양 서식 안내",
    "length_meter": 61.8,
    "time_minute": 1
  },
  {
    "path_id": 23,
    "path": [
      {
        "lat": 36.88356,
        "lng": 128.09375
      },
      {
        "lat": 36.882946,
        "lng": 128.094559
      }
    ],
    "color": "#3abfb1",
    "start_name": "웨이포인트 62 / 돌계단길 / 돌계단",
    "length_meter": 99.9,
    "time_minute": 1
  },
  {
    "path_id": 24,
    "path": [
      {
        "lat": 36.882946,
        "lng": 128.094559
      },
      {
        "lat": 36.882305,
        "lng": 128.095871
      }
    ],
    "color": "#e92e1d",
    "start_name": "웨이포인트 65 / 돌계단길",
    "length_meter": 136.7,
    "time_minute": 2
  },
  {
    "path_id": 25,
    "path": [
      {
        "lat": 36.882305,
        "lng": 128.095871
      },
      {
        "lat": 36.881939,
        "lng": 128.096146
      }
    ],
    "color": "#b12710",
    "start_name": "영봉,산양 관찰 전망대 / 영봉 전망대 / 영봉 관찰 전망대 / 전망대 / 웨이포인트 72 / 전망대 가는길",
    "length_meter": 102.6,
    "time_minute": 1
  },
  {
    "path_id": 26,
    "path": [
      {
        "lat": 36.881939,
        "lng": 128.096146
      },
      {
        "lat": 36.881439,
        "lng": 128.096588
      }
    ],
    "color": "#00f3aa",
    "start_name": "위험지역 / 나무계단 / 철,나무 계단 / 자연경관",
    "length_meter": 90.1,
    "time_minute": 1
  },
  {
    "path_id": 27,
    "path": [
      {
        "lat": 36.881439,
        "lng": 128.096588
      },
      {
        "lat": 36.88155,
        "lng": 128.098846
      }
    ],
    "color": "#cf6588",
    "start_name": "이정표 / 웨이포인트 82",
    "length_meter": 212.4,
    "time_minute": 3
  },
  {
    "path_id": 28,
    "path": [
      {
        "lat": 36.88155,
        "lng": 128.098846
      },
      {
        "lat": 36.88031,
        "lng": 128.101089
      }
    ],
    "color": "#5b97a9",
    "start_name": "흙길오르막 / 이정표",
    "length_meter": 242.6,
    "time_minute": 4
  },
  {
    "path_id": 29,
    "path": [
      {
        "lat": 36.88031,
        "lng": 128.101089
      },
      {
        "lat": 36.880081,
        "lng": 128.101685
      }
    ],
    "color": "#3e41a7",
    "start_name": "웨이포인트 85 / 웨이포인트 86",
    "length_meter": 71.5,
    "time_minute": 1
  },
  {
    "path_id": 30,
    "path": [
      {
        "lat": 36.880081,
        "lng": 128.101685
      },
      {
        "lat": 36.880722,
        "lng": 128.104111
      }
    ],
    "color": "#c4443b",
    "start_name": "이정표 / 웨이포인트 88",
    "length_meter": 232.2,
    "time_minute": 3
  },
  {
    "path_id": 31,
    "path": [
      {
        "lat": 36.880722,
        "lng": 128.104111
      },
      {
        "lat": 36.875523,
        "lng": 128.106476
      }
    ],
    "color": "#6f4881",
    "start_name": "미끄럼주의",
    "length_meter": 615.2,
    "time_minute": 10
  },
  {
    "path_id": 32,
    "path": [
      {
        "lat": 36.875523,
        "lng": 128.106476
      },
      {
        "lat": 36.874664,
        "lng": 128.105148
      }
    ],
    "color": "#e5b9dd",
    "start_name": "안내소",
    "length_meter": 151.9,
    "time_minute": 2
  },
  {
    "path_id": 33,
    "path": [
      {
        "lat": 36.874664,
        "lng": 128.105148
      },
      {
        "lat": 36.870987,
        "lng": 128.103714
      }
    ],
    "color": "#08a0fb",
    "start_name": "이정표 / 무선충전기",
    "length_meter": 429.1,
    "time_minute": 7
  },
  {
    "path_id": 34,
    "path": [
      {
        "lat": 36.870987,
        "lng": 128.103714
      },
      {
        "lat": 36.867748,
        "lng": 128.105179
      }
    ],
    "color": "#902fd3",
    "start_name": "자연경관",
    "length_meter": 383.0,
    "time_minute": 6
  },
  {
    "path_id": 35,
    "path": [
      {
        "lat": 36.867748,
        "lng": 128.105179
      },
      {
        "lat": 36.866718,
        "lng": 128.105438
      }
    ],
    "color": "#7f5e8e",
    "start_name": "웨이포인트 157 / 계곡 / 웨이포인트 159",
    "length_meter": 118.7,
    "time_minute": 1
  },
  {
    "path_id": 36,
    "path": [
      {
        "lat": 36.866718,
        "lng": 128.105438
      },
      {
        "lat": 36.86591,
        "lng": 128.104568
      }
    ],
    "color": "#687322",
    "start_name": "웨이포인트 160",
    "length_meter": 118.6,
    "time_minute": 1
  },
  {
    "path_id": 37,
    "path": [
      {
        "lat": 36.86591,
        "lng": 128.104568
      },
      {
        "lat": 36.863708,
        "lng": 128.103592
      }
    ],
    "color": "#8767d5",
    "start_name": "자연경관 / 안내소",
    "length_meter": 260.8,
    "time_minute": 4
  },
  {
    "path_id": 38,
    "path": [
      {
        "lat": 36.863708,
        "lng": 128.103592
      },
      {
        "lat": 36.861732,
        "lng": 128.101898
      }
    ],
    "color": "#f90cde",
    "start_name": "자연경관 / 웨이포인트 165",
    "length_meter": 266.9,
    "time_minute": 4
  },
  {
    "path_id": 39,
    "path": [
      {
        "lat": 36.861732,
        "lng": 128.101898
      },
      {
        "lat": 36.861263,
        "lng": 128.099838
      }
    ],
    "color": "#a395cd",
    "start_name": "계곡 / 웨이포인트 170",
    "length_meter": 190.5,
    "time_minute": 3
  },
  {
    "path_id": 40,
    "path": [
      {
        "lat": 36.861263,
        "lng": 128.099838
      },
      {
        "lat": 36.862068,
        "lng": 128.090271
      }
    ],
    "color": "#aa9f94",
    "start_name": "자연경관",
    "length_meter": 855.8,
    "time_minute": 14
  },
  {
    "path_id": 41,
    "path": [
      {
        "lat": 36.862068,
        "lng": 128.090271
      },
      {
        "lat": 36.862457,
        "lng": 128.089508
      }
    ],
    "color": "#c09523",
    "start_name": "덕주사 자연관찰로 / 관광자원",
    "length_meter": 80.7,
    "time_minute": 1
  },
  {
    "path_id": 42,
    "path": [
      {
        "lat": 36.862457,
        "lng": 128.089508
      },
      {
        "lat": 36.863129,
        "lng": 128.088501
      }
    ],
    "color": "#309b3a",
    "start_name": "식당,펜션 / 안내소",
    "length_meter": 120.9,
    "time_minute": 2
  }
]