[
    {
        "path_id": 1,
        "name": "봉평주공아파트 정류소",
        "lat": 34.822266,
        "lon": 128.41481
    },
    {
        "path_id": 2,
        "name": "옹달샘",
        "lat": 34.824051,
        "lon": 128.415268
    },
    {
        "path_id": 3,
        "name": "용화주막집",
        "lat": 34.82296,
        "lon": 128.415024
    },
    {
        "path_id": 4,
        "name": "봉평곰탕",
        "lat": 34.822552,
        "lon": 128.414963
    },
    {
        "path_id": 5,
        "name": "미륵편의점",
        "lat": 34.82235,
        "lon": 128.414825
    },
    {
        "path_id": 6,
        "name": "용화사 광장주차장",
        "lat": 34.822323,
        "lon": 128.414825
    },
    {
        "path_id": 7,
        "name": "용화산방",
        "lat": 34.821953,
        "lon": 128.414749
    },
    {
        "path_id": 9,
        "name": "갈림길",
        "lat": 34.821613,
        "lon": 128.414063
    },
    {
        "path_id": 10,
        "name": "갈림길",
        "lat": 34.821766,
        "lon": 128.412109
    },
    {
        "path_id": 11,
        "name": "갈림길",
        "lat": 34.821102,
        "lon": 128.408966
    },
    {
        "path_id": 12,
        "name": "갈림길",
        "lat": 34.82061,
        "lon": 128.408844
    },
    {
        "path_id": 13,
        "name": "갈림길",
        "lat": 34.819778,
        "lon": 128.404694
    },
    {
        "path_id": 14,
        "name": "갈림길",
        "lat": 34.817467,
        "lon": 128.40358
    },
    {
        "path_id": 15,
        "name": "갈림길",
        "lat": 34.817467,
        "lon": 128.40358
    },
    {
        "path_id": 16,
        "name": "현금산 정상 339미터",
        "lat": 34.817135,
        "lon": 128.402298
    },
    {
        "path_id": 17,
        "name": "천지봉 정상",
        "lat": 34.817833,
        "lon": 128.406036
    },
    {
        "path_id": 18,
        "name": "KBS중계탑옆 조망처",
        "lat": 34.817516,
        "lon": 128.407135
    },
    {
        "path_id": 19,
        "name": "갈림길",
        "lat": 34.815922,
        "lon": 128.410355
    },
    {
        "path_id": 20,
        "name": "정상직전 멋진소나무",
        "lat": 34.811089,
        "lon": 128.415375
    },
    {
        "path_id": 21,
        "name": "미륵산",
        "lat": 34.810749,
        "lon": 128.416092
    },
    {
        "path_id": 22,
        "name": "갈림길",
        "lat": 34.807171,
        "lon": 128.418793
    },
    {
        "path_id": 23,
        "name": "갈림길",
        "lat": 34.807217,
        "lon": 128.4189
    },
    {
        "path_id": 24,
        "name": "갈림길",
        "lat": 34.807217,
        "lon": 128.418961
    },
    {
        "path_id": 25,
        "name": "미륵동 약수터",
        "lat": 34.812881,
        "lon": 128.420654
    }
]