[
  {
    "path_id": 0,
    "path": [
      {
        "lat": 37.487534,
        "lng": 130.890594
      },
      {
        "lat": 37.494392,
        "lng": 130.881058
      }
    ],
    "color": "#4b5d08",
    "start_name": "갈림길",
    "length_meter": 1135.5,
    "time_minute": 18
  },
  {
    "path_id": 1,
    "path": [
      {
        "lat": 37.494392,
        "lng": 130.881058
      },
      {
        "lat": 37.496922,
        "lng": 130.877518
      }
    ],
    "color": "#3a6710",
    "start_name": "등산로쉼터",
    "length_meter": 420.3,
    "time_minute": 7
  },
  {
    "path_id": 2,
    "path": [
      {
        "lat": 37.496922,
        "lng": 130.877518
      },
      {
        "lat": 37.493984,
        "lng": 130.879654
      }
    ],
    "color": "#404bb4",
    "start_name": "갈림길",
    "length_meter": 377.1,
    "time_minute": 6
  },
  {
    "path_id": 3,
    "path": [
      {
        "lat": 37.493984,
        "lng": 130.879654
      },
      {
        "lat": 37.494694,
        "lng": 130.874176
      }
    ],
    "color": "#32176a",
    "start_name": "팔각정쉼터",
    "length_meter": 489.7,
    "time_minute": 8
  },
  {
    "path_id": 4,
    "path": [
      {
        "lat": 37.494694,
        "lng": 130.874176
      },
      {
        "lat": 37.496567,
        "lng": 130.870193
      }
    ],
    "color": "#3b465a",
    "start_name": "갈림길 / 데크계단",
    "length_meter": 411.4,
    "time_minute": 6
  },
  {
    "path_id": 5,
    "path": [
      {
        "lat": 37.496567,
        "lng": 130.870193
      },
      {
        "lat": 37.497959,
        "lng": 130.867233
      }
    ],
    "color": "#7fa7c4",
    "start_name": "구조지점",
    "length_meter": 303.6,
    "time_minute": 5
  },
  {
    "path_id": 6,
    "path": [
      {
        "lat": 37.497959,
        "lng": 130.867233
      },
      {
        "lat": 37.498058,
        "lng": 130.867004
      }
    ],
    "color": "#134d12",
    "start_name": "갈림길",
    "length_meter": 23.0,
    "time_minute": 0
  },
  {
    "path_id": 7,
    "path": [
      {
        "lat": 37.498058,
        "lng": 130.867004
      },
      {
        "lat": 37.49762,
        "lng": 130.867126
      }
    ],
    "color": "#79c236",
    "start_name": "성인봉 / 갈림길",
    "length_meter": 50.0,
    "time_minute": 0
  },
  {
    "path_id": 8,
    "path": [
      {
        "lat": 37.49762,
        "lng": 130.867126
      },
      {
        "lat": 37.496948,
        "lng": 130.864639
      }
    ],
    "color": "#63c19e",
    "start_name": "데크계단길",
    "length_meter": 231.8,
    "time_minute": 3
  },
  {
    "path_id": 9,
    "path": [
      {
        "lat": 37.496948,
        "lng": 130.864639
      },
      {
        "lat": 37.500347,
        "lng": 130.859558
      }
    ],
    "color": "#c591a0",
    "start_name": "갈림길",
    "length_meter": 586.3,
    "time_minute": 9
  },
  {
    "path_id": 10,
    "path": [
      {
        "lat": 37.500347,
        "lng": 130.859558
      },
      {
        "lat": 37.504166,
        "lng": 130.860275
      }
    ],
    "color": "#14533b",
    "start_name": "조망터",
    "length_meter": 429.3,
    "time_minute": 7
  },
  {
    "path_id": 11,
    "path": [
      {
        "lat": 37.504166,
        "lng": 130.860275
      },
      {
        "lat": 37.505688,
        "lng": 130.85968
      }
    ],
    "color": "#a01b89",
    "start_name": "임도길",
    "length_meter": 177.2,
    "time_minute": 2
  },
  {
    "path_id": 12,
    "path": [
      {
        "lat": 37.505688,
        "lng": 130.85968
      },
      {
        "lat": 37.50573,
        "lng": 130.859772
      }
    ],
    "color": "#266b55",
    "start_name": "천연기념물 원시림",
    "length_meter": 9.4,
    "time_minute": 0
  },
  {
    "path_id": 13,
    "path": [
      {
        "lat": 37.50573,
        "lng": 130.859772
      },
      {
        "lat": 37.50882,
        "lng": 130.859451
      }
    ],
    "color": "#9b41b3",
    "start_name": "약수터",
    "length_meter": 344.8,
    "time_minute": 5
  },
  {
    "path_id": 14,
    "path": [
      {
        "lat": 37.50882,
        "lng": 130.859451
      },
      {
        "lat": 37.518337,
        "lng": 130.871353
      }
    ],
    "color": "#866c89",
    "start_name": "갈림길",
    "length_meter": 1490.6,
    "time_minute": 24
  },
  {
    "path_id": 15,
    "path": [
      {
        "lat": 37.518337,
        "lng": 130.871353
      },
      {
        "lat": 37.524532,
        "lng": 130.871521
      }
    ],
    "color": "#549c45",
    "start_name": "버스정류장 / 갈림길",
    "length_meter": 689.0,
    "time_minute": 11
  },
  {
    "path_id": 16,
    "path": [
      {
        "lat": 37.524532,
        "lng": 130.871521
      },
      {
        "lat": 37.525219,
        "lng": 130.870789
      }
    ],
    "color": "#0bbca9",
    "start_name": "웨이포인트 43",
    "length_meter": 100.0,
    "time_minute": 1
  },
  {
    "path_id": 17,
    "path": [
      {
        "lat": 37.525219,
        "lng": 130.870789
      },
      {
        "lat": 37.529263,
        "lng": 130.873047
      }
    ],
    "color": "#0dc2b2",
    "start_name": "나리분지 전망대",
    "length_meter": 491.8,
    "time_minute": 8
  }
]