[
  {
    "path_id": 0,
    "path": [
      {
        "lat": 38.036102,
        "lng": 128.472168
      },
      {
        "lat": 38.035873,
        "lng": 128.472916
      }
    ],
    "color": "#2a97b3",
    "start_name": "사설유료주차장 / 매점",
    "length_meter": 80.5,
    "time_minute": 1
  },
  {
    "path_id": 1,
    "path": [
      {
        "lat": 38.035873,
        "lng": 128.472916
      },
      {
        "lat": 38.036304,
        "lng": 128.471588
      }
    ],
    "color": "#a61875",
    "start_name": "주차장 화장실",
    "length_meter": 125.8,
    "time_minute": 2
  },
  {
    "path_id": 2,
    "path": [
      {
        "lat": 38.036304,
        "lng": 128.471588
      },
      {
        "lat": 38.031631,
        "lng": 128.463196
      }
    ],
    "color": "#3a65a2",
    "start_name": "외부종자 유입 방지 에어건 / 입구 / 점봉산 생태관리센터 / 외부 종자 유입 방지 에어건",
    "length_meter": 917.8,
    "time_minute": 15
  },
  {
    "path_id": 3,
    "path": [
      {
        "lat": 38.031631,
        "lng": 128.463196
      },
      {
        "lat": 38.033512,
        "lng": 128.456528
      }
    ],
    "color": "#5134ae",
    "start_name": "폭포",
    "length_meter": 620.3,
    "time_minute": 10
  },
  {
    "path_id": 4,
    "path": [
      {
        "lat": 38.033512,
        "lng": 128.456528
      },
      {
        "lat": 38.035477,
        "lng": 128.45433
      }
    ],
    "color": "#bf8c60",
    "start_name": "갈림길",
    "length_meter": 291.2,
    "time_minute": 4
  },
  {
    "path_id": 5,
    "path": [
      {
        "lat": 38.035477,
        "lng": 128.45433
      },
      {
        "lat": 38.03846,
        "lng": 128.444672
      }
    ],
    "color": "#eaafbd",
    "start_name": "곰배령 끝집 등 / 사설 매점 화장실",
    "length_meter": 908.6,
    "time_minute": 15
  },
  {
    "path_id": 6,
    "path": [
      {
        "lat": 38.03846,
        "lng": 128.444672
      },
      {
        "lat": 38.027786,
        "lng": 128.433029
      }
    ],
    "color": "#a79a18",
    "start_name": "폭포",
    "length_meter": 1564.8,
    "time_minute": 26
  },
  {
    "path_id": 7,
    "path": [
      {
        "lat": 38.027786,
        "lng": 128.433029
      },
      {
        "lat": 38.027935,
        "lng": 128.432312
      }
    ],
    "color": "#1581ff",
    "start_name": "갈림길 / 곰배령 정상 조망점",
    "length_meter": 67.6,
    "time_minute": 1
  }
]