{
    "max_ele": 910.9,
    "track": [
        {
            "path_id": 1,
            "name": "갈림길",
            "lat": 36.728325,
            "lon": 127.99025,
            "ele": 405.0
        },
        {
            "path_id": 2,
            "name": "갈림길",
            "lat": 36.727371,
            "lon": 127.991585,
            "ele": 410.2
        },
        {
            "path_id": 3,
            "name": "간이쉼터",
            "lat": 36.72438,
            "lon": 127.993889,
            "ele": 475.5
        },
        {
            "path_id": 4,
            "name": "갈림길",
            "lat": 36.724339,
            "lon": 127.993965,
            "ele": 487.1
        },
        {
            "path_id": 5,
            "name": "해골바위",
            "lat": 36.724277,
            "lon": 127.994041,
            "ele": 493.2
        },
        {
            "path_id": 6,
            "name": "간이쉼터",
            "lat": 36.723392,
            "lon": 127.994225,
            "ele": 501.1
        },
        {
            "path_id": 7,
            "name": "산죽나무서식지",
            "lat": 36.720402,
            "lon": 128.005203,
            "ele": 865.6
        },
        {
            "path_id": 8,
            "name": "야생돼지",
            "lat": 36.725395,
            "lon": 128.007217,
            "ele": 899.8
        },
        {
            "path_id": 9,
            "name": "갈림길",
            "lat": 36.729496,
            "lon": 128.010864,
            "ele": 792.4
        },
        {
            "path_id": 10,
            "name": "갈림길",
            "lat": 36.730358,
            "lon": 128.015808,
            "ele": 844.8
        },
        {
            "path_id": 11,
            "name": "갈림길",
            "lat": 36.731815,
            "lon": 128.012543,
            "ele": 905.9
        },
        {
            "path_id": 12,
            "name": "시루봉 정상석",
            "lat": 36.732178,
            "lon": 128.010773,
            "ele": 910.9
        },
        {
            "path_id": 13,
            "name": "갈림길",
            "lat": 36.73093,
            "lon": 128.007355,
            "ele": 681.8
        },
        {
            "path_id": 14,
            "name": "시루봉쉼터",
            "lat": 36.734287,
            "lon": 127.992325,
            "ele": 333.1
        }
    ]
}