[
    {
        "name": "주차장화장실",
        "lat": 35.518791,
        "lon": 128.551163
    },
    {
        "name": "쉼터,체육시설",
        "lat": 35.518745,
        "lon": 128.551178
    },
    {
        "name": "옥천매표소 주차장",
        "lat": 35.518684,
        "lon": 128.550964
    },
    {
        "name": "창녕군관광안내소",
        "lat": 35.51894,
        "lon": 128.550995
    },
    {
        "name": "버스정류장",
        "lat": 35.518948,
        "lon": 128.550995
    },
    {
        "name": "(들머리, 날머리)옥천매표소 주차장",
        "lat": 35.51923,
        "lon": 128.551147
    },
    {
        "name": "인공폭포",
        "lat": 35.521751,
        "lon": 128.549911
    },
    {
        "name": "주차장",
        "lat": 35.522892,
        "lon": 128.548843
    },
    {
        "name": "등산안내도",
        "lat": 35.523426,
        "lon": 128.54863
    },
    {
        "name": "화장실",
        "lat": 35.523552,
        "lon": 128.548538
    },
    {
        "name": "화장실",
        "lat": 35.5238,
        "lon": 128.548401
    },
    {
        "name": "화왕산 스토리길 안내도",
        "lat": 35.523964,
        "lon": 128.54834
    },
    {
        "name": "화장실",
        "lat": 35.525742,
        "lon": 128.548141
    },
    {
        "name": "옥천계곡",
        "lat": 35.526279,
        "lon": 128.547897
    },
    {
        "name": "큰바위얼굴",
        "lat": 35.532917,
        "lon": 128.545639
    },
    {
        "name": "등산로는 있으나 송이 채취 기간은 출입금지",
        "lat": 35.539818,
        "lon": 128.545197
    },
    {
        "name": "등산로 출입금지",
        "lat": 35.539818,
        "lon": 128.545197
    },
    {
        "name": "갈림길",
        "lat": 35.543369,
        "lon": 128.547684
    },
    {
        "name": "일야봉산장",
        "lat": 35.544964,
        "lon": 128.548218
    },
    {
        "name": "일야봉산장 주차장",
        "lat": 35.545326,
        "lon": 128.548309
    },
    {
        "name": "갈림길",
        "lat": 35.545441,
        "lon": 128.548309
    },
    {
        "name": "허준세트장",
        "lat": 35.54689,
        "lon": 128.54335
    },
    {
        "name": "조망점",
        "lat": 35.546875,
        "lon": 128.541916
    },
    {
        "name": "화왕산성 동문",
        "lat": 35.545891,
        "lon": 128.537933
    },
    {
        "name": "용지",
        "lat": 35.545052,
        "lon": 128.535675
    },
    {
        "name": "화장실",
        "lat": 35.546864,
        "lon": 128.542252
    },
    {
        "name": "진달래 군락지",
        "lat": 35.54538,
        "lon": 128.543518
    },
    {
        "name": "쉼터",
        "lat": 35.54866,
        "lon": 128.547745
    },
    {
        "name": "쉼터",
        "lat": 35.548859,
        "lon": 128.549515
    },
    {
        "name": "갈림길",
        "lat": 35.548134,
        "lon": 128.550827
    },
    {
        "name": "쉼터",
        "lat": 35.547649,
        "lon": 128.550934
    },
    {
        "name": "갈림길",
        "lat": 35.539822,
        "lon": 128.553833
    },
    {
        "name": "관룡산 정상",
        "lat": 35.5397,
        "lon": 128.553513
    },
    {
        "name": "길없음",
        "lat": 35.537498,
        "lon": 128.552612
    },
    {
        "name": "용선대",
        "lat": 35.531593,
        "lon": 128.549347
    },
    {
        "name": "용선대",
        "lat": 35.531849,
        "lon": 128.549622
    },
    {
        "name": "관룡사",
        "lat": 35.531704,
        "lon": 128.553238
    },
    {
        "name": "관룡사 약수터",
        "lat": 35.531872,
        "lon": 128.553543
    },
    {
        "name": "화장실",
        "lat": 35.531757,
        "lon": 128.553925
    },
    {
        "name": "갈림길",
        "lat": 35.531776,
        "lon": 128.554062
    },
    {
        "name": "관룡사 주차장2",
        "lat": 35.531471,
        "lon": 128.554016
    },
    {
        "name": "관룡사 주차장1",
        "lat": 35.53117,
        "lon": 128.553726
    },
    {
        "name": "주차장",
        "lat": 35.528248,
        "lon": 128.55162
    },
    {
        "name": "갈림길",
        "lat": 35.523396,
        "lon": 128.54863
    },
    {
        "name": "쉼터",
        "lat": 35.520481,
        "lon": 128.5504
    },
    {
        "name": "돌담집",
        "lat": 35.519669,
        "lon": 128.550781
    }
]