[
  {
    "path_id": 0,
    "path": [
      {
        "lat": 36.728325,
        "lng": 127.99025
      },
      {
        "lat": 36.72438,
        "lng": 127.993889
      }
    ],
    "color": "#9ee764",
    "start_name": "갈림길",
    "length_meter": 545.5,
    "time_minute": 9
  },
  {
    "path_id": 1,
    "path": [
      {
        "lat": 36.72438,
        "lng": 127.993889
      },
      {
        "lat": 36.723392,
        "lng": 127.994225
      }
    ],
    "color": "#71e1b4",
    "start_name": "간이쉼터 / 갈림길 / 해골바위",
    "length_meter": 117.6,
    "time_minute": 1
  },
  {
    "path_id": 2,
    "path": [
      {
        "lat": 36.723392,
        "lng": 127.994225
      },
      {
        "lat": 36.720402,
        "lng": 128.005203
      }
    ],
    "color": "#ca7e20",
    "start_name": "간이쉼터",
    "length_meter": 1033.4,
    "time_minute": 17
  },
  {
    "path_id": 3,
    "path": [
      {
        "lat": 36.720402,
        "lng": 128.005203
      },
      {
        "lat": 36.725395,
        "lng": 128.007217
      }
    ],
    "color": "#18d044",
    "start_name": "산죽나무서식지",
    "length_meter": 583.5,
    "time_minute": 9
  },
  {
    "path_id": 4,
    "path": [
      {
        "lat": 36.725395,
        "lng": 128.007217
      },
      {
        "lat": 36.729496,
        "lng": 128.010864
      }
    ],
    "color": "#00bae6",
    "start_name": "야생돼지",
    "length_meter": 560.0,
    "time_minute": 9
  },
  {
    "path_id": 5,
    "path": [
      {
        "lat": 36.729496,
        "lng": 128.010864
      },
      {
        "lat": 36.732178,
        "lng": 128.010773
      }
    ],
    "color": "#db73b7",
    "start_name": "갈림길",
    "length_meter": 298.3,
    "time_minute": 4
  },
  {
    "path_id": 6,
    "path": [
      {
        "lat": 36.732178,
        "lng": 128.010773
      },
      {
        "lat": 36.73093,
        "lng": 128.007355
      }
    ],
    "color": "#453f02",
    "start_name": "시루봉 정상석",
    "length_meter": 334.7,
    "time_minute": 5
  },
  {
    "path_id": 7,
    "path": [
      {
        "lat": 36.73093,
        "lng": 128.007355
      },
      {
        "lat": 36.734287,
        "lng": 127.992325
      }
    ],
    "color": "#8bc44d",
    "start_name": "갈림길",
    "length_meter": 1390.4,
    "time_minute": 23
  }
]