[
  {
    "path_id": 0,
    "path": [
      {
        "lat": 36.789791,
        "lng": 128.066681
      },
      {
        "lat": 36.791164,
        "lng": 128.067871
      }
    ],
    "color": "#9f25df",
    "start_name": "참나무 병해충 예방작업 / 등로상태",
    "length_meter": 190.6,
    "time_minute": 3
  },
  {
    "path_id": 1,
    "path": [
      {
        "lat": 36.791164,
        "lng": 128.067871
      },
      {
        "lat": 36.792301,
        "lng": 128.068314
      }
    ],
    "color": "#1a0fa0",
    "start_name": "짧은 바위구간 / 쓰러진 나무",
    "length_meter": 133.1,
    "time_minute": 2
  },
  {
    "path_id": 2,
    "path": [
      {
        "lat": 36.792301,
        "lng": 128.068314
      },
      {
        "lat": 36.793476,
        "lng": 128.071991
      }
    ],
    "color": "#03b61d",
    "start_name": "소나무 균락지 / 국가지점번호",
    "length_meter": 353.1,
    "time_minute": 5
  },
  {
    "path_id": 3,
    "path": [
      {
        "lat": 36.793476,
        "lng": 128.071991
      },
      {
        "lat": 36.794167,
        "lng": 128.073883
      }
    ],
    "color": "#ef24b2",
    "start_name": "멧돼지 흔적 / 부봉6봉 조망바위",
    "length_meter": 185.2,
    "time_minute": 3
  },
  {
    "path_id": 4,
    "path": [
      {
        "lat": 36.794167,
        "lng": 128.073883
      },
      {
        "lat": 36.794537,
        "lng": 128.074585
      }
    ],
    "color": "#9b3d79",
    "start_name": "부봉표지판",
    "length_meter": 74.8,
    "time_minute": 1
  },
  {
    "path_id": 5,
    "path": [
      {
        "lat": 36.794537,
        "lng": 128.074585
      },
      {
        "lat": 36.795494,
        "lng": 128.075424
      }
    ],
    "color": "#f1d74e",
    "start_name": "갈림길 / 국가지점번호 / 바위와 나무",
    "length_meter": 138.9,
    "time_minute": 2
  },
  {
    "path_id": 6,
    "path": [
      {
        "lat": 36.795494,
        "lng": 128.075424
      },
      {
        "lat": 36.796753,
        "lng": 128.075363
      }
    ],
    "color": "#e26e28",
    "start_name": "바위구간",
    "length_meter": 140.1,
    "time_minute": 2
  },
  {
    "path_id": 7,
    "path": [
      {
        "lat": 36.796753,
        "lng": 128.075363
      },
      {
        "lat": 36.797543,
        "lng": 128.075287
      }
    ],
    "color": "#061280",
    "start_name": "받쥴구간 / 바위옆통과",
    "length_meter": 88.2,
    "time_minute": 1
  },
  {
    "path_id": 8,
    "path": [
      {
        "lat": 36.797543,
        "lng": 128.075287
      },
      {
        "lat": 36.798443,
        "lng": 128.075272
      }
    ],
    "color": "#1a68e8",
    "start_name": "추락방지받줄 / 암릉과 받줄",
    "length_meter": 100.6,
    "time_minute": 1
  },
  {
    "path_id": 9,
    "path": [
      {
        "lat": 36.798443,
        "lng": 128.075272
      },
      {
        "lat": 36.798473,
        "lng": 128.080826
      }
    ],
    "color": "#372ce7",
    "start_name": "바위길",
    "length_meter": 494.5,
    "time_minute": 8
  },
  {
    "path_id": 10,
    "path": [
      {
        "lat": 36.798473,
        "lng": 128.080826
      },
      {
        "lat": 36.79916,
        "lng": 128.082245
      }
    ],
    "color": "#e46182",
    "start_name": "부봉 조령산 조망바위",
    "length_meter": 147.6,
    "time_minute": 2
  },
  {
    "path_id": 11,
    "path": [
      {
        "lat": 36.79916,
        "lng": 128.082245
      },
      {
        "lat": 36.800392,
        "lng": 128.085052
      }
    ],
    "color": "#e44c6d",
    "start_name": "포장공터 헬기장?",
    "length_meter": 285.0,
    "time_minute": 4
  },
  {
    "path_id": 12,
    "path": [
      {
        "lat": 36.800392,
        "lng": 128.085052
      },
      {
        "lat": 36.801334,
        "lng": 128.085388
      }
    ],
    "color": "#33f4cf",
    "start_name": "등로상태",
    "length_meter": 108.9,
    "time_minute": 1
  },
  {
    "path_id": 13,
    "path": [
      {
        "lat": 36.801334,
        "lng": 128.085388
      },
      {
        "lat": 36.802063,
        "lng": 128.085144
      }
    ],
    "color": "#61cc9c",
    "start_name": "산성 우측능선 산성벽",
    "length_meter": 83.9,
    "time_minute": 1
  },
  {
    "path_id": 14,
    "path": [
      {
        "lat": 36.802063,
        "lng": 128.085144
      },
      {
        "lat": 36.80283,
        "lng": 128.084808
      }
    ],
    "color": "#84c7ba",
    "start_name": "나무",
    "length_meter": 90.4,
    "time_minute": 1
  },
  {
    "path_id": 15,
    "path": [
      {
        "lat": 36.80283,
        "lng": 128.084808
      },
      {
        "lat": 36.80357,
        "lng": 128.084625
      }
    ],
    "color": "#df5d8b",
    "start_name": "이정표",
    "length_meter": 83.9,
    "time_minute": 1
  },
  {
    "path_id": 16,
    "path": [
      {
        "lat": 36.80357,
        "lng": 128.084625
      },
      {
        "lat": 36.804287,
        "lng": 128.083817
      }
    ],
    "color": "#562067",
    "start_name": "갈림길 / 소나뮤과 나무숲",
    "length_meter": 107.8,
    "time_minute": 1
  },
  {
    "path_id": 17,
    "path": [
      {
        "lat": 36.804287,
        "lng": 128.083817
      },
      {
        "lat": 36.804466,
        "lng": 128.082932
      }
    ],
    "color": "#0efcd9",
    "start_name": "계곡따라",
    "length_meter": 81.3,
    "time_minute": 1
  },
  {
    "path_id": 18,
    "path": [
      {
        "lat": 36.804466,
        "lng": 128.082932
      },
      {
        "lat": 36.805111,
        "lng": 128.081406
      }
    ],
    "color": "#35faeb",
    "start_name": "등로상태 / 등로 정상됨",
    "length_meter": 156.4,
    "time_minute": 2
  },
  {
    "path_id": 19,
    "path": [
      {
        "lat": 36.805111,
        "lng": 128.081406
      },
      {
        "lat": 36.806423,
        "lng": 128.072632
      }
    ],
    "color": "#8f9b0f",
    "start_name": "뮬건넘",
    "length_meter": 794.7,
    "time_minute": 13
  },
  {
    "path_id": 20,
    "path": [
      {
        "lat": 36.806423,
        "lng": 128.072632
      },
      {
        "lat": 36.806587,
        "lng": 128.070984
      }
    ],
    "color": "#0f7637",
    "start_name": "돌길",
    "length_meter": 147.8,
    "time_minute": 2
  },
  {
    "path_id": 21,
    "path": [
      {
        "lat": 36.806587,
        "lng": 128.070984
      },
      {
        "lat": 36.806763,
        "lng": 128.070145
      }
    ],
    "color": "#d4bb03",
    "start_name": "물건넘",
    "length_meter": 77.2,
    "time_minute": 1
  },
  {
    "path_id": 22,
    "path": [
      {
        "lat": 36.806763,
        "lng": 128.070145
      },
      {
        "lat": 36.806808,
        "lng": 128.068466
      }
    ],
    "color": "#53099f",
    "start_name": "길넓어짐",
    "length_meter": 149.6,
    "time_minute": 2
  },
  {
    "path_id": 23,
    "path": [
      {
        "lat": 36.806808,
        "lng": 128.068466
      },
      {
        "lat": 36.80732,
        "lng": 128.066315
      }
    ],
    "color": "#60d007",
    "start_name": "갈림길",
    "length_meter": 199.8,
    "time_minute": 3
  },
  {
    "path_id": 24,
    "path": [
      {
        "lat": 36.80732,
        "lng": 128.066315
      },
      {
        "lat": 36.806713,
        "lng": 128.066254
      }
    ],
    "color": "#9c4d51",
    "start_name": "이정표 / 동화원 휴게소 / 동화원화장실",
    "length_meter": 83.2,
    "time_minute": 1
  },
  {
    "path_id": 25,
    "path": [
      {
        "lat": 36.806713,
        "lng": 128.066254
      },
      {
        "lat": 36.774967,
        "lng": 128.068405
      }
    ],
    "color": "#d34901",
    "start_name": "부봉등산안내도 / 문경새재길",
    "length_meter": 3539.7,
    "time_minute": 58
  }
]