[
    {
        "path_id": 1,
        "name": "산과 구름아래",
        "lat": 35.540588,
        "lon": 128.509674
    },
    {
        "path_id": 2,
        "name": "지웅산장",
        "lat": 35.5424,
        "lon": 128.518784
    },
    {
        "path_id": 4,
        "name": "갈림길",
        "lat": 35.544994,
        "lon": 128.536606
    },
    {
        "path_id": 5,
        "name": "갈림길",
        "lat": 35.541828,
        "lon": 128.534988
    },
    {
        "path_id": 6,
        "name": "배봉 정상",
        "lat": 35.541821,
        "lon": 128.534943
    },
    {
        "path_id": 8,
        "name": "갈림길",
        "lat": 35.541451,
        "lon": 128.534409
    },
    {
        "path_id": 9,
        "name": "갈림길",
        "lat": 35.54076,
        "lon": 128.533875
    },
    {
        "path_id": 12,
        "name": "기암괴석",
        "lat": 35.539856,
        "lon": 128.531418
    },
    {
        "path_id": 13,
        "name": "돌고래바위",
        "lat": 35.539963,
        "lon": 128.530899
    },
    {
        "path_id": 16,
        "name": "갈림길",
        "lat": 35.5425,
        "lon": 128.52565
    },
    {
        "path_id": 18,
        "name": "갈림길",
        "lat": 35.542255,
        "lon": 128.523895
    },
    {
        "path_id": 19,
        "name": "체육공원겸 쉼터",
        "lat": 35.542408,
        "lon": 128.523621
    },
    {
        "path_id": 21,
        "name": "약수터",
        "lat": 35.542236,
        "lon": 128.52121
    }
]