[
  {
    "path_id": 0,
    "path": [
      {
        "lat": 37.262501,
        "lng": 128.596848
      },
      {
        "lat": 37.262924,
        "lng": 128.5952
      }
    ],
    "color": "#fe729d",
    "start_name": "나리소 전망대 입구",
    "length_meter": 153.2,
    "time_minute": 2
  },
  {
    "path_id": 1,
    "path": [
      {
        "lat": 37.262924,
        "lng": 128.5952
      },
      {
        "lat": 37.263485,
        "lng": 128.594803
      }
    ],
    "color": "#90f819",
    "start_name": "낭떠러지",
    "length_meter": 71.6,
    "time_minute": 1
  },
  {
    "path_id": 2,
    "path": [
      {
        "lat": 37.263485,
        "lng": 128.594803
      },
      {
        "lat": 37.264374,
        "lng": 128.598755
      }
    ],
    "color": "#cb9b48",
    "start_name": "전망대 조망 / 전망대",
    "length_meter": 369.9,
    "time_minute": 6
  },
  {
    "path_id": 3,
    "path": [
      {
        "lat": 37.264374,
        "lng": 128.598755
      },
      {
        "lat": 37.267586,
        "lng": 128.601044
      }
    ],
    "color": "#f13df9",
    "start_name": "나리소전망대",
    "length_meter": 410.6,
    "time_minute": 6
  },
  {
    "path_id": 4,
    "path": [
      {
        "lat": 37.267586,
        "lng": 128.601044
      },
      {
        "lat": 37.27549,
        "lng": 128.612137
      }
    ],
    "color": "#ae7824",
    "start_name": "의자",
    "length_meter": 1317.5,
    "time_minute": 21
  },
  {
    "path_id": 5,
    "path": [
      {
        "lat": 37.27549,
        "lng": 128.612137
      },
      {
        "lat": 37.275219,
        "lng": 128.607803
      }
    ],
    "color": "#9deb14",
    "start_name": "점재교 다리",
    "length_meter": 384.7,
    "time_minute": 6
  },
  {
    "path_id": 6,
    "path": [
      {
        "lat": 37.275219,
        "lng": 128.607803
      },
      {
        "lat": 37.272846,
        "lng": 128.59874
      }
    ],
    "color": "#b002a3",
    "start_name": "화장실 / 갈림길",
    "length_meter": 857.5,
    "time_minute": 14
  },
  {
    "path_id": 7,
    "path": [
      {
        "lat": 37.272846,
        "lng": 128.59874
      },
      {
        "lat": 37.272194,
        "lng": 128.599213
      }
    ],
    "color": "#b29824",
    "start_name": "출입통제",
    "length_meter": 83.7,
    "time_minute": 1
  },
  {
    "path_id": 8,
    "path": [
      {
        "lat": 37.272194,
        "lng": 128.599213
      },
      {
        "lat": 37.273064,
        "lng": 128.598862
      }
    ],
    "color": "#adddea",
    "start_name": "폐쇠전망대",
    "length_meter": 101.6,
    "time_minute": 1
  },
  {
    "path_id": 9,
    "path": [
      {
        "lat": 37.273064,
        "lng": 128.598862
      },
      {
        "lat": 37.274235,
        "lng": 128.599152
      }
    ],
    "color": "#da761a",
    "start_name": "추락 및 낙석",
    "length_meter": 132.7,
    "time_minute": 2
  },
  {
    "path_id": 10,
    "path": [
      {
        "lat": 37.274235,
        "lng": 128.599152
      },
      {
        "lat": 37.274734,
        "lng": 128.59967
      }
    ],
    "color": "#4803b9",
    "start_name": "조망 / 추락 및 낙석",
    "length_meter": 79.0,
    "time_minute": 1
  },
  {
    "path_id": 11,
    "path": [
      {
        "lat": 37.274734,
        "lng": 128.59967
      },
      {
        "lat": 37.280006,
        "lng": 128.596069
      }
    ],
    "color": "#049700",
    "start_name": "경치",
    "length_meter": 667.2,
    "time_minute": 11
  },
  {
    "path_id": 12,
    "path": [
      {
        "lat": 37.280006,
        "lng": 128.596069
      },
      {
        "lat": 37.279682,
        "lng": 128.594162
      }
    ],
    "color": "#f376b2",
    "start_name": "백운산  정상",
    "length_meter": 172.5,
    "time_minute": 2
  },
  {
    "path_id": 13,
    "path": [
      {
        "lat": 37.279682,
        "lng": 128.594162
      },
      {
        "lat": 37.278999,
        "lng": 128.592941
      }
    ],
    "color": "#d91b9b",
    "start_name": "갈림길",
    "length_meter": 132.1,
    "time_minute": 2
  },
  {
    "path_id": 14,
    "path": [
      {
        "lat": 37.278999,
        "lng": 128.592941
      },
      {
        "lat": 37.278679,
        "lng": 128.592438
      }
    ],
    "color": "#d3273e",
    "start_name": "추락위험 / 멧돼지흔적",
    "length_meter": 61.7,
    "time_minute": 1
  },
  {
    "path_id": 15,
    "path": [
      {
        "lat": 37.278679,
        "lng": 128.592438
      },
      {
        "lat": 37.271477,
        "lng": 128.583008
      }
    ],
    "color": "#b2ff45",
    "start_name": "추락위험",
    "length_meter": 1156.5,
    "time_minute": 19
  },
  {
    "path_id": 16,
    "path": [
      {
        "lat": 37.271477,
        "lng": 128.583008
      },
      {
        "lat": 37.270908,
        "lng": 128.582642
      }
    ],
    "color": "#7670c4",
    "start_name": "추모명판 돌탑",
    "length_meter": 71.1,
    "time_minute": 1
  },
  {
    "path_id": 17,
    "path": [
      {
        "lat": 37.270908,
        "lng": 128.582642
      },
      {
        "lat": 37.269855,
        "lng": 128.582275
      }
    ],
    "color": "#3853bb",
    "start_name": "추락위험",
    "length_meter": 121.5,
    "time_minute": 2
  },
  {
    "path_id": 18,
    "path": [
      {
        "lat": 37.269855,
        "lng": 128.582275
      },
      {
        "lat": 37.269112,
        "lng": 128.582123
      }
    ],
    "color": "#ddc2de",
    "start_name": "갈림길",
    "length_meter": 83.7,
    "time_minute": 1
  },
  {
    "path_id": 19,
    "path": [
      {
        "lat": 37.269112,
        "lng": 128.582123
      },
      {
        "lat": 37.267551,
        "lng": 128.581512
      }
    ],
    "color": "#38b438",
    "start_name": "추락위험",
    "length_meter": 181.8,
    "time_minute": 3
  },
  {
    "path_id": 20,
    "path": [
      {
        "lat": 37.267551,
        "lng": 128.581512
      },
      {
        "lat": 37.266834,
        "lng": 128.580307
      }
    ],
    "color": "#5edde6",
    "start_name": "갈림길",
    "length_meter": 133.1,
    "time_minute": 2
  },
  {
    "path_id": 21,
    "path": [
      {
        "lat": 37.266834,
        "lng": 128.580307
      },
      {
        "lat": 37.266155,
        "lng": 128.582352
      }
    ],
    "color": "#70c59d",
    "start_name": "칠족령전망대 / 의자2개 / 의자 2개",
    "length_meter": 206.5,
    "time_minute": 3
  },
  {
    "path_id": 22,
    "path": [
      {
        "lat": 37.266155,
        "lng": 128.582352
      },
      {
        "lat": 37.259232,
        "lng": 128.581451
      }
    ],
    "color": "#e96e0e",
    "start_name": "갈림길 / 추락 및 낙석위험",
    "length_meter": 782.7,
    "time_minute": 13
  },
  {
    "path_id": 23,
    "path": [
      {
        "lat": 37.259232,
        "lng": 128.581451
      },
      {
        "lat": 37.258526,
        "lng": 128.583832
      }
    ],
    "color": "#09f26e",
    "start_name": "석벽",
    "length_meter": 224.9,
    "time_minute": 3
  },
  {
    "path_id": 24,
    "path": [
      {
        "lat": 37.258526,
        "lng": 128.583832
      },
      {
        "lat": 37.259922,
        "lng": 128.586639
      }
    ],
    "color": "#7bd2ee",
    "start_name": "정희농박",
    "length_meter": 292.9,
    "time_minute": 4
  }
]