{
    "max_ele": 1064.649,
    "min_ele": 256.213,
    "track": [
        {
            "path_id": 1,
            "name": "문경관광호텔 들머리",
            "lat": 36.761253,
            "lon": 128.077713,
            "ele": 256.213
        },
        {
            "path_id": 2,
            "name": "소나무지대",
            "lat": 36.761608,
            "lon": 128.078369,
            "ele": 283.621
        },
        {
            "path_id": 3,
            "name": "등로상태",
            "lat": 36.762238,
            "lon": 128.079788,
            "ele": 321.836
        },
        {
            "path_id": 4,
            "name": "갈림길",
            "lat": 36.763241,
            "lon": 128.083801,
            "ele": 461.996
        },
        {
            "path_id": 5,
            "name": "참나무 서식지",
            "lat": 36.763649,
            "lon": 128.083969,
            "ele": 477.19
        },
        {
            "path_id": 6,
            "name": "소나무 바위지대",
            "lat": 36.766006,
            "lon": 128.089874,
            "ele": 698.638
        },
        {
            "path_id": 7,
            "name": "멧돼지 흔적",
            "lat": 36.766891,
            "lon": 128.091034,
            "ele": 750.852
        },
        {
            "path_id": 8,
            "name": "짧은 너덜",
            "lat": 36.766602,
            "lon": 128.093872,
            "ele": 880.554
        },
        {
            "path_id": 9,
            "name": "너덜길",
            "lat": 36.766399,
            "lon": 128.09494,
            "ele": 935.035
        },
        {
            "path_id": 10,
            "name": "바위 넘어감",
            "lat": 36.766418,
            "lon": 128.095154,
            "ele": 956.35
        },
        {
            "path_id": 11,
            "name": "틀목고개 갈림길",
            "lat": 36.768196,
            "lon": 128.096268,
            "ele": 995.963
        },
        {
            "path_id": 12,
            "name": "문경 조망바위",
            "lat": 36.768002,
            "lon": 128.097412,
            "ele": 1038.175
        },
        {
            "path_id": 13,
            "name": "주흘관봉",
            "lat": 36.768074,
            "lon": 128.097977,
            "ele": 1064.649
        },
        {
            "path_id": 14,
            "name": "주흘산 조망처",
            "lat": 36.768513,
            "lon": 128.09816,
            "ele": 1056.89
        },
        {
            "path_id": 15,
            "name": "부봉조망처",
            "lat": 36.773773,
            "lon": 128.100296,
            "ele": 1011.425
        },
        {
            "path_id": 16,
            "name": "낡은밧줄",
            "lat": 36.774113,
            "lon": 128.100891,
            "ele": 1019.813
        },
        {
            "path_id": 17,
            "name": "위험주의 표지판",
            "lat": 36.776123,
            "lon": 128.10173,
            "ele": 1021.163
        },
        {
            "path_id": 18,
            "name": "혜국사 나가는길",
            "lat": 36.774963,
            "lon": 128.084045,
            "ele": 560.676
        },
        {
            "path_id": 19,
            "name": "불상탑",
            "lat": 36.774708,
            "lon": 128.083603,
            "ele": 552.113
        },
        {
            "path_id": 20,
            "name": "행사임시주차장",
            "lat": 36.761215,
            "lon": 128.077667,
            "ele": 256.456
        }
    ]
}