[
  {
    "path_id": 0,
    "path": [
      {
        "lat": 37.545898,
        "lng": 127.463379
      },
      {
        "lat": 37.555901,
        "lng": 127.461044
      }
    ],
    "color": "#533ece",
    "start_point_name": "한화콘도삼거리",
    "length": 1131,
    "time": "18"
  },
  {
    "path_id": 1,
    "path": [
      {
        "lat": 37.555901,
        "lng": 127.461044
      },
      {
        "lat": 37.558403,
        "lng": 127.462601
      }
    ],
    "color": "#49dfd0",
    "start_point_name": "동막골",
    "length": 310,
    "time": "5"
  },
  {
    "path_id": 2,
    "path": [
      {
        "lat": 37.558403,
        "lng": 127.462601
      },
      {
        "lat": 37.558701,
        "lng": 127.462906
      }
    ],
    "color": "#987441",
    "start_point_name": "패러글라이딩파크",
    "length": 42,
    "time": "0"
  },
  {
    "path_id": 3,
    "path": [
      {
        "lat": 37.558701,
        "lng": 127.462906
      },
      {
        "lat": 37.558929,
        "lng": 127.463402
      }
    ],
    "color": "#fc7cea",
    "start_point_name": "패러글라이딩",
    "length": 50,
    "time": "0"
  },
  {
    "path_id": 4,
    "path": [
      {
        "lat": 37.558929,
        "lng": 127.463402
      },
      {
        "lat": 37.559887,
        "lng": 127.467728
      }
    ],
    "color": "#edbd7a",
    "start_point_name": "갈림길",
    "length": 395,
    "time": "6"
  },
  {
    "path_id": 5,
    "path": [
      {
        "lat": 37.559887,
        "lng": 127.467728
      },
      {
        "lat": 37.561031,
        "lng": 127.469078
      }
    ],
    "color": "#7d276e",
    "start_point_name": "갈림길",
    "length": 174,
    "time": "2"
  },
  {
    "path_id": 6,
    "path": [
      {
        "lat": 37.561031,
        "lng": 127.469078
      },
      {
        "lat": 37.561672,
        "lng": 127.469559
      }
    ],
    "color": "#f1c49c",
    "start_point_name": "양평청산",
    "length": 82,
    "time": "1"
  },
  {
    "path_id": 7,
    "path": [
      {
        "lat": 37.561672,
        "lng": 127.469559
      },
      {
        "lat": 37.562313,
        "lng": 127.469368
      }
    ],
    "color": "#113cab",
    "start_point_name": "갈림길",
    "length": 73,
    "time": "1"
  },
  {
    "path_id": 8,
    "path": [
      {
        "lat": 37.562313,
        "lng": 127.469368
      },
      {
        "lat": 37.566925,
        "lng": 127.471542
      }
    ],
    "color": "#e18b86",
    "start_point_name": "유명산 임도",
    "length": 547,
    "time": "9"
  },
  {
    "path_id": 9,
    "path": [
      {
        "lat": 37.566925,
        "lng": 127.471542
      },
      {
        "lat": 37.56987,
        "lng": 127.480095
      }
    ],
    "color": "#43ae5f",
    "start_point_name": "벌채작업",
    "length": 821,
    "time": "13"
  },
  {
    "path_id": 10,
    "path": [
      {
        "lat": 37.56987,
        "lng": 127.480095
      },
      {
        "lat": 37.568363,
        "lng": 127.482071
      }
    ],
    "color": "#cd877e",
    "start_point_name": "등로",
    "length": 241,
    "time": "4"
  },
  {
    "path_id": 11,
    "path": [
      {
        "lat": 37.568363,
        "lng": 127.482071
      },
      {
        "lat": 37.571301,
        "lng": 127.484322
      }
    ],
    "color": "#e7afb3",
    "start_point_name": "패라글라이딩1",
    "length": 382,
    "time": "6"
  },
  {
    "path_id": 12,
    "path": [
      {
        "lat": 37.571301,
        "lng": 127.484322
      },
      {
        "lat": 37.576271,
        "lng": 127.4869
      }
    ],
    "color": "#69a75a",
    "start_point_name": "패러글라이딩2",
    "length": 597,
    "time": "9"
  },
  {
    "path_id": 13,
    "path": [
      {
        "lat": 37.576271,
        "lng": 127.4869
      },
      {
        "lat": 37.587017,
        "lng": 127.486725
      }
    ],
    "color": "#b79c75",
    "start_point_name": "사형제소나무",
    "length": 1195,
    "time": "19"
  },
  {
    "path_id": 14,
    "path": [
      {
        "lat": 37.587017,
        "lng": 127.486725
      },
      {
        "lat": 37.586918,
        "lng": 127.493332
      }
    ],
    "color": "#8f1a9d",
    "start_point_name": "갈림길",
    "length": 582,
    "time": "9"
  },
  {
    "path_id": 15,
    "path": [
      {
        "lat": 37.586918,
        "lng": 127.493332
      },
      {
        "lat": 37.589119,
        "lng": 127.490685
      }
    ],
    "color": "#14d1e3",
    "start_point_name": "갈림길",
    "length": 338,
    "time": "5"
  },
  {
    "path_id": 16,
    "path": [
      {
        "lat": 37.589119,
        "lng": 127.490685
      },
      {
        "lat": 37.589088,
        "lng": 127.490616
      }
    ],
    "color": "#b0bed9",
    "start_point_name": "혼인목",
    "length": 6,
    "time": "0"
  },
  {
    "path_id": 17,
    "path": [
      {
        "lat": 37.589088,
        "lng": 127.490616
      },
      {
        "lat": 37.590389,
        "lng": 127.490578
      }
    ],
    "color": "#6e96cf",
    "start_point_name": "갈림길",
    "length": 144,
    "time": "2"
  },
  {
    "path_id": 18,
    "path": [
      {
        "lat": 37.590389,
        "lng": 127.490578
      },
      {
        "lat": 37.591629,
        "lng": 127.489777
      }
    ],
    "color": "#23eed9",
    "start_point_name": "제2매표소입구",
    "length": 154,
    "time": "2"
  },
  {
    "path_id": 19,
    "path": [
      {
        "lat": 37.591629,
        "lng": 127.489777
      },
      {
        "lat": 37.594837,
        "lng": 127.490425
      }
    ],
    "color": "#59765d",
    "start_point_name": "2매표소",
    "length": 361,
    "time": "6"
  }
]