[
  {
    "path_id": 0,
    "path": [
      {
        "lat": 34.685318,
        "lng": 125.192993
      },
      {
        "lat": 34.685623,
        "lng": 125.193428
      }
    ],
    "color": "#c69e0b",
    "start_name": "웨이포인트 3 / 홍도원추리 / 포토존 / 홍도갤러리",
    "length_meter": 60.9,
    "time_minute": 1
  },
  {
    "path_id": 1,
    "path": [
      {
        "lat": 34.685623,
        "lng": 125.193428
      },
      {
        "lat": 34.686138,
        "lng": 125.193848
      }
    ],
    "color": "#686944",
    "start_name": "홍도에코트레일",
    "length_meter": 68.9,
    "time_minute": 1
  },
  {
    "path_id": 2,
    "path": [
      {
        "lat": 34.686138,
        "lng": 125.193848
      },
      {
        "lat": 34.686756,
        "lng": 125.194199
      }
    ],
    "color": "#96afc2",
    "start_name": "까마귀쪽나무 / 때죽나무 / 진달래",
    "length_meter": 83.9,
    "time_minute": 1
  },
  {
    "path_id": 3,
    "path": [
      {
        "lat": 34.686756,
        "lng": 125.194199
      },
      {
        "lat": 34.687328,
        "lng": 125.194534
      }
    ],
    "color": "#62593f",
    "start_name": "포토존",
    "length_meter": 70.6,
    "time_minute": 1
  },
  {
    "path_id": 4,
    "path": [
      {
        "lat": 34.687328,
        "lng": 125.194534
      },
      {
        "lat": 34.68766,
        "lng": 125.195076
      }
    ],
    "color": "#13884e",
    "start_name": "팥배나무 / 맣오줌때",
    "length_meter": 62.6,
    "time_minute": 1
  },
  {
    "path_id": 5,
    "path": [
      {
        "lat": 34.68766,
        "lng": 125.195076
      },
      {
        "lat": 34.688076,
        "lng": 125.195381
      }
    ],
    "color": "#9902bc",
    "start_name": "홍도 청어 미륵",
    "length_meter": 54.0,
    "time_minute": 0
  },
  {
    "path_id": 6,
    "path": [
      {
        "lat": 34.688076,
        "lng": 125.195381
      },
      {
        "lat": 34.688938,
        "lng": 125.197243
      }
    ],
    "color": "#144172",
    "start_name": "연리지",
    "length_meter": 195.4,
    "time_minute": 3
  },
  {
    "path_id": 7,
    "path": [
      {
        "lat": 34.688938,
        "lng": 125.197243
      },
      {
        "lat": 34.689987,
        "lng": 125.197006
      }
    ],
    "color": "#219d66",
    "start_name": "갈림길 / 후박나무 / 멀구슬나무",
    "length_meter": 121.8,
    "time_minute": 2
  },
  {
    "path_id": 8,
    "path": [
      {
        "lat": 34.689987,
        "lng": 125.197006
      },
      {
        "lat": 34.691284,
        "lng": 125.197563
      }
    ],
    "color": "#aa32c4",
    "start_name": "다정큼나무",
    "length_meter": 152.9,
    "time_minute": 2
  },
  {
    "path_id": 9,
    "path": [
      {
        "lat": 34.691284,
        "lng": 125.197563
      },
      {
        "lat": 34.692341,
        "lng": 125.199104
      }
    ],
    "color": "#411599",
    "start_name": "숨골재 / 사스레피나무",
    "length_meter": 184.0,
    "time_minute": 3
  },
  {
    "path_id": 10,
    "path": [
      {
        "lat": 34.692341,
        "lng": 125.199104
      },
      {
        "lat": 34.695492,
        "lng": 125.200813
      }
    ],
    "color": "#2c8d8b",
    "start_name": "왕고로쇠나무 / 사철나무",
    "length_meter": 384.7,
    "time_minute": 6
  },
  {
    "path_id": 11,
    "path": [
      {
        "lat": 34.695492,
        "lng": 125.200813
      },
      {
        "lat": 34.697041,
        "lng": 125.203148
      }
    ],
    "color": "#625e88",
    "start_name": "숯가마터",
    "length_meter": 274.3,
    "time_minute": 4
  },
  {
    "path_id": 12,
    "path": [
      {
        "lat": 34.697041,
        "lng": 125.203148
      },
      {
        "lat": 34.698318,
        "lng": 125.205109
      }
    ],
    "color": "#161f52",
    "start_name": "홍도 깃대봉",
    "length_meter": 228.7,
    "time_minute": 3
  },
  {
    "path_id": 13,
    "path": [
      {
        "lat": 34.698318,
        "lng": 125.205109
      },
      {
        "lat": 34.69981,
        "lng": 125.204987
      }
    ],
    "color": "#631dac",
    "start_name": "광나무",
    "length_meter": 166.3,
    "time_minute": 2
  },
  {
    "path_id": 14,
    "path": [
      {
        "lat": 34.69981,
        "lng": 125.204987
      },
      {
        "lat": 34.700478,
        "lng": 125.205765
      }
    ],
    "color": "#005359",
    "start_name": "쥐똥나무",
    "length_meter": 102.8,
    "time_minute": 1
  },
  {
    "path_id": 15,
    "path": [
      {
        "lat": 34.700478,
        "lng": 125.205765
      },
      {
        "lat": 34.703289,
        "lng": 125.204414
      }
    ],
    "color": "#63c01f",
    "start_name": "갈림길",
    "length_meter": 336.1,
    "time_minute": 5
  },
  {
    "path_id": 16,
    "path": [
      {
        "lat": 34.703289,
        "lng": 125.204414
      },
      {
        "lat": 34.707653,
        "lng": 125.202972
      }
    ],
    "color": "#6b436e",
    "start_name": "홍도2구",
    "length_meter": 502.8,
    "time_minute": 8
  },
  {
    "path_id": 17,
    "path": [
      {
        "lat": 34.707653,
        "lng": 125.202972
      },
      {
        "lat": 34.711395,
        "lng": 125.203972
      }
    ],
    "color": "#24b4af",
    "start_name": "자연경관",
    "length_meter": 426.0,
    "time_minute": 7
  },
  {
    "path_id": 18,
    "path": [
      {
        "lat": 34.711395,
        "lng": 125.203972
      },
      {
        "lat": 34.71048,
        "lng": 125.202126
      }
    ],
    "color": "#34564c",
    "start_name": "홍도등대 / 자연경관",
    "length_meter": 207.3,
    "time_minute": 3
  },
  {
    "path_id": 19,
    "path": [
      {
        "lat": 34.71048,
        "lng": 125.202126
      },
      {
        "lat": 34.70948,
        "lng": 125.201347
      }
    ],
    "color": "#b2be96",
    "start_name": "홍도원추리",
    "length_meter": 132.0,
    "time_minute": 2
  },
  {
    "path_id": 20,
    "path": [
      {
        "lat": 34.70948,
        "lng": 125.201347
      },
      {
        "lat": 34.698872,
        "lng": 125.204987
      }
    ],
    "color": "#2dbcab",
    "start_name": "자연경관",
    "length_meter": 1225.6,
    "time_minute": 20
  },
  {
    "path_id": 21,
    "path": [
      {
        "lat": 34.698872,
        "lng": 125.204987
      },
      {
        "lat": 34.694836,
        "lng": 125.200279
      }
    ],
    "color": "#45312b",
    "start_name": "작살나무",
    "length_meter": 621.8,
    "time_minute": 10
  },
  {
    "path_id": 22,
    "path": [
      {
        "lat": 34.694836,
        "lng": 125.200279
      },
      {
        "lat": 34.68486,
        "lng": 125.192551
      }
    ],
    "color": "#176610",
    "start_name": "천선과나무",
    "length_meter": 1315.2,
    "time_minute": 21
  },
  {
    "path_id": 23,
    "path": [
      {
        "lat": 34.68486,
        "lng": 125.192551
      },
      {
        "lat": 34.684021,
        "lng": 125.192787
      }
    ],
    "color": "#aec607",
    "start_name": "갈림길",
    "length_meter": 95.8,
    "time_minute": 1
  },
  {
    "path_id": 24,
    "path": [
      {
        "lat": 34.684021,
        "lng": 125.192787
      },
      {
        "lat": 34.682854,
        "lng": 125.19268
      }
    ],
    "color": "#1c1740",
    "start_name": "웨이포인트 1",
    "length_meter": 130.1,
    "time_minute": 2
  }
]