[
  {
    "path_id": 0,
    "path": [
      {
        "lat": 35.531962,
        "lng": 128.944258
      },
      {
        "lat": 35.539099,
        "lng": 128.951394
      }
    ],
    "color": "#005830",
    "start_name": "웨이포인트 1 / 웨이포인트 2 / 매바위마을 등산로",
    "length_meter": 1033.7,
    "time_minute": 17
  },
  {
    "path_id": 1,
    "path": [
      {
        "lat": 35.539099,
        "lng": 128.951394
      },
      {
        "lat": 35.538696,
        "lng": 128.954123
      }
    ],
    "color": "#2c866b",
    "start_name": "웨이포인트 4",
    "length_meter": 251.0,
    "time_minute": 4
  },
  {
    "path_id": 2,
    "path": [
      {
        "lat": 35.538696,
        "lng": 128.954123
      },
      {
        "lat": 35.539514,
        "lng": 128.955737
      }
    ],
    "color": "#19c2bf",
    "start_name": "웨이포인트 5",
    "length_meter": 172.0,
    "time_minute": 2
  },
  {
    "path_id": 3,
    "path": [
      {
        "lat": 35.539514,
        "lng": 128.955737
      },
      {
        "lat": 35.542575,
        "lng": 128.95512
      }
    ],
    "color": "#af2d15",
    "start_name": "웨이포인트 6 / 웨이포인트 7",
    "length_meter": 371.8,
    "time_minute": 6
  },
  {
    "path_id": 4,
    "path": [
      {
        "lat": 35.542575,
        "lng": 128.95512
      },
      {
        "lat": 35.547102,
        "lng": 128.95356
      }
    ],
    "color": "#11698a",
    "start_name": "웨이포인트 9 / 웨이포인트 10 / 필봉에서 / 웨이포인트 12 / 웨이포인트 8 / 웨이포인트 13",
    "length_meter": 533.5,
    "time_minute": 8
  },
  {
    "path_id": 5,
    "path": [
      {
        "lat": 35.547102,
        "lng": 128.95356
      },
      {
        "lat": 35.550367,
        "lng": 128.950473
      }
    ],
    "color": "#a74266",
    "start_name": "웨이포인트 14",
    "length_meter": 458.0,
    "time_minute": 7
  },
  {
    "path_id": 6,
    "path": [
      {
        "lat": 35.550367,
        "lng": 128.950473
      },
      {
        "lat": 35.561183,
        "lng": 128.962081
      }
    ],
    "color": "#391d7b",
    "start_name": "웨이포인트 15 / 갈림길",
    "length_meter": 1597.0,
    "time_minute": 26
  },
  {
    "path_id": 7,
    "path": [
      {
        "lat": 35.561183,
        "lng": 128.962081
      },
      {
        "lat": 35.561035,
        "lng": 128.963331
      }
    ],
    "color": "#7868ad",
    "start_name": "웨이포인트 24",
    "length_meter": 114.3,
    "time_minute": 1
  },
  {
    "path_id": 8,
    "path": [
      {
        "lat": 35.561035,
        "lng": 128.963331
      },
      {
        "lat": 35.56055,
        "lng": 128.97059
      }
    ],
    "color": "#62424b",
    "start_name": "웨이포인트 25 / 웨이포인트 26",
    "length_meter": 664.7,
    "time_minute": 11
  },
  {
    "path_id": 9,
    "path": [
      {
        "lat": 35.56055,
        "lng": 128.97059
      },
      {
        "lat": 35.559261,
        "lng": 128.971527
      }
    ],
    "color": "#b02a73",
    "start_name": "웨이포인트 27",
    "length_meter": 166.5,
    "time_minute": 2
  },
  {
    "path_id": 10,
    "path": [
      {
        "lat": 35.559261,
        "lng": 128.971527
      },
      {
        "lat": 35.558415,
        "lng": 128.971863
      }
    ],
    "color": "#482972",
    "start_name": "갈림길 / 웨이포인트 29",
    "length_meter": 105.7,
    "time_minute": 1
  },
  {
    "path_id": 11,
    "path": [
      {
        "lat": 35.558415,
        "lng": 128.971863
      },
      {
        "lat": 35.557896,
        "lng": 128.972214
      }
    ],
    "color": "#4ba4bc",
    "start_name": "웨이포인트 30",
    "length_meter": 65.9,
    "time_minute": 1
  },
  {
    "path_id": 12,
    "path": [
      {
        "lat": 35.557896,
        "lng": 128.972214
      },
      {
        "lat": 35.557035,
        "lng": 128.972351
      }
    ],
    "color": "#733758",
    "start_name": "천황산 / 웨이포인트 32",
    "length_meter": 96.6,
    "time_minute": 1
  },
  {
    "path_id": 13,
    "path": [
      {
        "lat": 35.557035,
        "lng": 128.972351
      },
      {
        "lat": 35.551395,
        "lng": 128.977081
      }
    ],
    "color": "#3f0791",
    "start_name": "웨이포인트 33 / 웨이포인트 34",
    "length_meter": 759.3,
    "time_minute": 12
  },
  {
    "path_id": 14,
    "path": [
      {
        "lat": 35.551395,
        "lng": 128.977081
      },
      {
        "lat": 35.546749,
        "lng": 128.981221
      }
    ],
    "color": "#ba8184",
    "start_name": "천황고개",
    "length_meter": 638.1,
    "time_minute": 10
  },
  {
    "path_id": 15,
    "path": [
      {
        "lat": 35.546749,
        "lng": 128.981221
      },
      {
        "lat": 35.545322,
        "lng": 128.980576
      }
    ],
    "color": "#972901",
    "start_name": "웨이포인트 36",
    "length_meter": 169.1,
    "time_minute": 2
  },
  {
    "path_id": 16,
    "path": [
      {
        "lat": 35.545322,
        "lng": 128.980576
      },
      {
        "lat": 35.536514,
        "lng": 128.985031
      }
    ],
    "color": "#3c762b",
    "start_name": "재약산 / 웨이포인트 38 / 웨이포인트 39 / 웨이포인트 40 / 웨이포인트 41 / 웨이포인트 42 / 웨이포인트 43 / 웨이포인트 44 / 자연경관 / 웨이포인트 46",
    "length_meter": 1061.8,
    "time_minute": 17
  }
]