[
  {
    "path_id": 0,
    "path": [
      {
        "lat": 37.951332,
        "lng": 127.577972
      },
      {
        "lat": 37.961189,
        "lng": 127.582916
      }
    ],
    "color": "#5654b2",
    "start_name": "홍적종점",
    "length_meter": 1178.6,
    "time_minute": 19
  },
  {
    "path_id": 1,
    "path": [
      {
        "lat": 37.961189,
        "lng": 127.582916
      },
      {
        "lat": 37.961418,
        "lng": 127.582993
      }
    ],
    "color": "#679db8",
    "start_name": "갈림길 / 국가지점번호",
    "length_meter": 26.7,
    "time_minute": 0
  },
  {
    "path_id": 2,
    "path": [
      {
        "lat": 37.961418,
        "lng": 127.582993
      },
      {
        "lat": 37.961578,
        "lng": 127.584503
      }
    ],
    "color": "#619453",
    "start_name": "안내소",
    "length_meter": 133.6,
    "time_minute": 2
  },
  {
    "path_id": 3,
    "path": [
      {
        "lat": 37.961578,
        "lng": 127.584503
      },
      {
        "lat": 37.955132,
        "lng": 127.602913
      }
    ],
    "color": "#6b8478",
    "start_name": "갈림길",
    "length_meter": 1766.0,
    "time_minute": 29
  },
  {
    "path_id": 4,
    "path": [
      {
        "lat": 37.955132,
        "lng": 127.602913
      },
      {
        "lat": 37.940517,
        "lng": 127.61264
      }
    ],
    "color": "#b10e59",
    "start_name": "국가지점번호 / 몽덕산 정상",
    "length_meter": 1835.3,
    "time_minute": 30
  },
  {
    "path_id": 5,
    "path": [
      {
        "lat": 37.940517,
        "lng": 127.61264
      },
      {
        "lat": 37.920399,
        "lng": 127.612625
      }
    ],
    "color": "#6a8634",
    "start_name": "국가지점번호 / 가덕산 정상",
    "length_meter": 2243.2,
    "time_minute": 37
  },
  {
    "path_id": 6,
    "path": [
      {
        "lat": 37.920399,
        "lng": 127.612625
      },
      {
        "lat": 37.919365,
        "lng": 127.614525
      }
    ],
    "color": "#721d9b",
    "start_name": "북배산 정상",
    "length_meter": 202.5,
    "time_minute": 3
  },
  {
    "path_id": 7,
    "path": [
      {
        "lat": 37.919365,
        "lng": 127.614525
      },
      {
        "lat": 37.898624,
        "lng": 127.612801
      }
    ],
    "color": "#14b2bf",
    "start_name": "갈림길",
    "length_meter": 2311.2,
    "time_minute": 38
  },
  {
    "path_id": 8,
    "path": [
      {
        "lat": 37.898624,
        "lng": 127.612801
      },
      {
        "lat": 37.875874,
        "lng": 127.594757
      }
    ],
    "color": "#376bb2",
    "start_name": "국가지점번호",
    "length_meter": 2984.4,
    "time_minute": 49
  },
  {
    "path_id": 9,
    "path": [
      {
        "lat": 37.875874,
        "lng": 127.594757
      },
      {
        "lat": 37.875862,
        "lng": 127.594742
      }
    ],
    "color": "#a63f26",
    "start_name": "갈림길",
    "length_meter": 1.9,
    "time_minute": 0
  },
  {
    "path_id": 10,
    "path": [
      {
        "lat": 37.875862,
        "lng": 127.594742
      },
      {
        "lat": 37.873951,
        "lng": 127.579552
      }
    ],
    "color": "#016c3d",
    "start_name": "국가지점번호",
    "length_meter": 1350.1,
    "time_minute": 22
  },
  {
    "path_id": 11,
    "path": [
      {
        "lat": 37.873951,
        "lng": 127.579552
      },
      {
        "lat": 37.86095,
        "lng": 127.540092
      }
    ],
    "color": "#688bb9",
    "start_name": "갈림길",
    "length_meter": 3753.4,
    "time_minute": 62
  },
  {
    "path_id": 12,
    "path": [
      {
        "lat": 37.86095,
        "lng": 127.540092
      },
      {
        "lat": 37.85231,
        "lng": 127.53138
      }
    ],
    "color": "#1ab933",
    "start_name": "미끄럼 주의",
    "length_meter": 1228.0,
    "time_minute": 20
  },
  {
    "path_id": 13,
    "path": [
      {
        "lat": 37.85231,
        "lng": 127.53138
      },
      {
        "lat": 37.838516,
        "lng": 127.518364
      }
    ],
    "color": "#acc05f",
    "start_name": "갈림길",
    "length_meter": 1912.8,
    "time_minute": 31
  },
  {
    "path_id": 14,
    "path": [
      {
        "lat": 37.838516,
        "lng": 127.518364
      },
      {
        "lat": 37.834824,
        "lng": 127.519669
      }
    ],
    "color": "#687728",
    "start_name": "보납산 정상",
    "length_meter": 426.2,
    "time_minute": 7
  }
]