[
  {
    "path_id": 0,
    "path": [
      {
        "lat": 37.818859,
        "lng": 127.633636
      },
      {
        "lat": 37.81884,
        "lng": 127.633583
      }
    ],
    "color": "#9cfff3",
    "start_point_name": "삼악산강촌유원지등산로입구",
    "length": 5,
    "time": "0"
  },
  {
    "path_id": 1,
    "path": [
      {
        "lat": 37.81884,
        "lng": 127.633583
      },
      {
        "lat": 37.818966,
        "lng": 127.633949
      }
    ],
    "color": "#dc9533",
    "start_point_name": "강촌유원지 정류장(1464, 삼악산 방면)",
    "length": 35,
    "time": "0"
  },
  {
    "path_id": 2,
    "path": [
      {
        "lat": 37.818966,
        "lng": 127.633949
      },
      {
        "lat": 37.821606,
        "lng": 127.635895
      }
    ],
    "color": "#490e14",
    "start_point_name": "쉼터",
    "length": 339,
    "time": "5"
  },
  {
    "path_id": 3,
    "path": [
      {
        "lat": 37.821606,
        "lng": 127.635895
      },
      {
        "lat": 37.822315,
        "lng": 127.636604
      }
    ],
    "color": "#27ab90",
    "start_point_name": "쉼터",
    "length": 100,
    "time": "1"
  },
  {
    "path_id": 4,
    "path": [
      {
        "lat": 37.822315,
        "lng": 127.636604
      },
      {
        "lat": 37.823437,
        "lng": 127.636009
      }
    ],
    "color": "#6ffc68",
    "start_point_name": "소양강 조망",
    "length": 135,
    "time": "2"
  },
  {
    "path_id": 5,
    "path": [
      {
        "lat": 37.823437,
        "lng": 127.636009
      },
      {
        "lat": 37.823727,
        "lng": 127.635612
      }
    ],
    "color": "#e23f03",
    "start_point_name": "삼악좌봉",
    "length": 47,
    "time": "0"
  },
  {
    "path_id": 6,
    "path": [
      {
        "lat": 37.823727,
        "lng": 127.635612
      },
      {
        "lat": 37.823734,
        "lng": 127.635666
      }
    ],
    "color": "#8faf50",
    "start_point_name": "갈림길 7",
    "length": 4,
    "time": "0"
  },
  {
    "path_id": 7,
    "path": [
      {
        "lat": 37.823734,
        "lng": 127.635666
      },
      {
        "lat": 37.826385,
        "lng": 127.635712
      }
    ],
    "color": "#832154",
    "start_point_name": "거대바위",
    "length": 294,
    "time": "4"
  },
  {
    "path_id": 8,
    "path": [
      {
        "lat": 37.826385,
        "lng": 127.635712
      },
      {
        "lat": 37.826984,
        "lng": 127.637161
      }
    ],
    "color": "#89b5de",
    "start_point_name": "소양강 조망2",
    "length": 143,
    "time": "2"
  },
  {
    "path_id": 9,
    "path": [
      {
        "lat": 37.826984,
        "lng": 127.637161
      },
      {
        "lat": 37.827015,
        "lng": 127.637543
      }
    ],
    "color": "#c72925",
    "start_point_name": "계관산능선",
    "length": 33,
    "time": "0"
  },
  {
    "path_id": 10,
    "path": [
      {
        "lat": 37.827015,
        "lng": 127.637543
      },
      {
        "lat": 37.827553,
        "lng": 127.638359
      }
    ],
    "color": "#5a712d",
    "start_point_name": "추락주의",
    "length": 93,
    "time": "1"
  },
  {
    "path_id": 11,
    "path": [
      {
        "lat": 37.827553,
        "lng": 127.638359
      },
      {
        "lat": 37.827682,
        "lng": 127.638542
      }
    ],
    "color": "#7b0ba0",
    "start_point_name": "돌탑과 함께",
    "length": 21,
    "time": "0"
  },
  {
    "path_id": 12,
    "path": [
      {
        "lat": 37.827682,
        "lng": 127.638542
      },
      {
        "lat": 37.827877,
        "lng": 127.638512
      }
    ],
    "color": "#fdaa80",
    "start_point_name": "조망점",
    "length": 21,
    "time": "0"
  },
  {
    "path_id": 13,
    "path": [
      {
        "lat": 37.827877,
        "lng": 127.638512
      },
      {
        "lat": 37.830662,
        "lng": 127.643135
      }
    ],
    "color": "#fb52c0",
    "start_point_name": "소양강조망",
    "length": 510,
    "time": "8"
  },
  {
    "path_id": 14,
    "path": [
      {
        "lat": 37.830662,
        "lng": 127.643135
      },
      {
        "lat": 37.832809,
        "lng": 127.64917
      }
    ],
    "color": "#81bc19",
    "start_point_name": "등선봉 해발632m",
    "length": 581,
    "time": "9"
  },
  {
    "path_id": 15,
    "path": [
      {
        "lat": 37.832809,
        "lng": 127.64917
      },
      {
        "lat": 37.83403,
        "lng": 127.649574
      }
    ],
    "color": "#b6a37a",
    "start_point_name": "갈림길 16",
    "length": 140,
    "time": "2"
  },
  {
    "path_id": 16,
    "path": [
      {
        "lat": 37.83403,
        "lng": 127.649574
      },
      {
        "lat": 37.839996,
        "lng": 127.649017
      }
    ],
    "color": "#301bf8",
    "start_point_name": "갈림길 17",
    "length": 665,
    "time": "11"
  },
  {
    "path_id": 17,
    "path": [
      {
        "lat": 37.839996,
        "lng": 127.649017
      },
      {
        "lat": 37.840069,
        "lng": 127.64901
      }
    ],
    "color": "#a95bf0",
    "start_point_name": "청운봉 해발527m",
    "length": 8,
    "time": "0"
  },
  {
    "path_id": 18,
    "path": [
      {
        "lat": 37.840069,
        "lng": 127.64901
      },
      {
        "lat": 37.840363,
        "lng": 127.652992
      }
    ],
    "color": "#4dda2e",
    "start_point_name": "갈림길 20",
    "length": 351,
    "time": "5"
  },
  {
    "path_id": 19,
    "path": [
      {
        "lat": 37.840363,
        "lng": 127.652992
      },
      {
        "lat": 37.837822,
        "lng": 127.660736
      }
    ],
    "color": "#641567",
    "start_point_name": "소양강",
    "length": 736,
    "time": "12"
  },
  {
    "path_id": 20,
    "path": [
      {
        "lat": 37.837822,
        "lng": 127.660736
      },
      {
        "lat": 37.837639,
        "lng": 127.660477
      }
    ],
    "color": "#5f1cdf",
    "start_point_name": "큰초원 쉼터",
    "length": 30,
    "time": "0"
  },
  {
    "path_id": 21,
    "path": [
      {
        "lat": 37.837639,
        "lng": 127.660477
      },
      {
        "lat": 37.83704,
        "lng": 127.656769
      }
    ],
    "color": "#8d4d36",
    "start_point_name": "갈림길 29",
    "length": 332,
    "time": "5"
  },
  {
    "path_id": 22,
    "path": [
      {
        "lat": 37.83704,
        "lng": 127.656769
      },
      {
        "lat": 37.837139,
        "lng": 127.653183
      }
    ],
    "color": "#e7fbd3",
    "start_point_name": "작은초원 쉼터",
    "length": 315,
    "time": "5"
  },
  {
    "path_id": 23,
    "path": [
      {
        "lat": 37.837139,
        "lng": 127.653183
      },
      {
        "lat": 37.836552,
        "lng": 127.653381
      }
    ],
    "color": "#608d39",
    "start_point_name": "흥국사 화장실",
    "length": 67,
    "time": "1"
  },
  {
    "path_id": 24,
    "path": [
      {
        "lat": 37.836552,
        "lng": 127.653381
      },
      {
        "lat": 37.83297,
        "lng": 127.655838
      }
    ],
    "color": "#2be07d",
    "start_point_name": "운악산막",
    "length": 452,
    "time": "7"
  },
  {
    "path_id": 25,
    "path": [
      {
        "lat": 37.83297,
        "lng": 127.655838
      },
      {
        "lat": 37.830097,
        "lng": 127.657776
      }
    ],
    "color": "#cb27ae",
    "start_point_name": "폭포",
    "length": 361,
    "time": "6"
  },
  {
    "path_id": 26,
    "path": [
      {
        "lat": 37.830097,
        "lng": 127.657776
      },
      {
        "lat": 37.828403,
        "lng": 127.657448
      }
    ],
    "color": "#f10279",
    "start_point_name": "폭포소",
    "length": 190,
    "time": "3"
  },
  {
    "path_id": 27,
    "path": [
      {
        "lat": 37.828403,
        "lng": 127.657448
      },
      {
        "lat": 37.827526,
        "lng": 127.658142
      }
    ],
    "color": "#36a86e",
    "start_point_name": "주렴폭포",
    "length": 114,
    "time": "1"
  },
  {
    "path_id": 28,
    "path": [
      {
        "lat": 37.827526,
        "lng": 127.658142
      },
      {
        "lat": 37.827541,
        "lng": 127.658188
      }
    ],
    "color": "#c854d6",
    "start_point_name": "백련폭포",
    "length": 4,
    "time": "0"
  },
  {
    "path_id": 29,
    "path": [
      {
        "lat": 37.827541,
        "lng": 127.658188
      },
      {
        "lat": 37.827427,
        "lng": 127.658325
      }
    ],
    "color": "#4bc426",
    "start_point_name": "쉼터",
    "length": 17,
    "time": "0"
  },
  {
    "path_id": 30,
    "path": [
      {
        "lat": 37.827427,
        "lng": 127.658325
      },
      {
        "lat": 37.826565,
        "lng": 127.659172
      }
    ],
    "color": "#f8b981",
    "start_point_name": "승학폭포",
    "length": 121,
    "time": "2"
  },
  {
    "path_id": 31,
    "path": [
      {
        "lat": 37.826565,
        "lng": 127.659172
      },
      {
        "lat": 37.825935,
        "lng": 127.659508
      }
    ],
    "color": "#3a41cf",
    "start_point_name": "등선제1폭포",
    "length": 76,
    "time": "1"
  },
  {
    "path_id": 32,
    "path": [
      {
        "lat": 37.825935,
        "lng": 127.659508
      },
      {
        "lat": 37.825642,
        "lng": 127.659439
      }
    ],
    "color": "#606f3a",
    "start_point_name": "등선휴게소식당",
    "length": 33,
    "time": "0"
  },
  {
    "path_id": 33,
    "path": [
      {
        "lat": 37.825642,
        "lng": 127.659439
      },
      {
        "lat": 37.825699,
        "lng": 127.659386
      }
    ],
    "color": "#51cc2f",
    "start_point_name": "등선폭포 매표소",
    "length": 7,
    "time": "0"
  },
  {
    "path_id": 34,
    "path": [
      {
        "lat": 37.825699,
        "lng": 127.659386
      },
      {
        "lat": 37.824883,
        "lng": 127.659355
      }
    ],
    "color": "#8531da",
    "start_point_name": "등선매표소 화장실",
    "length": 90,
    "time": "1"
  },
  {
    "path_id": 35,
    "path": [
      {
        "lat": 37.824883,
        "lng": 127.659355
      },
      {
        "lat": 37.824932,
        "lng": 127.660057
      }
    ],
    "color": "#e722d3",
    "start_point_name": "유료주차장",
    "length": 61,
    "time": "1"
  }
]