{
  "max_ele": 905.429,
  "total_length_km": "21.1km",
  "total_time": "4시간 24분",
  "start_name": "홍적종점",
  "end_name": "갈림길",
  "track": [
    {
      "path_id": 0,
      "path": [
        {
          "lat": 37.951332,
          "lng": 127.577972
        },
        {
          "lat": 37.961189,
          "lng": 127.582916
        }
      ],
      "color": "#3c2970",
      "start_name": "홍적종점",
      "length_meter": 1178.6,
      "time_minute": 14
    },
    {
      "path_id": 1,
      "path": [
        {
          "lat": 37.961189,
          "lng": 127.582916
        },
        {
          "lat": 37.961418,
          "lng": 127.582993
        }
      ],
      "color": "#22159a",
      "start_name": "갈림길",
      "length_meter": 26.3,
      "time_minute": 0
    },
    {
      "path_id": 2,
      "path": [
        {
          "lat": 37.961418,
          "lng": 127.582993
        },
        {
          "lat": 37.961578,
          "lng": 127.584503
        }
      ],
      "color": "#30158e",
      "start_name": "안내소",
      "length_meter": 133.6,
      "time_minute": 1
    },
    {
      "path_id": 3,
      "path": [
        {
          "lat": 37.961578,
          "lng": 127.584503
        },
        {
          "lat": 37.955132,
          "lng": 127.602913
        }
      ],
      "color": "#90c418",
      "start_name": "갈림길",
      "length_meter": 1766.0,
      "time_minute": 22
    },
    {
      "path_id": 4,
      "path": [
        {
          "lat": 37.955132,
          "lng": 127.602913
        },
        {
          "lat": 37.940533,
          "lng": 127.612686
        }
      ],
      "color": "#253e36",
      "start_name": "몽덕산 정상",
      "length_meter": 1835.6,
      "time_minute": 22
    },
    {
      "path_id": 5,
      "path": [
        {
          "lat": 37.940533,
          "lng": 127.612686
        },
        {
          "lat": 37.920406,
          "lng": 127.61261
        }
      ],
      "color": "#677115",
      "start_name": "가덕산 정상",
      "length_meter": 2238.0,
      "time_minute": 27
    },
    {
      "path_id": 6,
      "path": [
        {
          "lat": 37.920406,
          "lng": 127.61261
        },
        {
          "lat": 37.920399,
          "lng": 127.612625
        }
      ],
      "color": "#207497",
      "start_name": "쉼터",
      "length_meter": 1.5,
      "time_minute": 0
    },
    {
      "path_id": 7,
      "path": [
        {
          "lat": 37.920399,
          "lng": 127.612625
        },
        {
          "lat": 37.919365,
          "lng": 127.614525
        }
      ],
      "color": "#28ba1a",
      "start_name": "북배산 정상",
      "length_meter": 202.5,
      "time_minute": 2
    },
    {
      "path_id": 8,
      "path": [
        {
          "lat": 37.919365,
          "lng": 127.614525
        },
        {
          "lat": 37.919342,
          "lng": 127.614548
        }
      ],
      "color": "#bd7e92",
      "start_name": "갈림길",
      "length_meter": 3.3,
      "time_minute": 0
    },
    {
      "path_id": 9,
      "path": [
        {
          "lat": 37.919342,
          "lng": 127.614548
        },
        {
          "lat": 37.898636,
          "lng": 127.612816
        }
      ],
      "color": "#329347",
      "start_name": "쉼터",
      "length_meter": 2307.4,
      "time_minute": 28
    },
    {
      "path_id": 10,
      "path": [
        {
          "lat": 37.898636,
          "lng": 127.612816
        },
        {
          "lat": 37.86095,
          "lng": 127.540092
        }
      ],
      "color": "#00c075",
      "start_name": "갈림길",
      "length_meter": 7635.4,
      "time_minute": 95
    },
    {
      "path_id": 11,
      "path": [
        {
          "lat": 37.86095,
          "lng": 127.540092
        },
        {
          "lat": 37.85231,
          "lng": 127.53138
        }
      ],
      "color": "#03bf62",
      "start_name": "미끄럼 주의",
      "length_meter": 1228.0,
      "time_minute": 15
    },
    {
      "path_id": 12,
      "path": [
        {
          "lat": 37.85231,
          "lng": 127.53138
        },
        {
          "lat": 37.841595,
          "lng": 127.523308
        }
      ],
      "color": "#231857",
      "start_name": "갈림길",
      "length_meter": 1386.3,
      "time_minute": 17
    },
    {
      "path_id": 13,
      "path": [
        {
          "lat": 37.841595,
          "lng": 127.523308
        },
        {
          "lat": 37.84016,
          "lng": 127.521271
        }
      ],
      "color": "#53188c",
      "start_name": "쉼터 / 갈림길",
      "length_meter": 242.0,
      "time_minute": 3
    },
    {
      "path_id": 14,
      "path": [
        {
          "lat": 37.84016,
          "lng": 127.521271
        },
        {
          "lat": 37.838516,
          "lng": 127.518364
        }
      ],
      "color": "#0a868d",
      "start_name": "쉼터 / 갈림길 / 쉼터",
      "length_meter": 314.1,
      "time_minute": 5
    },
    {
      "path_id": 15,
      "path": [
        {
          "lat": 37.838516,
          "lng": 127.518364
        },
        {
          "lat": 37.834824,
          "lng": 127.519669
        }
      ],
      "color": "#1a0b18",
      "start_name": "보납산 정상",
      "length_meter": 426.2,
      "time_minute": 5
    },
    {
      "path_id": 16,
      "path": [
        {
          "lat": 37.834824,
          "lng": 127.519669
        },
        {
          "lat": 37.834602,
          "lng": 127.519142
        }
      ],
      "color": "#235890",
      "start_name": "갈림길",
      "length_meter": 52.5,
      "time_minute": 0
    },
    {
      "path_id": 17,
      "path": [
        {
          "lat": 37.834602,
          "lng": 127.519142
        },
        {
          "lat": 37.834122,
          "lng": 127.517479
        }
      ],
      "color": "#85574d",
      "start_name": "쉼터",
      "length_meter": 155.5,
      "time_minute": 1
    }
  ]
}