{
  "max_ele": 584.818,
  "total_length_km": "5.9km",
  "total_time": "1시간 14분",
  "start_name": "의암교차로(시내버스 정류장)",
  "end_name": "봉덕사 입구(버스정류장)",
  "track": [
    {
      "path_id": 0,
      "path": [
        {
          "lat": 37.828083,
          "lng": 127.671196
        },
        {
          "lat": 37.828091,
          "lng": 127.671112
        }
      ],
      "color": "#140407",
      "start_name": "의암교차로(시내버스 정류장)",
      "length_meter": 7.4,
      "time_minute": 0
    },
    {
      "path_id": 1,
      "path": [
        {
          "lat": 37.828091,
          "lng": 127.671112
        },
        {
          "lat": 37.826801,
          "lng": 127.668716
        }
      ],
      "color": "#63418e",
      "start_name": "의암닭갈비",
      "length_meter": 254.7,
      "time_minute": 3
    },
    {
      "path_id": 2,
      "path": [
        {
          "lat": 37.826801,
          "lng": 127.668716
        },
        {
          "lat": 37.828175,
          "lng": 127.667244
        }
      ],
      "color": "#715497",
      "start_name": "갈림길",
      "length_meter": 200.1,
      "time_minute": 2
    },
    {
      "path_id": 3,
      "path": [
        {
          "lat": 37.828175,
          "lng": 127.667244
        },
        {
          "lat": 37.831322,
          "lng": 127.666664
        }
      ],
      "color": "#9eaa24",
      "start_name": "삼악산 신흥사 입구 주차장 / 갈림길 / 삼악산 신흥사 등산로 입구",
      "length_meter": 376.1,
      "time_minute": 6
    },
    {
      "path_id": 4,
      "path": [
        {
          "lat": 37.831322,
          "lng": 127.666664
        },
        {
          "lat": 37.833977,
          "lng": 127.669044
        }
      ],
      "color": "#855210",
      "start_name": "쉼터",
      "length_meter": 361.7,
      "time_minute": 4
    },
    {
      "path_id": 5,
      "path": [
        {
          "lat": 37.833977,
          "lng": 127.669044
        },
        {
          "lat": 37.844296,
          "lng": 127.641663
        }
      ],
      "color": "#a194c4",
      "start_name": "갈림길",
      "length_meter": 2664.2,
      "time_minute": 33
    },
    {
      "path_id": 6,
      "path": [
        {
          "lat": 37.844296,
          "lng": 127.641663
        },
        {
          "lat": 37.853615,
          "lng": 127.662079
        }
      ],
      "color": "#9c5f03",
      "start_name": "쉼터",
      "length_meter": 2070.5,
      "time_minute": 25
    }
  ]
}