{
  "max_ele": 664.736,
  "total_length_km": "6.5km",
  "total_time": "1시간 21분",
  "start_name": "삼악산강촌유원지등산로입구",
  "end_name": "삼악산정류장(1851, 강촌유원지 방면)",
  "track": [
    {
      "path_id": 0,
      "path": [
        {
          "lat": 37.818859,
          "lng": 127.633636
        },
        {
          "lat": 37.822315,
          "lng": 127.636604
        }
      ],
      "color": "#118218",
      "start_name": "삼악산강촌유원지등산로입구 / 강촌유원지 정류장(1464, 삼악산 방면) / 쉼터",
      "length_meter": 479.6,
      "time_minute": 7
    },
    {
      "path_id": 1,
      "path": [
        {
          "lat": 37.822315,
          "lng": 127.636604
        },
        {
          "lat": 37.823437,
          "lng": 127.636009
        }
      ],
      "color": "#ab3b77",
      "start_name": "소양강 조망",
      "length_meter": 135.3,
      "time_minute": 1
    },
    {
      "path_id": 2,
      "path": [
        {
          "lat": 37.823437,
          "lng": 127.636009
        },
        {
          "lat": 37.826385,
          "lng": 127.635712
        }
      ],
      "color": "#b5235d",
      "start_name": "삼악좌봉 / 갈림길 / 거대바위",
      "length_meter": 347.1,
      "time_minute": 5
    },
    {
      "path_id": 3,
      "path": [
        {
          "lat": 37.826385,
          "lng": 127.635712
        },
        {
          "lat": 37.826984,
          "lng": 127.637161
        }
      ],
      "color": "#2b8d1a",
      "start_name": "소양강 조망2",
      "length_meter": 143.6,
      "time_minute": 1
    },
    {
      "path_id": 4,
      "path": [
        {
          "lat": 37.826984,
          "lng": 127.637161
        },
        {
          "lat": 37.827553,
          "lng": 127.638359
        }
      ],
      "color": "#031553",
      "start_name": "계관산능선",
      "length_meter": 122.8,
      "time_minute": 1
    },
    {
      "path_id": 5,
      "path": [
        {
          "lat": 37.827553,
          "lng": 127.638359
        },
        {
          "lat": 37.830662,
          "lng": 127.643135
        }
      ],
      "color": "#5b2943",
      "start_name": "돌탑과 함께 / 소양강조망",
      "length_meter": 549.1,
      "time_minute": 8
    },
    {
      "path_id": 6,
      "path": [
        {
          "lat": 37.830662,
          "lng": 127.643135
        },
        {
          "lat": 37.832809,
          "lng": 127.64917
        }
      ],
      "color": "#997365",
      "start_name": "등선봉 해발632m",
      "length_meter": 581.3,
      "time_minute": 7
    },
    {
      "path_id": 7,
      "path": [
        {
          "lat": 37.832809,
          "lng": 127.64917
        },
        {
          "lat": 37.839996,
          "lng": 127.649017
        }
      ],
      "color": "#70c244",
      "start_name": "갈림길",
      "length_meter": 799.3,
      "time_minute": 9
    },
    {
      "path_id": 8,
      "path": [
        {
          "lat": 37.839996,
          "lng": 127.649017
        },
        {
          "lat": 37.840363,
          "lng": 127.652992
        }
      ],
      "color": "#820a5d",
      "start_name": "청운봉 해발527m / 갈림길",
      "length_meter": 359.3,
      "time_minute": 5
    },
    {
      "path_id": 9,
      "path": [
        {
          "lat": 37.840363,
          "lng": 127.652992
        },
        {
          "lat": 37.837822,
          "lng": 127.660736
        }
      ],
      "color": "#c00c0c",
      "start_name": "소양강",
      "length_meter": 736.4,
      "time_minute": 9
    },
    {
      "path_id": 10,
      "path": [
        {
          "lat": 37.837822,
          "lng": 127.660736
        },
        {
          "lat": 37.83704,
          "lng": 127.656769
        }
      ],
      "color": "#38324e",
      "start_name": "큰초원 쉼터 / 갈림길",
      "length_meter": 362.9,
      "time_minute": 5
    },
    {
      "path_id": 11,
      "path": [
        {
          "lat": 37.83704,
          "lng": 127.656769
        },
        {
          "lat": 37.837139,
          "lng": 127.653183
        }
      ],
      "color": "#1f200c",
      "start_name": "작은초원 쉼터",
      "length_meter": 315.1,
      "time_minute": 3
    },
    {
      "path_id": 12,
      "path": [
        {
          "lat": 37.837139,
          "lng": 127.653183
        },
        {
          "lat": 37.83297,
          "lng": 127.655838
        }
      ],
      "color": "#2c8056",
      "start_name": "흥국사 화장실 / 운악산막",
      "length_meter": 520.5,
      "time_minute": 8
    },
    {
      "path_id": 13,
      "path": [
        {
          "lat": 37.83297,
          "lng": 127.655838
        },
        {
          "lat": 37.830097,
          "lng": 127.657776
        }
      ],
      "color": "#822b05",
      "start_name": "폭포",
      "length_meter": 362.0,
      "time_minute": 4
    },
    {
      "path_id": 14,
      "path": [
        {
          "lat": 37.830097,
          "lng": 127.657776
        },
        {
          "lat": 37.828403,
          "lng": 127.657448
        }
      ],
      "color": "#8d646b",
      "start_name": "폭포소",
      "length_meter": 190.6,
      "time_minute": 2
    },
    {
      "path_id": 15,
      "path": [
        {
          "lat": 37.828403,
          "lng": 127.657448
        },
        {
          "lat": 37.827526,
          "lng": 127.658142
        }
      ],
      "color": "#08aa81",
      "start_name": "주렴폭포",
      "length_meter": 115.0,
      "time_minute": 1
    },
    {
      "path_id": 16,
      "path": [
        {
          "lat": 37.827526,
          "lng": 127.658142
        },
        {
          "lat": 37.826565,
          "lng": 127.659172
        }
      ],
      "color": "#7fc3a0",
      "start_name": "백련폭포 / 쉼터 / 승학폭포",
      "length_meter": 143.2,
      "time_minute": 2
    },
    {
      "path_id": 17,
      "path": [
        {
          "lat": 37.826565,
          "lng": 127.659172
        },
        {
          "lat": 37.825642,
          "lng": 127.659439
        }
      ],
      "color": "#400b92",
      "start_name": "등선제1폭포 / 등선휴게소식당",
      "length_meter": 109.2,
      "time_minute": 1
    },
    {
      "path_id": 18,
      "path": [
        {
          "lat": 37.825642,
          "lng": 127.659439
        },
        {
          "lat": 37.824883,
          "lng": 127.659355
        }
      ],
      "color": "#4f4c72",
      "start_name": "등선폭포 매표소 / 등선매표소 화장실",
      "length_meter": 98.6,
      "time_minute": 1
    },
    {
      "path_id": 19,
      "path": [
        {
          "lat": 37.824883,
          "lng": 127.659355
        },
        {
          "lat": 37.824932,
          "lng": 127.660057
        }
      ],
      "color": "#8a5f88",
      "start_name": "유료주차장",
      "length_meter": 61.9,
      "time_minute": 0
    }
  ]
}