{
    "max_ele": 1036.087,
    "track": [
        {
            "path_id": 1,
            "name": "영실입구 정류소",
            "lat": 33.333065,
            "lon": 126.459602,
            "ele": 938.945
        },
        {
            "path_id": 2,
            "name": "보림농장삼거리 진입로",
            "lat": 33.336613,
            "lon": 126.455345,
            "ele": 957.47
        },
        {
            "path_id": 3,
            "name": "갈림길",
            "lat": 33.345387,
            "lon": 126.444435,
            "ele": 922.039
        },
        {
            "path_id": 4,
            "name": "천아숲길 입출구",
            "lat": 33.345455,
            "lon": 126.444427,
            "ele": 924.121
        },
        {
            "path_id": 5,
            "name": "보림농장삼거리 쉼터",
            "lat": 33.34552,
            "lon": 126.444374,
            "ele": 925.481
        },
        {
            "path_id": 6,
            "name": "표고버섯재배장",
            "lat": 33.346794,
            "lon": 126.443054,
            "ele": 915.67
        },
        {
            "path_id": 7,
            "name": "천아숲길 바위",
            "lat": 33.350464,
            "lon": 126.441742,
            "ele": 926.125
        },
        {
            "path_id": 8,
            "name": "표고버섯재배장",
            "lat": 33.350929,
            "lon": 126.43763,
            "ele": 902.846
        },
        {
            "path_id": 9,
            "name": "갈림길",
            "lat": 33.350769,
            "lon": 126.437828,
            "ele": 902.862
        },
        {
            "path_id": 10,
            "name": "갈림길",
            "lat": 33.350769,
            "lon": 126.437828,
            "ele": 902.862
        },
        {
            "path_id": 11,
            "name": "갈림길",
            "lat": 33.354832,
            "lon": 126.436096,
            "ele": 930.833
        },
        {
            "path_id": 12,
            "name": "삼나무군락지",
            "lat": 33.361633,
            "lon": 126.436813,
            "ele": 958.199
        },
        {
            "path_id": 13,
            "name": "삼나무군락지",
            "lat": 33.362843,
            "lon": 126.439499,
            "ele": 986.684
        },
        {
            "path_id": 14,
            "name": "갈림길",
            "lat": 33.368027,
            "lon": 126.444138,
            "ele": 1036.087
        },
        {
            "path_id": 15,
            "name": "삼나무군락지",
            "lat": 33.373531,
            "lon": 126.450897,
            "ele": 985.303
        },
        {
            "path_id": 16,
            "name": "삼나무군락지",
            "lat": 33.375813,
            "lon": 126.449501,
            "ele": 963.112
        },
        {
            "path_id": 17,
            "name": "갈림길",
            "lat": 33.377228,
            "lon": 126.447578,
            "ele": 954.532
        },
        {
            "path_id": 18,
            "name": "삼나무군락지",
            "lat": 33.383232,
            "lon": 126.448509,
            "ele": 891.591
        },
        {
            "path_id": 19,
            "name": "제주조릿대",
            "lat": 33.385471,
            "lon": 126.451744,
            "ele": 852.237
        },
        {
            "path_id": 20,
            "name": "제주조릿대 관리구역",
            "lat": 33.385471,
            "lon": 126.451744,
            "ele": 852.237
        },
        {
            "path_id": 21,
            "name": "갈림길",
            "lat": 33.390854,
            "lon": 126.452812,
            "ele": 803.194
        },
        {
            "path_id": 23,
            "name": "천아수원지 화장실",
            "lat": 33.396706,
            "lon": 126.459526,
            "ele": 705.01
        },
        {
            "path_id": 24,
            "name": "천아수원지  주차장",
            "lat": 33.396774,
            "lon": 126.459503,
            "ele": 710.122
        },
        {
            "path_id": 25,
            "name": "천아수원지 방향 입출구",
            "lat": 33.396503,
            "lon": 126.459595,
            "ele": 709.872
        },
        {
            "path_id": 26,
            "name": "천아수원지 방향 천아숲길 입출구",
            "lat": 33.396503,
            "lon": 126.459595,
            "ele": 709.872
        },
        {
            "path_id": 27,
            "name": "천아수원지 둘레길 입출구",
            "lat": 33.409359,
            "lon": 126.476906,
            "ele": 695.846
        },
        {
            "path_id": 28,
            "name": "한라산둘레길(천아숲길 밉구)",
            "lat": 33.409184,
            "lon": 126.477066,
            "ele": 699.478
        }
    ]
}