[
  {
    "path_id": 0,
    "path": [
      {
        "lat": 37.904221,
        "lng": 127.454338
      },
      {
        "lat": 37.904419,
        "lng": 127.453545
      }
    ],
    "color": "#8c15ae",
    "start_name": "백둔봉 입구",
    "length_meter": 73.0,
    "time_minute": 1
  },
  {
    "path_id": 1,
    "path": [
      {
        "lat": 37.904419,
        "lng": 127.453545
      },
      {
        "lat": 37.914268,
        "lng": 127.457283
      }
    ],
    "color": "#c2bd40",
    "start_name": "갈림길",
    "length_meter": 1143.2,
    "time_minute": 19
  },
  {
    "path_id": 2,
    "path": [
      {
        "lat": 37.914268,
        "lng": 127.457283
      },
      {
        "lat": 37.919418,
        "lng": 127.45768
      }
    ],
    "color": "#9123bf",
    "start_name": "능선 위에 멋진 소나무",
    "length_meter": 573.7,
    "time_minute": 9
  },
  {
    "path_id": 3,
    "path": [
      {
        "lat": 37.919418,
        "lng": 127.45768
      },
      {
        "lat": 37.924049,
        "lng": 127.451256
      }
    ],
    "color": "#23b69b",
    "start_name": "갈림길",
    "length_meter": 763.3,
    "time_minute": 12
  },
  {
    "path_id": 4,
    "path": [
      {
        "lat": 37.924049,
        "lng": 127.451256
      },
      {
        "lat": 37.923847,
        "lng": 127.449844
      }
    ],
    "color": "#c6a4a0",
    "start_name": "백둔봉",
    "length_meter": 125.9,
    "time_minute": 2
  },
  {
    "path_id": 5,
    "path": [
      {
        "lat": 37.923847,
        "lng": 127.449844
      },
      {
        "lat": 37.920033,
        "lng": 127.441475
      }
    ],
    "color": "#3d4409",
    "start_name": "헬기장",
    "length_meter": 847.8,
    "time_minute": 14
  }
]