[
  {
    "path_id": 0,
    "path": [
      {
        "lat": 37.936451,
        "lng": 127.481201
      },
      {
        "lat": 37.933498,
        "lng": 127.45945
      }
    ],
    "color": "#80fc7c",
    "start_name": "갈림길 / 명지산승천사",
    "length_meter": 1936.1,
    "time_minute": 32
  },
  {
    "path_id": 1,
    "path": [
      {
        "lat": 37.933498,
        "lng": 127.45945
      },
      {
        "lat": 37.934559,
        "lng": 127.448174
      }
    ],
    "color": "#8bec82",
    "start_name": "갈림길 / 명지폭포 국가지점번호 / 명지폭포",
    "length_meter": 1083.2,
    "time_minute": 18
  },
  {
    "path_id": 2,
    "path": [
      {
        "lat": 37.934559,
        "lng": 127.448174
      },
      {
        "lat": 37.935085,
        "lng": 127.445656
      }
    ],
    "color": "#593a76",
    "start_name": "명지2봉 가는 계곡길",
    "length_meter": 228.4,
    "time_minute": 3
  },
  {
    "path_id": 3,
    "path": [
      {
        "lat": 37.935085,
        "lng": 127.445656
      },
      {
        "lat": 37.935528,
        "lng": 127.443001
      }
    ],
    "color": "#9605b3",
    "start_name": "통신탑",
    "length_meter": 238.0,
    "time_minute": 3
  },
  {
    "path_id": 4,
    "path": [
      {
        "lat": 37.935528,
        "lng": 127.443001
      },
      {
        "lat": 37.932961,
        "lng": 127.436554
      }
    ],
    "color": "#3be435",
    "start_name": "갈림길",
    "length_meter": 633.4,
    "time_minute": 10
  },
  {
    "path_id": 5,
    "path": [
      {
        "lat": 37.932961,
        "lng": 127.436554
      },
      {
        "lat": 37.931778,
        "lng": 127.43499
      }
    ],
    "color": "#f1b8b2",
    "start_name": "명지2봉 근처 가을단풍",
    "length_meter": 190.0,
    "time_minute": 3
  },
  {
    "path_id": 6,
    "path": [
      {
        "lat": 37.931778,
        "lng": 127.43499
      },
      {
        "lat": 37.933495,
        "lng": 127.431046
      }
    ],
    "color": "#f737c2",
    "start_name": "갈림길",
    "length_meter": 395.1,
    "time_minute": 6
  },
  {
    "path_id": 7,
    "path": [
      {
        "lat": 37.933495,
        "lng": 127.431046
      },
      {
        "lat": 37.937073,
        "lng": 127.430984
      }
    ],
    "color": "#9cf95a",
    "start_name": "명지2봉 에서 바라본 명지산1봉",
    "length_meter": 397.9,
    "time_minute": 6
  },
  {
    "path_id": 8,
    "path": [
      {
        "lat": 37.937073,
        "lng": 127.430984
      },
      {
        "lat": 37.940216,
        "lng": 127.432602
      }
    ],
    "color": "#cef607",
    "start_name": "명지산 정상풍경",
    "length_meter": 377.2,
    "time_minute": 6
  }
]