{
  "max_ele": 1265.378,
  "total_length_km": "7.0km",
  "total_time": "1시간 27분",
  "start_name": "백둔리 종점 버스 정류장",
  "end_name": "백둔리 버스종점 화장실",
  "track": [
    {
      "path_id": 0,
      "path": [
        {
          "lat": 37.908817,
          "lng": 127.444054
        },
        {
          "lat": 37.908916,
          "lng": 127.443939
        }
      ],
      "color": "#5f4524",
      "start_name": "백둔리 종점 버스 정류장",
      "length_meter": 14.9,
      "time_minute": 0
    },
    {
      "path_id": 1,
      "path": [
        {
          "lat": 37.908916,
          "lng": 127.443939
        },
        {
          "lat": 37.911175,
          "lng": 127.440178
        }
      ],
      "color": "#844b86",
      "start_name": "출구 백둔리 버스종점",
      "length_meter": 414.7,
      "time_minute": 5
    },
    {
      "path_id": 2,
      "path": [
        {
          "lat": 37.911175,
          "lng": 127.440178
        },
        {
          "lat": 37.913586,
          "lng": 127.434898
        }
      ],
      "color": "#919da7",
      "start_name": "갈림길",
      "length_meter": 535.2,
      "time_minute": 6
    },
    {
      "path_id": 3,
      "path": [
        {
          "lat": 37.913586,
          "lng": 127.434898
        },
        {
          "lat": 37.914944,
          "lng": 127.429611
        }
      ],
      "color": "#5f9d3d",
      "start_name": "생태보호 안내판 / 갈림길",
      "length_meter": 488.3,
      "time_minute": 8
    },
    {
      "path_id": 4,
      "path": [
        {
          "lat": 37.914944,
          "lng": 127.429611
        },
        {
          "lat": 37.915489,
          "lng": 127.429214
        }
      ],
      "color": "#45978a",
      "start_name": "명지천 / 개울",
      "length_meter": 69.9,
      "time_minute": 1
    },
    {
      "path_id": 5,
      "path": [
        {
          "lat": 37.915489,
          "lng": 127.429214
        },
        {
          "lat": 37.926346,
          "lng": 127.421005
        }
      ],
      "color": "#155e88",
      "start_name": "명지천",
      "length_meter": 1405.7,
      "time_minute": 17
    },
    {
      "path_id": 6,
      "path": [
        {
          "lat": 37.926346,
          "lng": 127.421005
        },
        {
          "lat": 37.929039,
          "lng": 127.42215
        }
      ],
      "color": "#379319",
      "start_name": "갈림길",
      "length_meter": 315.8,
      "time_minute": 3
    },
    {
      "path_id": 7,
      "path": [
        {
          "lat": 37.929039,
          "lng": 127.42215
        },
        {
          "lat": 37.929451,
          "lng": 127.422935
        }
      ],
      "color": "#07336e",
      "start_name": "강우량 자동측정기 / 갈림길",
      "length_meter": 95.9,
      "time_minute": 1
    },
    {
      "path_id": 8,
      "path": [
        {
          "lat": 37.929451,
          "lng": 127.422935
        },
        {
          "lat": 37.929783,
          "lng": 127.425888
        }
      ],
      "color": "#70852a",
      "start_name": "명지3봉",
      "length_meter": 261.6,
      "time_minute": 3
    },
    {
      "path_id": 9,
      "path": [
        {
          "lat": 37.929783,
          "lng": 127.425888
        },
        {
          "lat": 37.931629,
          "lng": 127.430817
        }
      ],
      "color": "#171904",
      "start_name": "야생화",
      "length_meter": 478.6,
      "time_minute": 5
    },
    {
      "path_id": 10,
      "path": [
        {
          "lat": 37.931629,
          "lng": 127.430817
        },
        {
          "lat": 37.931759,
          "lng": 127.432259
        }
      ],
      "color": "#648798",
      "start_name": "명지2봉",
      "length_meter": 127.3,
      "time_minute": 1
    },
    {
      "path_id": 11,
      "path": [
        {
          "lat": 37.931759,
          "lng": 127.432259
        },
        {
          "lat": 37.921608,
          "lng": 127.43853
        }
      ],
      "color": "#46c0a0",
      "start_name": "갈림길",
      "length_meter": 1255.6,
      "time_minute": 15
    },
    {
      "path_id": 12,
      "path": [
        {
          "lat": 37.921608,
          "lng": 127.43853
        },
        {
          "lat": 37.920544,
          "lng": 127.438515
        }
      ],
      "color": "#9aaa77",
      "start_name": "명지천 폭포",
      "length_meter": 118.3,
      "time_minute": 1
    },
    {
      "path_id": 13,
      "path": [
        {
          "lat": 37.920544,
          "lng": 127.438515
        },
        {
          "lat": 37.908928,
          "lng": 127.443413
        }
      ],
      "color": "#883e24",
      "start_name": "갈림길",
      "length_meter": 1361.2,
      "time_minute": 17
    },
    {
      "path_id": 14,
      "path": [
        {
          "lat": 37.908928,
          "lng": 127.443413
        },
        {
          "lat": 37.908932,
          "lng": 127.443993
        }
      ],
      "color": "#6e860d",
      "start_name": "캠핑빌",
      "length_meter": 50.9,
      "time_minute": 0
    }
  ]
}