{
  "max_ele": 1268.672,
  "total_length_km": "5.5km",
  "total_time": "1시간 8분",
  "track": [
    {
      "path_id": 0,
      "path": [
        {
          "lat": 37.936451,
          "lng": 127.481201
        },
        {
          "lat": 37.936462,
          "lng": 127.481155
        }
      ],
      "color": "#258978",
      "start_name": "갈림길",
      "length_meter": 4.2,
      "time_minute": 0
    },
    {
      "path_id": 1,
      "path": [
        {
          "lat": 37.936462,
          "lng": 127.481155
        },
        {
          "lat": 37.933498,
          "lng": 127.45945
        }
      ],
      "color": "#a8409d",
      "start_name": "명지산승천사",
      "length_meter": 1931.9,
      "time_minute": 24
    },
    {
      "path_id": 2,
      "path": [
        {
          "lat": 37.933498,
          "lng": 127.45945
        },
        {
          "lat": 37.934559,
          "lng": 127.448174
        }
      ],
      "color": "#917b8c",
      "start_name": "갈림길 / 명지폭포 국가지점번호 / 명지폭포",
      "length_meter": 1083.2,
      "time_minute": 18
    },
    {
      "path_id": 3,
      "path": [
        {
          "lat": 37.934559,
          "lng": 127.448174
        },
        {
          "lat": 37.935085,
          "lng": 127.445656
        }
      ],
      "color": "#a21c72",
      "start_name": "명지2봉 가는 계곡길",
      "length_meter": 228.4,
      "time_minute": 2
    },
    {
      "path_id": 4,
      "path": [
        {
          "lat": 37.935085,
          "lng": 127.445656
        },
        {
          "lat": 37.935528,
          "lng": 127.443001
        }
      ],
      "color": "#18aa4a",
      "start_name": "통신탑",
      "length_meter": 238.0,
      "time_minute": 2
    },
    {
      "path_id": 5,
      "path": [
        {
          "lat": 37.935528,
          "lng": 127.443001
        },
        {
          "lat": 37.932961,
          "lng": 127.436554
        }
      ],
      "color": "#11c398",
      "start_name": "갈림길",
      "length_meter": 633.4,
      "time_minute": 7
    },
    {
      "path_id": 6,
      "path": [
        {
          "lat": 37.932961,
          "lng": 127.436554
        },
        {
          "lat": 37.931778,
          "lng": 127.43499
        }
      ],
      "color": "#326c7b",
      "start_name": "명지2봉 근처 가을단풍",
      "length_meter": 190.0,
      "time_minute": 2
    },
    {
      "path_id": 7,
      "path": [
        {
          "lat": 37.931778,
          "lng": 127.43499
        },
        {
          "lat": 37.933495,
          "lng": 127.431046
        }
      ],
      "color": "#5e13a9",
      "start_name": "갈림길",
      "length_meter": 395.1,
      "time_minute": 4
    },
    {
      "path_id": 8,
      "path": [
        {
          "lat": 37.933495,
          "lng": 127.431046
        },
        {
          "lat": 37.937073,
          "lng": 127.430984
        }
      ],
      "color": "#83bcb5",
      "start_name": "명지2봉 에서 바라본 명지산1봉",
      "length_meter": 397.9,
      "time_minute": 4
    },
    {
      "path_id": 9,
      "path": [
        {
          "lat": 37.937073,
          "lng": 127.430984
        },
        {
          "lat": 37.940216,
          "lng": 127.432602
        }
      ],
      "color": "#ab7f1e",
      "start_name": "명지산 정상풍경",
      "length_meter": 377.2,
      "time_minute": 4
    }
  ]
}