{
  "max_ele": 988.029,
  "total_length_km": "3.5km",
  "total_time": "0시간 44분",
  "track": [
    {
      "path_id": 0,
      "path": [
        {
          "lat": 37.904221,
          "lng": 127.454338
        },
        {
          "lat": 37.914268,
          "lng": 127.457283
        }
      ],
      "color": "#c52b04",
      "start_name": "백둔봉 입구 / 갈림길",
      "length_meter": 1216.2,
      "time_minute": 19
    },
    {
      "path_id": 1,
      "path": [
        {
          "lat": 37.914268,
          "lng": 127.457283
        },
        {
          "lat": 37.919418,
          "lng": 127.45768
        }
      ],
      "color": "#6d140d",
      "start_name": "능선 위에 멋진 소나무",
      "length_meter": 573.7,
      "time_minute": 7
    },
    {
      "path_id": 2,
      "path": [
        {
          "lat": 37.919418,
          "lng": 127.45768
        },
        {
          "lat": 37.924049,
          "lng": 127.451256
        }
      ],
      "color": "#584c8b",
      "start_name": "갈림길",
      "length_meter": 763.3,
      "time_minute": 9
    },
    {
      "path_id": 3,
      "path": [
        {
          "lat": 37.924049,
          "lng": 127.451256
        },
        {
          "lat": 37.923847,
          "lng": 127.449844
        }
      ],
      "color": "#af93a7",
      "start_name": "백둔봉",
      "length_meter": 125.9,
      "time_minute": 1
    },
    {
      "path_id": 4,
      "path": [
        {
          "lat": 37.923847,
          "lng": 127.449844
        },
        {
          "lat": 37.920033,
          "lng": 127.441475
        }
      ],
      "color": "#5b6b24",
      "start_name": "헬기장",
      "length_meter": 847.8,
      "time_minute": 10
    }
  ]
}