{
    "max_ele": 732.467,
    "track": [
        {
            "path_id": 1,
            "name": "갈림길",
            "lat": 37.695526,
            "lon": 127.009369,
            "ele": 667.236
        },
        {
            "path_id": 2,
            "name": "갈림길",
            "lat": 37.696281,
            "lon": 127.010086,
            "ele": 670.995
        },
        {
            "path_id": 3,
            "name": "쉼터",
            "lat": 37.696297,
            "lon": 127.010216,
            "ele": 675.719
        },
        {
            "path_id": 4,
            "name": "신선대조망",
            "lat": 37.697613,
            "lon": 127.011383,
            "ele": 687.784
        },
        {
            "path_id": 5,
            "name": "포토존",
            "lat": 37.697605,
            "lon": 127.011414,
            "ele": 690.56
        },
        {
            "path_id": 6,
            "name": "조망점",
            "lat": 37.698135,
            "lon": 127.012306,
            "ele": 696.461
        },
        {
            "path_id": 7,
            "name": "갈림길",
            "lat": 37.698261,
            "lon": 127.01268,
            "ele": 696.088
        },
        {
            "path_id": 8,
            "name": "갈림길",
            "lat": 37.699162,
            "lon": 127.015045,
            "ele": 699.201
        },
        {
            "path_id": 9,
            "name": "도봉산신선대",
            "lat": 37.698647,
            "lon": 127.015007,
            "ele": 0.0
        },
        {
            "path_id": 10,
            "name": "선인안전쉼터",
            "lat": 37.697548,
            "lon": 127.016151,
            "ele": 732.467
        },
        {
            "path_id": 11,
            "name": "낙석위험",
            "lat": 37.696957,
            "lon": 127.016449,
            "ele": 678.788
        },
        {
            "path_id": 12,
            "name": "갈림길",
            "lat": 37.695972,
            "lon": 127.016647,
            "ele": 643.154
        },
        {
            "path_id": 13,
            "name": "멧돼지출현주의",
            "lat": 37.695946,
            "lon": 127.016716,
            "ele": 625.866
        },
        {
            "path_id": 14,
            "name": "마당바위쉼터",
            "lat": 37.695175,
            "lon": 127.01722,
            "ele": 581.225
        },
        {
            "path_id": 15,
            "name": "갈림길",
            "lat": 37.694149,
            "lon": 127.017143,
            "ele": 559.453
        },
        {
            "path_id": 16,
            "name": "마당바위",
            "lat": 37.694061,
            "lon": 127.017227,
            "ele": 527.752
        },
        {
            "path_id": 17,
            "name": "갈림길",
            "lat": 37.69389,
            "lon": 127.017616,
            "ele": 503.604
        },
        {
            "path_id": 18,
            "name": "갈림길",
            "lat": 37.691895,
            "lon": 127.01992,
            "ele": 449.119
        },
        {
            "path_id": 19,
            "name": "낙석위험",
            "lat": 37.688606,
            "lon": 127.024437,
            "ele": 284.222
        },
        {
            "path_id": 20,
            "name": "갈림길",
            "lat": 37.68866,
            "lon": 127.025864,
            "ele": 261.296
        },
        {
            "path_id": 21,
            "name": "갈림길",
            "lat": 37.688244,
            "lon": 127.027756,
            "ele": 213.974
        },
        {
            "path_id": 22,
            "name": "간이쉼터",
            "lat": 37.687798,
            "lon": 127.030426,
            "ele": 173.71
        },
        {
            "path_id": 23,
            "name": "간이화장실",
            "lat": 37.687782,
            "lon": 127.030403,
            "ele": 173.236
        },
        {
            "path_id": 24,
            "name": "갈림길",
            "lat": 37.687668,
            "lon": 127.034546,
            "ele": 156.706
        }
    ]
}