[
    {
        "path_id": 1,
        "name": "서귀포자연휴양림 정류장",
        "lat": 33.311928,
        "lon": 126.457382
    },
    {
        "path_id": 2,
        "name": "돌오름길 입구",
        "lat": 33.311893,
        "lon": 126.457359
    },
    {
        "path_id": 3,
        "name": "돌오름길 입구 안내소",
        "lat": 33.31221,
        "lon": 126.455849
    },
    {
        "path_id": 4,
        "name": "돌오름길 입구 화징실",
        "lat": 33.312252,
        "lon": 126.455811
    },
    {
        "path_id": 5,
        "name": "제주조릿대구간",
        "lat": 33.312332,
        "lon": 126.455902
    },
    {
        "path_id": 6,
        "name": "계곡",
        "lat": 33.325329,
        "lon": 126.452011
    },
    {
        "path_id": 7,
        "name": "판삼절리 하천",
        "lat": 33.325291,
        "lon": 126.451843
    },
    {
        "path_id": 8,
        "name": "판상절리 하천",
        "lat": 33.325268,
        "lon": 126.451851
    },
    {
        "path_id": 9,
        "name": "용바위",
        "lat": 33.324928,
        "lon": 126.449638
    },
    {
        "path_id": 10,
        "name": "표고버섯재배장",
        "lat": 33.33176,
        "lon": 126.442581
    },
    {
        "path_id": 11,
        "name": "갈림길",
        "lat": 33.330288,
        "lon": 126.440605
    },
    {
        "path_id": 12,
        "name": "삼나무 군락치",
        "lat": 33.331505,
        "lon": 126.439354
    },
    {
        "path_id": 13,
        "name": "계곡",
        "lat": 33.333439,
        "lon": 126.435097
    },
    {
        "path_id": 14,
        "name": "보림농장삼거리 쉼터",
        "lat": 33.335209,
        "lon": 126.432762
    },
    {
        "path_id": 15,
        "name": "돌오름입구 쉼터",
        "lat": 33.335209,
        "lon": 126.432762
    },
    {
        "path_id": 16,
        "name": "갈림길",
        "lat": 33.33527,
        "lon": 126.432747
    }
]