[
  {
    "path_id": 0,
    "path": [
      {
        "lat": 33.302685,
        "lng": 126.458344
      },
      {
        "lat": 33.302563,
        "lng": 126.458374
      }
    ],
    "color": "#2a02d9",
    "start_point_name": "무오법정사 버스정류장",
    "length": 13,
    "time": "0"
  },
  {
    "path_id": 1,
    "path": [
      {
        "lat": 33.302563,
        "lng": 126.458374
      },
      {
        "lat": 33.302685,
        "lng": 126.458344
      }
    ],
    "color": "#2070c9",
    "start_point_name": "한라산둘레길 입구",
    "length": 13,
    "time": "0"
  },
  {
    "path_id": 2,
    "path": [
      {
        "lat": 33.302685,
        "lng": 126.458344
      },
      {
        "lat": 33.308525,
        "lng": 126.472618
      }
    ],
    "color": "#0bef56",
    "start_point_name": "무오법정사 버스정류장",
    "length": 1476,
    "time": "24"
  },
  {
    "path_id": 3,
    "path": [
      {
        "lat": 33.308525,
        "lng": 126.472618
      },
      {
        "lat": 33.308533,
        "lng": 126.472626
      }
    ],
    "color": "#a4c49f",
    "start_point_name": "무오법정사 함일운동 발원지",
    "length": 1,
    "time": "0"
  },
  {
    "path_id": 4,
    "path": [
      {
        "lat": 33.308533,
        "lng": 126.472626
      },
      {
        "lat": 33.308689,
        "lng": 126.472412
      }
    ],
    "color": "#3e2fba",
    "start_point_name": "동백길 안내센터",
    "length": 26,
    "time": "0"
  },
  {
    "path_id": 5,
    "path": [
      {
        "lat": 33.308689,
        "lng": 126.472412
      },
      {
        "lat": 33.308926,
        "lng": 126.47226
      }
    ],
    "color": "#7f24ab",
    "start_point_name": "동백길 입구 주차장",
    "length": 29,
    "time": "0"
  },
  {
    "path_id": 6,
    "path": [
      {
        "lat": 33.308926,
        "lng": 126.47226
      },
      {
        "lat": 33.308769,
        "lng": 126.472519
      }
    ],
    "color": "#361888",
    "start_point_name": "동백길 입구 화장실",
    "length": 29,
    "time": "0"
  },
  {
    "path_id": 7,
    "path": [
      {
        "lat": 33.308769,
        "lng": 126.472519
      },
      {
        "lat": 33.308788,
        "lng": 126.472549
      }
    ],
    "color": "#14d2be",
    "start_point_name": "동백길 입구",
    "length": 3,
    "time": "0"
  },
  {
    "path_id": 8,
    "path": [
      {
        "lat": 33.308788,
        "lng": 126.472549
      },
      {
        "lat": 33.310757,
        "lng": 126.473442
      }
    ],
    "color": "#a67156",
    "start_point_name": "동백길 입구",
    "length": 234,
    "time": "3"
  },
  {
    "path_id": 9,
    "path": [
      {
        "lat": 33.310757,
        "lng": 126.473442
      },
      {
        "lat": 33.313122,
        "lng": 126.473953
      }
    ],
    "color": "#f0d240",
    "start_point_name": "무오법정사 항일운동 기넘탑",
    "length": 267,
    "time": "4"
  },
  {
    "path_id": 10,
    "path": [
      {
        "lat": 33.313122,
        "lng": 126.473953
      },
      {
        "lat": 33.313354,
        "lng": 126.475883
      }
    ],
    "color": "#222a40",
    "start_point_name": "갈림길 10",
    "length": 181,
    "time": "3"
  },
  {
    "path_id": 11,
    "path": [
      {
        "lat": 33.313354,
        "lng": 126.475883
      },
      {
        "lat": 33.313732,
        "lng": 126.477371
      }
    ],
    "color": "#06b29b",
    "start_point_name": "쉼터",
    "length": 144,
    "time": "2"
  },
  {
    "path_id": 12,
    "path": [
      {
        "lat": 33.313732,
        "lng": 126.477371
      },
      {
        "lat": 33.306374,
        "lng": 126.499504
      }
    ],
    "color": "#d7401d",
    "start_point_name": "둥백나무 군락지",
    "length": 2213,
    "time": "36"
  },
  {
    "path_id": 13,
    "path": [
      {
        "lat": 33.306374,
        "lng": 126.499504
      },
      {
        "lat": 33.306217,
        "lng": 126.501122
      }
    ],
    "color": "#95898c",
    "start_point_name": "갈림길 13",
    "length": 151,
    "time": "2"
  },
  {
    "path_id": 14,
    "path": [
      {
        "lat": 33.306217,
        "lng": 126.501122
      },
      {
        "lat": 33.305984,
        "lng": 126.503197
      }
    ],
    "color": "#651b33",
    "start_point_name": "숯가마터",
    "length": 194,
    "time": "3"
  },
  {
    "path_id": 15,
    "path": [
      {
        "lat": 33.305984,
        "lng": 126.503197
      },
      {
        "lat": 33.310257,
        "lng": 126.513168
      }
    ],
    "color": "#918212",
    "start_point_name": "표고버섯재배지",
    "length": 1041,
    "time": "17"
  },
  {
    "path_id": 16,
    "path": [
      {
        "lat": 33.310257,
        "lng": 126.513168
      },
      {
        "lat": 33.308868,
        "lng": 126.518143
      }
    ],
    "color": "#de0ef8",
    "start_point_name": "4.3주둔소",
    "length": 487,
    "time": "8"
  },
  {
    "path_id": 17,
    "path": [
      {
        "lat": 33.308868,
        "lng": 126.518143
      },
      {
        "lat": 33.308815,
        "lng": 126.518295
      }
    ],
    "color": "#559818",
    "start_point_name": "서귀포 치유의 숲",
    "length": 15,
    "time": "0"
  },
  {
    "path_id": 18,
    "path": [
      {
        "lat": 33.308815,
        "lng": 126.518295
      },
      {
        "lat": 33.308159,
        "lng": 126.527397
      }
    ],
    "color": "#47e2d0",
    "start_point_name": "시오름입구",
    "length": 848,
    "time": "14"
  },
  {
    "path_id": 19,
    "path": [
      {
        "lat": 33.308159,
        "lng": 126.527397
      },
      {
        "lat": 33.310986,
        "lng": 126.535889
      }
    ],
    "color": "#46cce4",
    "start_point_name": "갈림길 19",
    "length": 849,
    "time": "14"
  },
  {
    "path_id": 20,
    "path": [
      {
        "lat": 33.310986,
        "lng": 126.535889
      },
      {
        "lat": 33.310947,
        "lng": 126.536499
      }
    ],
    "color": "#3b77da",
    "start_point_name": "갈림길 20",
    "length": 56,
    "time": "0"
  },
  {
    "path_id": 21,
    "path": [
      {
        "lat": 33.310947,
        "lng": 126.536499
      },
      {
        "lat": 33.310932,
        "lng": 126.536568
      }
    ],
    "color": "#e287fc",
    "start_point_name": "편백나무 군락지 쉼터",
    "length": 6,
    "time": "0"
  },
  {
    "path_id": 22,
    "path": [
      {
        "lat": 33.310932,
        "lng": 126.536568
      },
      {
        "lat": 33.318054,
        "lng": 126.539276
      }
    ],
    "color": "#584aa5",
    "start_point_name": "편백나무 군락지",
    "length": 830,
    "time": "13"
  },
  {
    "path_id": 23,
    "path": [
      {
        "lat": 33.318054,
        "lng": 126.539276
      },
      {
        "lat": 33.322227,
        "lng": 126.545143
      }
    ],
    "color": "#b0056e",
    "start_point_name": "대피소",
    "length": 715,
    "time": "11"
  },
  {
    "path_id": 24,
    "path": [
      {
        "lat": 33.322227,
        "lng": 126.545143
      },
      {
        "lat": 33.322227,
        "lng": 126.547691
      }
    ],
    "color": "#f668d8",
    "start_point_name": "미끄럼 주의",
    "length": 236,
    "time": "3"
  },
  {
    "path_id": 25,
    "path": [
      {
        "lat": 33.322227,
        "lng": 126.547691
      },
      {
        "lat": 33.321854,
        "lng": 126.549698
      }
    ],
    "color": "#42de8b",
    "start_point_name": "미끄럼주의",
    "length": 191,
    "time": "3"
  },
  {
    "path_id": 26,
    "path": [
      {
        "lat": 33.321854,
        "lng": 126.549698
      },
      {
        "lat": 33.319275,
        "lng": 126.563774
      }
    ],
    "color": "#cfb281",
    "start_point_name": "갈림길 26",
    "length": 1338,
    "time": "22"
  },
  {
    "path_id": 27,
    "path": [
      {
        "lat": 33.319275,
        "lng": 126.563774
      },
      {
        "lat": 33.313915,
        "lng": 126.571449
      }
    ],
    "color": "#1d7bc5",
    "start_point_name": "갈림길 27",
    "length": 929,
    "time": "15"
  },
  {
    "path_id": 28,
    "path": [
      {
        "lat": 33.313915,
        "lng": 126.571449
      },
      {
        "lat": 33.313972,
        "lng": 126.571465
      }
    ],
    "color": "#a38a1e",
    "start_point_name": "화장실",
    "length": 6,
    "time": "0"
  },
  {
    "path_id": 29,
    "path": [
      {
        "lat": 33.313972,
        "lng": 126.571465
      },
      {
        "lat": 33.313663,
        "lng": 126.571404
      }
    ],
    "color": "#dece15",
    "start_point_name": "돈내코안내소",
    "length": 34,
    "time": "0"
  },
  {
    "path_id": 30,
    "path": [
      {
        "lat": 33.313663,
        "lng": 126.571404
      },
      {
        "lat": 33.310749,
        "lng": 126.571167
      }
    ],
    "color": "#3cb3c7",
    "start_point_name": "돈내코안내소 입구",
    "length": 324,
    "time": "5"
  },
  {
    "path_id": 31,
    "path": [
      {
        "lat": 33.310749,
        "lng": 126.571167
      },
      {
        "lat": 33.307693,
        "lng": 126.570435
      }
    ],
    "color": "#88dd6a",
    "start_point_name": "돈내코주차장",
    "length": 346,
    "time": "5"
  },
  {
    "path_id": 32,
    "path": [
      {
        "lat": 33.307693,
        "lng": 126.570435
      },
      {
        "lat": 33.307693,
        "lng": 126.570435
      }
    ],
    "color": "#361c8f",
    "start_point_name": "충혼묘지광장",
    "length": 0,
    "time": "0"
  },
  {
    "path_id": 33,
    "path": [
      {
        "lat": 33.307693,
        "lng": 126.570435
      },
      {
        "lat": 33.302685,
        "lng": 126.458344
      }
    ],
    "color": "#7eb7b6",
    "start_point_name": "충혼묘지광장",
    "length": 10431,
    "time": "173"
  },
  {
    "path_id": 34,
    "path": [
      {
        "lat": 33.302685,
        "lng": 126.458344
      },
      {
        "lat": 33.308533,
        "lng": 126.472626
      }
    ],
    "color": "#042400",
    "start_point_name": "무오법정사 버스정류장",
    "length": 1477,
    "time": "24"
  },
  {
    "path_id": 35,
    "path": [
      {
        "lat": 33.308533,
        "lng": 126.472626
      },
      {
        "lat": 33.308788,
        "lng": 126.472549
      }
    ],
    "color": "#a673dc",
    "start_point_name": "동백길 안내센터",
    "length": 29,
    "time": "0"
  },
  {
    "path_id": 36,
    "path": [
      {
        "lat": 33.308788,
        "lng": 126.472549
      },
      {
        "lat": 33.313354,
        "lng": 126.475883
      }
    ],
    "color": "#2bf86c",
    "start_point_name": "동백길 입구",
    "length": 594,
    "time": "9"
  },
  {
    "path_id": 37,
    "path": [
      {
        "lat": 33.313354,
        "lng": 126.475883
      },
      {
        "lat": 33.313972,
        "lng": 126.571465
      }
    ],
    "color": "#7ccaf6",
    "start_point_name": "무오정사 항일발원지 쉼터",
    "length": 8882,
    "time": "148"
  },
  {
    "path_id": 38,
    "path": [
      {
        "lat": 33.313972,
        "lng": 126.571465
      },
      {
        "lat": 33.313663,
        "lng": 126.571404
      }
    ],
    "color": "#bba85e",
    "start_point_name": "돈내코안내소",
    "length": 34,
    "time": "0"
  }
]