[
  {
    "path_id": 0,
    "path": [
      {
        "lat": 33.302685,
        "lng": 126.458344
      },
      {
        "lat": 33.308525,
        "lng": 126.472618
      }
    ],
    "color": "#9e5144",
    "start_name": "무오법정사 버스정류장 / 한라산둘레길 입구 / 무오법정사 버스정류장",
    "length_meter": 1504.6,
    "time_minute": 25
  },
  {
    "path_id": 1,
    "path": [
      {
        "lat": 33.308525,
        "lng": 126.472618
      },
      {
        "lat": 33.308769,
        "lng": 126.472519
      }
    ],
    "color": "#730a5d",
    "start_name": "무오법정사 함일운동 발원지 / 동백길 안내센터 / 동백길 입구 주차장 / 동백길 입구 화장실",
    "length_meter": 87.2,
    "time_minute": 1
  },
  {
    "path_id": 2,
    "path": [
      {
        "lat": 33.308769,
        "lng": 126.472519
      },
      {
        "lat": 33.310757,
        "lng": 126.473442
      }
    ],
    "color": "#813f21",
    "start_name": "동백길 입구",
    "length_meter": 237.1,
    "time_minute": 3
  },
  {
    "path_id": 3,
    "path": [
      {
        "lat": 33.310757,
        "lng": 126.473442
      },
      {
        "lat": 33.313122,
        "lng": 126.473953
      }
    ],
    "color": "#73298f",
    "start_name": "무오법정사 항일운동 기넘탑",
    "length_meter": 267.2,
    "time_minute": 4
  },
  {
    "path_id": 4,
    "path": [
      {
        "lat": 33.313122,
        "lng": 126.473953
      },
      {
        "lat": 33.313354,
        "lng": 126.475883
      }
    ],
    "color": "#b52a8e",
    "start_name": "갈림길",
    "length_meter": 181.2,
    "time_minute": 3
  },
  {
    "path_id": 5,
    "path": [
      {
        "lat": 33.313354,
        "lng": 126.475883
      },
      {
        "lat": 33.313732,
        "lng": 126.477371
      }
    ],
    "color": "#5fb77a",
    "start_name": "쉼터",
    "length_meter": 144.5,
    "time_minute": 2
  },
  {
    "path_id": 6,
    "path": [
      {
        "lat": 33.313732,
        "lng": 126.477371
      },
      {
        "lat": 33.306374,
        "lng": 126.499504
      }
    ],
    "color": "#0929c2",
    "start_name": "둥백나무 군락지",
    "length_meter": 2213.5,
    "time_minute": 36
  },
  {
    "path_id": 7,
    "path": [
      {
        "lat": 33.306374,
        "lng": 126.499504
      },
      {
        "lat": 33.306217,
        "lng": 126.501122
      }
    ],
    "color": "#bb6d29",
    "start_name": "갈림길",
    "length_meter": 151.4,
    "time_minute": 2
  },
  {
    "path_id": 8,
    "path": [
      {
        "lat": 33.306217,
        "lng": 126.501122
      },
      {
        "lat": 33.305984,
        "lng": 126.503197
      }
    ],
    "color": "#710272",
    "start_name": "숯가마터",
    "length_meter": 194.6,
    "time_minute": 3
  },
  {
    "path_id": 9,
    "path": [
      {
        "lat": 33.305984,
        "lng": 126.503197
      },
      {
        "lat": 33.310257,
        "lng": 126.513168
      }
    ],
    "color": "#be547d",
    "start_name": "표고버섯재배지",
    "length_meter": 1041.3,
    "time_minute": 17
  },
  {
    "path_id": 10,
    "path": [
      {
        "lat": 33.310257,
        "lng": 126.513168
      },
      {
        "lat": 33.308868,
        "lng": 126.518143
      }
    ],
    "color": "#72a067",
    "start_name": "4.3주둔소",
    "length_meter": 487.4,
    "time_minute": 8
  },
  {
    "path_id": 11,
    "path": [
      {
        "lat": 33.308868,
        "lng": 126.518143
      },
      {
        "lat": 33.308815,
        "lng": 126.518295
      }
    ],
    "color": "#566709",
    "start_name": "서귀포 치유의 숲",
    "length_meter": 15.3,
    "time_minute": 0
  },
  {
    "path_id": 12,
    "path": [
      {
        "lat": 33.308815,
        "lng": 126.518295
      },
      {
        "lat": 33.308159,
        "lng": 126.527397
      }
    ],
    "color": "#91667f",
    "start_name": "시오름입구",
    "length_meter": 849.0,
    "time_minute": 14
  },
  {
    "path_id": 13,
    "path": [
      {
        "lat": 33.308159,
        "lng": 126.527397
      },
      {
        "lat": 33.310947,
        "lng": 126.536499
      }
    ],
    "color": "#38b169",
    "start_name": "갈림길",
    "length_meter": 900.8,
    "time_minute": 15
  },
  {
    "path_id": 14,
    "path": [
      {
        "lat": 33.310947,
        "lng": 126.536499
      },
      {
        "lat": 33.318054,
        "lng": 126.539276
      }
    ],
    "color": "#6313b9",
    "start_name": "편백나무 군락지 쉼터 / 편백나무 군락지",
    "length_meter": 837.6,
    "time_minute": 13
  },
  {
    "path_id": 15,
    "path": [
      {
        "lat": 33.318054,
        "lng": 126.539276
      },
      {
        "lat": 33.322227,
        "lng": 126.545143
      }
    ],
    "color": "#018f1a",
    "start_name": "대피소",
    "length_meter": 715.9,
    "time_minute": 11
  },
  {
    "path_id": 16,
    "path": [
      {
        "lat": 33.322227,
        "lng": 126.545143
      },
      {
        "lat": 33.321854,
        "lng": 126.549698
      }
    ],
    "color": "#102428",
    "start_name": "미끄럼 주의",
    "length_meter": 425.3,
    "time_minute": 7
  },
  {
    "path_id": 17,
    "path": [
      {
        "lat": 33.321854,
        "lng": 126.549698
      },
      {
        "lat": 33.313972,
        "lng": 126.571465
      }
    ],
    "color": "#20750d",
    "start_name": "갈림길",
    "length_meter": 2204.3,
    "time_minute": 36
  },
  {
    "path_id": 18,
    "path": [
      {
        "lat": 33.313972,
        "lng": 126.571465
      },
      {
        "lat": 33.310749,
        "lng": 126.571167
      }
    ],
    "color": "#895ebc",
    "start_name": "돈내코안내소 / 돈내코안내소 입구",
    "length_meter": 359.6,
    "time_minute": 5
  },
  {
    "path_id": 19,
    "path": [
      {
        "lat": 33.310749,
        "lng": 126.571167
      },
      {
        "lat": 33.307693,
        "lng": 126.570435
      }
    ],
    "color": "#7f5a32",
    "start_name": "돈내코주차장",
    "length_meter": 346.6,
    "time_minute": 5
  },
  {
    "path_id": 20,
    "path": [
      {
        "lat": 33.307693,
        "lng": 126.570435
      },
      {
        "lat": 33.302685,
        "lng": 126.458344
      }
    ],
    "color": "#af8e6c",
    "start_name": "충혼묘지광장",
    "length_meter": 10431.7,
    "time_minute": 173
  },
  {
    "path_id": 21,
    "path": [
      {
        "lat": 33.302685,
        "lng": 126.458344
      },
      {
        "lat": 33.308533,
        "lng": 126.472626
      }
    ],
    "color": "#5d55b8",
    "start_name": "무오법정사 버스정류장",
    "length_meter": 1478.0,
    "time_minute": 24
  },
  {
    "path_id": 22,
    "path": [
      {
        "lat": 33.308533,
        "lng": 126.472626
      },
      {
        "lat": 33.313354,
        "lng": 126.475883
      }
    ],
    "color": "#80c437",
    "start_name": "동백길 안내센터 / 동백길 입구",
    "length_meter": 624.0,
    "time_minute": 10
  },
  {
    "path_id": 23,
    "path": [
      {
        "lat": 33.313354,
        "lng": 126.475883
      },
      {
        "lat": 33.313972,
        "lng": 126.571465
      }
    ],
    "color": "#8a039d",
    "start_name": "무오정사 항일발원지 쉼터",
    "length_meter": 8882.0,
    "time_minute": 148
  },
  {
    "path_id": 24,
    "path": [
      {
        "lat": 33.313972,
        "lng": 126.571465
      },
      {
        "lat": 33.313663,
        "lng": 126.571404
      }
    ],
    "color": "#bd2725",
    "start_name": "돈내코안내소",
    "length_meter": 34.8,
    "time_minute": 0
  }
]