{
  "max_ele": 1938.703,
  "total_length_km": "16.7km",
  "total_time": "3시간 29분",
  "start_name": "281번",
  "end_name": "관음사음식점",
  "track": [
    {
      "path_id": 0,
      "path": [
        {
          "lat": 33.384693,
          "lng": 126.620377
        },
        {
          "lat": 33.384819,
          "lng": 126.61956
        }
      ],
      "color": "#0f4240",
      "start_name": "281번 / 성판악주차장 / 성판악 매점 / 국립공원사무소",
      "length_meter": 80.9,
      "time_minute": 1
    },
    {
      "path_id": 1,
      "path": [
        {
          "lat": 33.384819,
          "lng": 126.61956
        },
        {
          "lat": 33.382648,
          "lng": 126.606216
        }
      ],
      "color": "#a7bc27",
      "start_name": "한라산 성판악 들머리",
      "length_meter": 1262.3,
      "time_minute": 15
    },
    {
      "path_id": 2,
      "path": [
        {
          "lat": 33.382648,
          "lng": 126.606216
        },
        {
          "lat": 33.380131,
          "lng": 126.581253
        }
      ],
      "color": "#055d8f",
      "start_name": "쉼터",
      "length_meter": 2334.7,
      "time_minute": 29
    },
    {
      "path_id": 3,
      "path": [
        {
          "lat": 33.380131,
          "lng": 126.581253
        },
        {
          "lat": 33.377567,
          "lng": 126.571495
        }
      ],
      "color": "#460b15",
      "start_name": "속밭대피소",
      "length_meter": 949.9,
      "time_minute": 11
    },
    {
      "path_id": 4,
      "path": [
        {
          "lat": 33.377567,
          "lng": 126.571495
        },
        {
          "lat": 33.373276,
          "lng": 126.568733
        }
      ],
      "color": "#c2bbac",
      "start_name": "쉼터",
      "length_meter": 541.7,
      "time_minute": 6
    },
    {
      "path_id": 5,
      "path": [
        {
          "lat": 33.373276,
          "lng": 126.568733
        },
        {
          "lat": 33.371281,
          "lng": 126.569962
        }
      ],
      "color": "#8fc42c",
      "start_name": "갈림길",
      "length_meter": 249.5,
      "time_minute": 3
    },
    {
      "path_id": 6,
      "path": [
        {
          "lat": 33.371281,
          "lng": 126.569962
        },
        {
          "lat": 33.370052,
          "lng": 126.5718
        }
      ],
      "color": "#ac43c1",
      "start_name": "사라오름",
      "length_meter": 218.6,
      "time_minute": 2
    },
    {
      "path_id": 7,
      "path": [
        {
          "lat": 33.370052,
          "lng": 126.5718
        },
        {
          "lat": 33.37249,
          "lng": 126.566399
        }
      ],
      "color": "#a48061",
      "start_name": "사라오름 전망대 조망",
      "length_meter": 570.1,
      "time_minute": 7
    },
    {
      "path_id": 8,
      "path": [
        {
          "lat": 33.37249,
          "lng": 126.566399
        },
        {
          "lat": 33.369617,
          "lng": 126.55584
        }
      ],
      "color": "#536852",
      "start_name": "쉼터",
      "length_meter": 1031.3,
      "time_minute": 12
    },
    {
      "path_id": 9,
      "path": [
        {
          "lat": 33.369617,
          "lng": 126.55584
        },
        {
          "lat": 33.361015,
          "lng": 126.535667
        }
      ],
      "color": "#536572",
      "start_name": "진달래밭대피소",
      "length_meter": 2103.5,
      "time_minute": 26
    },
    {
      "path_id": 10,
      "path": [
        {
          "lat": 33.361015,
          "lng": 126.535667
        },
        {
          "lat": 33.363472,
          "lng": 126.534637
        }
      ],
      "color": "#860b2b",
      "start_name": "한라산 백록담",
      "length_meter": 289.5,
      "time_minute": 3
    },
    {
      "path_id": 11,
      "path": [
        {
          "lat": 33.363472,
          "lng": 126.534637
        },
        {
          "lat": 33.369816,
          "lng": 126.533279
        }
      ],
      "color": "#b38f2a",
      "start_name": "조망",
      "length_meter": 716.6,
      "time_minute": 8
    },
    {
      "path_id": 12,
      "path": [
        {
          "lat": 33.369816,
          "lng": 126.533279
        },
        {
          "lat": 33.372219,
          "lng": 126.530083
        }
      ],
      "color": "#1060c1",
      "start_name": "용진각 대피소 자리",
      "length_meter": 399.3,
      "time_minute": 4
    },
    {
      "path_id": 13,
      "path": [
        {
          "lat": 33.372219,
          "lng": 126.530083
        },
        {
          "lat": 33.376408,
          "lng": 126.530624
        }
      ],
      "color": "#336817",
      "start_name": "용진각 현수교 / 약수터",
      "length_meter": 494.9,
      "time_minute": 7
    },
    {
      "path_id": 14,
      "path": [
        {
          "lat": 33.376408,
          "lng": 126.530624
        },
        {
          "lat": 33.376644,
          "lng": 126.530655
        }
      ],
      "color": "#c15675",
      "start_name": "삼각봉 대피소",
      "length_meter": 26.4,
      "time_minute": 0
    },
    {
      "path_id": 15,
      "path": [
        {
          "lat": 33.376644,
          "lng": 126.530655
        },
        {
          "lat": 33.392406,
          "lng": 126.537735
        }
      ],
      "color": "#1b5317",
      "start_name": "삼각봉",
      "length_meter": 1871.9,
      "time_minute": 23
    },
    {
      "path_id": 16,
      "path": [
        {
          "lat": 33.392406,
          "lng": 126.537735
        },
        {
          "lat": 33.401062,
          "lng": 126.540283
        }
      ],
      "color": "#8ebc58",
      "start_name": "갈림길",
      "length_meter": 991.1,
      "time_minute": 12
    },
    {
      "path_id": 17,
      "path": [
        {
          "lat": 33.401062,
          "lng": 126.540283
        },
        {
          "lat": 33.404606,
          "lng": 126.542137
        }
      ],
      "color": "#92712b",
      "start_name": "쉼터",
      "length_meter": 430.0,
      "time_minute": 5
    },
    {
      "path_id": 18,
      "path": [
        {
          "lat": 33.404606,
          "lng": 126.542137
        },
        {
          "lat": 33.411293,
          "lng": 126.547455
        }
      ],
      "color": "#99902c",
      "start_name": "숯가마터 / 쉼터",
      "length_meter": 892.5,
      "time_minute": 14
    },
    {
      "path_id": 19,
      "path": [
        {
          "lat": 33.411293,
          "lng": 126.547455
        },
        {
          "lat": 33.421261,
          "lng": 126.549973
        }
      ],
      "color": "#7c0a3f",
      "start_name": "구린굴",
      "length_meter": 1132.8,
      "time_minute": 14
    },
    {
      "path_id": 20,
      "path": [
        {
          "lat": 33.421261,
          "lng": 126.549973
        },
        {
          "lat": 33.421856,
          "lng": 126.550606
        }
      ],
      "color": "#b25b05",
      "start_name": "관음사사지구 탐방지원센터",
      "length_meter": 88.5,
      "time_minute": 1
    },
    {
      "path_id": 21,
      "path": [
        {
          "lat": 33.421856,
          "lng": 126.550606
        },
        {
          "lat": 33.422028,
          "lng": 126.550087
        }
      ],
      "color": "#547a28",
      "start_name": "국립공원관리사무소",
      "length_meter": 51.8,
      "time_minute": 0
    }
  ]
}