[
  {
    "path_id": 0,
    "path": [
      {
        "lat": 33.384693,
        "lng": 126.620377
      },
      {
        "lat": 33.384819,
        "lng": 126.61956
      }
    ],
    "color": "#41b915",
    "start_name": "281번 / 성판악주차장 / 성판악 매점 / 국립공원사무소",
    "length_meter": 80.9,
    "time_minute": 1
  },
  {
    "path_id": 1,
    "path": [
      {
        "lat": 33.384819,
        "lng": 126.61956
      },
      {
        "lat": 33.380131,
        "lng": 126.581253
      }
    ],
    "color": "#1aaeba",
    "start_name": "한라산 성판악 들머리",
    "length_meter": 3594.8,
    "time_minute": 59
  },
  {
    "path_id": 2,
    "path": [
      {
        "lat": 33.380131,
        "lng": 126.581253
      },
      {
        "lat": 33.373276,
        "lng": 126.568733
      }
    ],
    "color": "#57706a",
    "start_name": "속밭대피소",
    "length_meter": 1390.2,
    "time_minute": 23
  },
  {
    "path_id": 3,
    "path": [
      {
        "lat": 33.373276,
        "lng": 126.568733
      },
      {
        "lat": 33.371281,
        "lng": 126.569962
      }
    ],
    "color": "#9d3ac7",
    "start_name": "갈림길",
    "length_meter": 249.5,
    "time_minute": 4
  },
  {
    "path_id": 4,
    "path": [
      {
        "lat": 33.371281,
        "lng": 126.569962
      },
      {
        "lat": 33.370052,
        "lng": 126.5718
      }
    ],
    "color": "#0912b6",
    "start_name": "사라오름",
    "length_meter": 218.6,
    "time_minute": 3
  },
  {
    "path_id": 5,
    "path": [
      {
        "lat": 33.370052,
        "lng": 126.5718
      },
      {
        "lat": 33.369617,
        "lng": 126.55584
      }
    ],
    "color": "#1f3472",
    "start_name": "사라오름 전망대 조망",
    "length_meter": 1482.9,
    "time_minute": 24
  },
  {
    "path_id": 6,
    "path": [
      {
        "lat": 33.369617,
        "lng": 126.55584
      },
      {
        "lat": 33.361015,
        "lng": 126.535667
      }
    ],
    "color": "#571734",
    "start_name": "진달래밭대피소",
    "length_meter": 2103.5,
    "time_minute": 35
  },
  {
    "path_id": 7,
    "path": [
      {
        "lat": 33.361015,
        "lng": 126.535667
      },
      {
        "lat": 33.363472,
        "lng": 126.534637
      }
    ],
    "color": "#442a0f",
    "start_name": "한라산 백록담",
    "length_meter": 289.5,
    "time_minute": 4
  },
  {
    "path_id": 8,
    "path": [
      {
        "lat": 33.363472,
        "lng": 126.534637
      },
      {
        "lat": 33.369816,
        "lng": 126.533279
      }
    ],
    "color": "#560227",
    "start_name": "조망",
    "length_meter": 716.6,
    "time_minute": 11
  },
  {
    "path_id": 9,
    "path": [
      {
        "lat": 33.369816,
        "lng": 126.533279
      },
      {
        "lat": 33.372219,
        "lng": 126.530083
      }
    ],
    "color": "#a6696e",
    "start_name": "용진각 대피소 자리",
    "length_meter": 399.3,
    "time_minute": 6
  },
  {
    "path_id": 10,
    "path": [
      {
        "lat": 33.372219,
        "lng": 126.530083
      },
      {
        "lat": 33.372665,
        "lng": 126.529587
      }
    ],
    "color": "#558129",
    "start_name": "용진각 현수교",
    "length_meter": 67.7,
    "time_minute": 1
  },
  {
    "path_id": 11,
    "path": [
      {
        "lat": 33.372665,
        "lng": 126.529587
      },
      {
        "lat": 33.376408,
        "lng": 126.530624
      }
    ],
    "color": "#aa22b2",
    "start_name": "약수터",
    "length_meter": 427.2,
    "time_minute": 7
  },
  {
    "path_id": 12,
    "path": [
      {
        "lat": 33.376408,
        "lng": 126.530624
      },
      {
        "lat": 33.376644,
        "lng": 126.530655
      }
    ],
    "color": "#8fc53f",
    "start_name": "삼각봉 대피소",
    "length_meter": 26.4,
    "time_minute": 0
  },
  {
    "path_id": 13,
    "path": [
      {
        "lat": 33.376644,
        "lng": 126.530655
      },
      {
        "lat": 33.392406,
        "lng": 126.537735
      }
    ],
    "color": "#53b285",
    "start_name": "삼각봉",
    "length_meter": 1871.9,
    "time_minute": 31
  },
  {
    "path_id": 14,
    "path": [
      {
        "lat": 33.392406,
        "lng": 126.537735
      },
      {
        "lat": 33.404606,
        "lng": 126.542137
      }
    ],
    "color": "#3c544d",
    "start_name": "갈림길",
    "length_meter": 1416.8,
    "time_minute": 23
  },
  {
    "path_id": 15,
    "path": [
      {
        "lat": 33.404606,
        "lng": 126.542137
      },
      {
        "lat": 33.411293,
        "lng": 126.547455
      }
    ],
    "color": "#664a2c",
    "start_name": "숯가마터",
    "length_meter": 892.5,
    "time_minute": 14
  },
  {
    "path_id": 16,
    "path": [
      {
        "lat": 33.411293,
        "lng": 126.547455
      },
      {
        "lat": 33.421261,
        "lng": 126.549973
      }
    ],
    "color": "#200f70",
    "start_name": "구린굴",
    "length_meter": 1132.8,
    "time_minute": 18
  },
  {
    "path_id": 17,
    "path": [
      {
        "lat": 33.421261,
        "lng": 126.549973
      },
      {
        "lat": 33.421856,
        "lng": 126.550606
      }
    ],
    "color": "#19612b",
    "start_name": "관음사사지구 탐방지원센터",
    "length_meter": 88.5,
    "time_minute": 1
  },
  {
    "path_id": 18,
    "path": [
      {
        "lat": 33.421856,
        "lng": 126.550606
      },
      {
        "lat": 33.422028,
        "lng": 126.550087
      }
    ],
    "color": "#02c377",
    "start_name": "국립공원관리사무소",
    "length_meter": 51.8,
    "time_minute": 0
  }
]