[
    {
        "name": "칠연계곡. 동엽령 시작 버스 종점",
        "lat": 35.839462,
        "lon": 127.690956
    },
    {
        "name": "통안 시내버스 정류장",
        "lat": 35.839451,
        "lon": 127.690979
    },
    {
        "name": "윤식당",
        "lat": 35.839298,
        "lon": 127.691307
    },
    {
        "name": "늘푸른식당",
        "lat": 35.838905,
        "lon": 127.691902
    },
    {
        "name": "안성탐방지원센터 주차장",
        "lat": 35.838058,
        "lon": 127.699928
    },
    {
        "name": "안성탐방지원센터 화장실",
        "lat": 35.837906,
        "lon": 127.700165
    },
    {
        "name": "안성탐방지원센터",
        "lat": 35.837887,
        "lon": 127.700172
    },
    {
        "name": "갈림길",
        "lat": 35.837631,
        "lon": 127.700302
    },
    {
        "name": "벤취",
        "lat": 35.835529,
        "lon": 127.709389
    },
    {
        "name": "벤취",
        "lat": 35.833893,
        "lon": 127.710381
    },
    {
        "name": "갈림길",
        "lat": 35.833458,
        "lon": 127.710632
    },
    {
        "name": "간이화장실",
        "lat": 35.833328,
        "lon": 127.710609
    },
    {
        "name": "칠연폭포",
        "lat": 35.831696,
        "lon": 127.711433
    },
    {
        "name": "이정표",
        "lat": 35.831818,
        "lon": 127.719719
    },
    {
        "name": "이정표",
        "lat": 35.831142,
        "lon": 127.726288
    },
    {
        "name": "이정표",
        "lat": 35.829395,
        "lon": 127.733841
    },
    {
        "name": "갈림길",
        "lat": 35.827244,
        "lon": 127.739182
    },
    {
        "name": "긴급재난 안전쉼터",
        "lat": 35.82719,
        "lon": 127.739227
    },
    {
        "name": "갈림길",
        "lat": 35.843819,
        "lon": 127.745018
    },
    {
        "name": "이정표",
        "lat": 35.843822,
        "lon": 127.745056
    },
    {
        "name": "구급함",
        "lat": 35.843914,
        "lon": 127.745056
    }
]