{
    "max_ele": 654.68,
    "track": [
        {
            "path_id": 1,
            "name": "사려니숲길 정류소",
            "lat": 33.423141,
            "lon": 126.627083,
            "ele": 628.567
        },
        {
            "path_id": 2,
            "name": "사려니숲길 입구 쉼터",
            "lat": 33.422638,
            "lon": 126.626442,
            "ele": 623.012
        },
        {
            "path_id": 3,
            "name": "사려니숲길 입구 화장실",
            "lat": 33.422489,
            "lon": 126.626915,
            "ele": 623.948
        },
        {
            "path_id": 4,
            "name": "사려니숲길 탐방안내소",
            "lat": 33.422546,
            "lon": 126.626511,
            "ele": 621.779
        },
        {
            "path_id": 5,
            "name": "갈림길",
            "lat": 33.421295,
            "lon": 126.626381,
            "ele": 622.406
        },
        {
            "path_id": 6,
            "name": "쉼터",
            "lat": 33.420338,
            "lon": 126.627304,
            "ele": 626.34
        },
        {
            "path_id": 7,
            "name": "쉼터",
            "lat": 33.419724,
            "lon": 126.628693,
            "ele": 621.554
        },
        {
            "path_id": 8,
            "name": "갈림길",
            "lat": 33.419743,
            "lon": 126.628723,
            "ele": 622.427
        },
        {
            "path_id": 9,
            "name": "갈림길",
            "lat": 33.419506,
            "lon": 126.628914,
            "ele": 619.548
        },
        {
            "path_id": 10,
            "name": "천미천",
            "lat": 33.417751,
            "lon": 126.634567,
            "ele": 583.254
        },
        {
            "path_id": 11,
            "name": "천미천앞 화장실",
            "lat": 33.417507,
            "lon": 126.634964,
            "ele": 583.572
        },
        {
            "path_id": 12,
            "name": "쉼터",
            "lat": 33.417274,
            "lon": 126.637779,
            "ele": 580.405
        },
        {
            "path_id": 13,
            "name": "서어나무",
            "lat": 33.417244,
            "lon": 126.63826,
            "ele": 581.344
        },
        {
            "path_id": 14,
            "name": "이나무",
            "lat": 33.415733,
            "lon": 126.642761,
            "ele": 576.965
        },
        {
            "path_id": 15,
            "name": "쉼터",
            "lat": 33.415161,
            "lon": 126.643547,
            "ele": 568.866
        },
        {
            "path_id": 16,
            "name": "개서어나무",
            "lat": 33.413013,
            "lon": 126.646225,
            "ele": 579.538
        },
        {
            "path_id": 17,
            "name": "누리장나무",
            "lat": 33.411949,
            "lon": 126.646439,
            "ele": 585.993
        },
        {
            "path_id": 18,
            "name": "산악기상관측장비",
            "lat": 33.411819,
            "lon": 126.646416,
            "ele": 586.758
        },
        {
            "path_id": 19,
            "name": "쉼터",
            "lat": 33.410984,
            "lon": 126.646698,
            "ele": 593.875
        },
        {
            "path_id": 20,
            "name": "산악기상관측장비",
            "lat": 33.411819,
            "lon": 126.646416,
            "ele": 586.758
        },
        {
            "path_id": 21,
            "name": "조릿대",
            "lat": 33.400517,
            "lon": 126.646088,
            "ele": 636.078
        },
        {
            "path_id": 22,
            "name": "쉼터",
            "lat": 33.400425,
            "lon": 126.64579,
            "ele": 637.68
        },
        {
            "path_id": 23,
            "name": "사려니숲길 탐방안내소/사려니숲길 입구",
            "lat": 33.422546,
            "lon": 126.626511,
            "ele": 621.779
        },
        {
            "path_id": 24,
            "name": "쉼터",
            "lat": 33.395603,
            "lon": 126.644783,
            "ele": 643.598
        },
        {
            "path_id": 25,
            "name": "쉼터",
            "lat": 33.395233,
            "lon": 126.644753,
            "ele": 643.54
        },
        {
            "path_id": 26,
            "name": "멧돼지출몰지역",
            "lat": 33.395226,
            "lon": 126.644745,
            "ele": 644.041
        },
        {
            "path_id": 27,
            "name": "물찻오름",
            "lat": 33.395123,
            "lon": 126.644775,
            "ele": 643.988
        },
        {
            "path_id": 28,
            "name": "물찻오름 안내소",
            "lat": 33.395096,
            "lon": 126.644814,
            "ele": 645.489
        },
        {
            "path_id": 29,
            "name": "물찻오름 앞 쉼터",
            "lat": 33.395065,
            "lon": 126.644814,
            "ele": 645.385
        },
        {
            "path_id": 30,
            "name": "물찻오름 입구 앞 화장실",
            "lat": 33.39468,
            "lon": 126.644318,
            "ele": 646.318
        },
        {
            "path_id": 31,
            "name": "물찻오름 입구",
            "lat": 33.39492,
            "lon": 126.644806,
            "ele": 645.03
        },
        {
            "path_id": 32,
            "name": "쉼터",
            "lat": 33.392937,
            "lon": 126.642288,
            "ele": 654.68
        },
        {
            "path_id": 33,
            "name": "쉼터",
            "lat": 33.392826,
            "lon": 126.645203,
            "ele": 646.641
        },
        {
            "path_id": 34,
            "name": "쉼터",
            "lat": 33.391979,
            "lon": 126.646011,
            "ele": 639.525
        },
        {
            "path_id": 35,
            "name": "꽝꽝나무",
            "lat": 33.391506,
            "lon": 126.646477,
            "ele": 636.14
        },
        {
            "path_id": 36,
            "name": "쉼터",
            "lat": 33.390976,
            "lon": 126.647736,
            "ele": 623.379
        },
        {
            "path_id": 37,
            "name": "쉼터",
            "lat": 33.390984,
            "lon": 126.650604,
            "ele": 597.522
        },
        {
            "path_id": 39,
            "name": "쉼터",
            "lat": 33.390125,
            "lon": 126.652702,
            "ele": 589.247
        },
        {
            "path_id": 40,
            "name": "산림세라피",
            "lat": 33.390434,
            "lon": 126.653816,
            "ele": 585.471
        },
        {
            "path_id": 41,
            "name": "쉼터",
            "lat": 33.390629,
            "lon": 126.654358,
            "ele": 585.099
        },
        {
            "path_id": 42,
            "name": "갈림길",
            "lat": 33.391327,
            "lon": 126.65564,
            "ele": 582.861
        },
        {
            "path_id": 43,
            "name": "월든삼거리 쉼터",
            "lat": 33.391277,
            "lon": 126.655579,
            "ele": 583.985
        },
        {
            "path_id": 44,
            "name": "월든삼거리 삼나무숲",
            "lat": 33.39127,
            "lon": 126.655548,
            "ele": 586.268
        },
        {
            "path_id": 45,
            "name": "쉼터",
            "lat": 33.392582,
            "lon": 126.658287,
            "ele": 578.491
        },
        {
            "path_id": 46,
            "name": "쉼터",
            "lat": 33.394276,
            "lon": 126.660378,
            "ele": 568.148
        },
        {
            "path_id": 47,
            "name": "갈림길",
            "lat": 33.394665,
            "lon": 126.660973,
            "ele": 567.801
        },
        {
            "path_id": 48,
            "name": "가친오름 입구 쉼터",
            "lat": 33.394676,
            "lon": 126.661018,
            "ele": 569.578
        },
        {
            "path_id": 49,
            "name": "쉼터",
            "lat": 33.397621,
            "lon": 126.669228,
            "ele": 537.072
        },
        {
            "path_id": 50,
            "name": "쉼터",
            "lat": 33.395638,
            "lon": 126.672752,
            "ele": 529.034
        },
        {
            "path_id": 51,
            "name": "쉼터",
            "lat": 33.39402,
            "lon": 126.67437,
            "ele": 522.743
        },
        {
            "path_id": 52,
            "name": "쉼터",
            "lat": 33.393204,
            "lon": 126.676109,
            "ele": 516.639
        },
        {
            "path_id": 53,
            "name": "갈림길",
            "lat": 33.393158,
            "lon": 126.676308,
            "ele": 520.031
        },
        {
            "path_id": 54,
            "name": "가수기목",
            "lat": 33.39291,
            "lon": 126.676628,
            "ele": 520.23
        },
        {
            "path_id": 55,
            "name": "쉼터",
            "lat": 33.391506,
            "lon": 126.677124,
            "ele": 515.497
        },
        {
            "path_id": 56,
            "name": "쉼터",
            "lat": 33.392166,
            "lon": 126.67897,
            "ele": 497.442
        },
        {
            "path_id": 57,
            "name": "삼나무숲길 포토존",
            "lat": 33.392227,
            "lon": 126.679161,
            "ele": 499.594
        },
        {
            "path_id": 58,
            "name": "삼나무숲길 포토존2",
            "lat": 33.39257,
            "lon": 126.679726,
            "ele": 493.93
        },
        {
            "path_id": 59,
            "name": "삼나무숲길 포토존1",
            "lat": 33.392227,
            "lon": 126.679161,
            "ele": 499.594
        },
        {
            "path_id": 60,
            "name": "미로숲길 입구",
            "lat": 33.393089,
            "lon": 126.680328,
            "ele": 495.135
        },
        {
            "path_id": 61,
            "name": "산수국",
            "lat": 33.393517,
            "lon": 126.68132,
            "ele": 505.743
        },
        {
            "path_id": 62,
            "name": "쉼터",
            "lat": 33.393536,
            "lon": 126.68132,
            "ele": 504.621
        },
        {
            "path_id": 63,
            "name": "산수국",
            "lat": 33.393517,
            "lon": 126.68132,
            "ele": 505.743
        },
        {
            "path_id": 64,
            "name": "미로숲길",
            "lat": 33.395027,
            "lon": 126.68277,
            "ele": 494.189
        },
        {
            "path_id": 65,
            "name": "미로숲길 쉼터",
            "lat": 33.394955,
            "lon": 126.682724,
            "ele": 494.527
        },
        {
            "path_id": 66,
            "name": "미로숲길 쉼터/열린무대",
            "lat": 33.394955,
            "lon": 126.682724,
            "ele": 494.527
        },
        {
            "path_id": 67,
            "name": "사려니숲 무장애나눔길",
            "lat": 33.3951,
            "lon": 126.682755,
            "ele": 497.817
        },
        {
            "path_id": 68,
            "name": "쉼터",
            "lat": 33.394901,
            "lon": 126.684013,
            "ele": 494.321
        },
        {
            "path_id": 69,
            "name": "한라산둘레길 숲길센터 화장실",
            "lat": 33.394981,
            "lon": 126.68457,
            "ele": 492.468
        },
        {
            "path_id": 70,
            "name": "한라산둘레길 숲길센터",
            "lat": 33.395073,
            "lon": 126.684906,
            "ele": 493.44
        },
        {
            "path_id": 71,
            "name": "사려니숲길 붉은오름 입출구",
            "lat": 33.395027,
            "lon": 126.684921,
            "ele": 491.335
        },
        {
            "path_id": 72,
            "name": "사려니숲길 붉은오름 입출구",
            "lat": 33.395027,
            "lon": 126.684921,
            "ele": 491.335
        },
        {
            "path_id": 73,
            "name": "붉은오름 정류소",
            "lat": 33.395298,
            "lon": 126.685043,
            "ele": 493.425
        }
    ]
}