[
    {
        "name": "영실입구 정류소",
        "lat": 33.333065,
        "lon": 126.459602
    },
    {
        "name": "보림농장삼거리 진입로",
        "lat": 33.336613,
        "lon": 126.455345
    },
    {
        "name": "갈림길 3",
        "lat": 33.345387,
        "lon": 126.444435
    },
    {
        "name": "천아숲길 입출구",
        "lat": 33.345455,
        "lon": 126.444427
    },
    {
        "name": "보림농장삼거리 쉼터",
        "lat": 33.34552,
        "lon": 126.444374
    },
    {
        "name": "표고버섯재배장",
        "lat": 33.346794,
        "lon": 126.443054
    },
    {
        "name": "천아숲길 바위",
        "lat": 33.350464,
        "lon": 126.441742
    },
    {
        "name": "표고버섯재배장",
        "lat": 33.350929,
        "lon": 126.43763
    },
    {
        "name": "갈림길 9",
        "lat": 33.350769,
        "lon": 126.437828
    },
    {
        "name": "갈림길 10",
        "lat": 33.350769,
        "lon": 126.437828
    },
    {
        "name": "갈림길 11",
        "lat": 33.354832,
        "lon": 126.436096
    },
    {
        "name": "삼나무군락지",
        "lat": 33.361633,
        "lon": 126.436813
    },
    {
        "name": "삼나무군락지",
        "lat": 33.362843,
        "lon": 126.439499
    },
    {
        "name": "갈림길 14",
        "lat": 33.368027,
        "lon": 126.444138
    },
    {
        "name": "삼나무군락지",
        "lat": 33.373531,
        "lon": 126.450897
    },
    {
        "name": "삼나무군락지",
        "lat": 33.375813,
        "lon": 126.449501
    },
    {
        "name": "갈림길 17",
        "lat": 33.377228,
        "lon": 126.447578
    },
    {
        "name": "삼나무군락지",
        "lat": 33.383232,
        "lon": 126.448509
    },
    {
        "name": "제주조릿대",
        "lat": 33.385471,
        "lon": 126.451744
    },
    {
        "name": "제주조릿대 관리구역",
        "lat": 33.385471,
        "lon": 126.451744
    },
    {
        "name": "갈림길 20",
        "lat": 33.390854,
        "lon": 126.452812
    },
    {
        "name": "미끄럼주의",
        "lat": 33.395161,
        "lon": 126.458923
    },
    {
        "name": "천아수원지 화장실",
        "lat": 33.396706,
        "lon": 126.459526
    },
    {
        "name": "천아수원지  주차장",
        "lat": 33.396774,
        "lon": 126.459503
    },
    {
        "name": "천아수원지 방향 입출구",
        "lat": 33.396503,
        "lon": 126.459595
    },
    {
        "name": "천아수원지 방향 천아숲길 입출구",
        "lat": 33.396503,
        "lon": 126.459595
    },
    {
        "name": "천아수원지 둘레길 입출구",
        "lat": 33.409359,
        "lon": 126.476906
    },
    {
        "name": "한라산둘레길(천아숲길 밉구)",
        "lat": 33.409184,
        "lon": 126.477066
    }
]