[
    {
        "name": "281번",
        "lat": 33.384693,
        "lon": 126.620377
    },
    {
        "name": "성판악주차장",
        "lat": 33.384743,
        "lon": 126.620361
    },
    {
        "name": "성판악 매점",
        "lat": 33.384747,
        "lon": 126.620346
    },
    {
        "name": "국립공원사무소",
        "lat": 33.384819,
        "lon": 126.619835
    },
    {
        "name": "화장실",
        "lat": 33.384781,
        "lon": 126.619652
    },
    {
        "name": "한라산 성판악 들머리",
        "lat": 33.384819,
        "lon": 126.61956
    },
    {
        "name": "쉼터",
        "lat": 33.382648,
        "lon": 126.606216
    },
    {
        "name": "쉼터",
        "lat": 33.379089,
        "lon": 126.586159
    },
    {
        "name": "속밭대피소",
        "lat": 33.380131,
        "lon": 126.581253
    },
    {
        "name": "화장실",
        "lat": 33.380138,
        "lon": 126.581245
    },
    {
        "name": "쉼터",
        "lat": 33.377567,
        "lon": 126.571495
    },
    {
        "name": "갈림길",
        "lat": 33.373276,
        "lon": 126.568733
    },
    {
        "name": "사라오름",
        "lat": 33.371281,
        "lon": 126.569962
    },
    {
        "name": "사라오름 전망대 조망",
        "lat": 33.370052,
        "lon": 126.5718
    },
    {
        "name": "쉼터",
        "lat": 33.37249,
        "lon": 126.566399
    },
    {
        "name": "진달래밭대피소",
        "lat": 33.369617,
        "lon": 126.55584
    },
    {
        "name": "화장실",
        "lat": 33.369606,
        "lon": 126.555847
    },
    {
        "name": "한라산 백록담",
        "lat": 33.361015,
        "lon": 126.535667
    },
    {
        "name": "조망",
        "lat": 33.363472,
        "lon": 126.534637
    },
    {
        "name": "용진각 대피소 자리",
        "lat": 33.369816,
        "lon": 126.533279
    },
    {
        "name": "용진각 현수교",
        "lat": 33.372219,
        "lon": 126.530083
    },
    {
        "name": "약수터",
        "lat": 33.372665,
        "lon": 126.529587
    },
    {
        "name": "삼각봉 대피소",
        "lat": 33.376408,
        "lon": 126.530624
    },
    {
        "name": "화장실",
        "lat": 33.376522,
        "lon": 126.530655
    },
    {
        "name": "삼각봉",
        "lat": 33.376644,
        "lon": 126.530655
    },
    {
        "name": "갈림길",
        "lat": 33.392406,
        "lon": 126.537735
    },
    {
        "name": "화장실",
        "lat": 33.40012,
        "lon": 126.539856
    },
    {
        "name": "쉼터",
        "lat": 33.401062,
        "lon": 126.540283
    },
    {
        "name": "쉼터",
        "lat": 33.401974,
        "lon": 126.539841
    },
    {
        "name": "숯가마터",
        "lat": 33.404606,
        "lon": 126.542137
    },
    {
        "name": "쉼터",
        "lat": 33.40464,
        "lon": 126.542168
    },
    {
        "name": "쉼터",
        "lat": 33.411293,
        "lon": 126.547478
    },
    {
        "name": "구린굴",
        "lat": 33.411293,
        "lon": 126.547455
    },
    {
        "name": "관음사사지구 탐방지원센터",
        "lat": 33.421261,
        "lon": 126.549973
    },
    {
        "name": "화장실",
        "lat": 33.421745,
        "lon": 126.55056
    },
    {
        "name": "주차장",
        "lat": 33.421886,
        "lon": 126.550644
    },
    {
        "name": "국립공원관리사무소",
        "lat": 33.421856,
        "lon": 126.550606
    },
    {
        "name": "관음사음식점",
        "lat": 33.422028,
        "lon": 126.550087
    }
]