{
  "max_ele": 325.0,
  "track": [
    {
      "path_id": 3,
      "name": "천정탐방로 입구",
      "lat": 36.358551,
      "lon": 127.236076,
      "ele": 196.0
    },
    {
      "path_id": 4,
      "name": "천정탐방지원센터",
      "lat": 36.358692,
      "lon": 127.235596,
      "ele": 195.0
    },
    {
      "path_id": 5,
      "name": "천정탐방지원센터  입구",
      "lat": 36.358624,
      "lon": 127.235527,
      "ele": 199.0
    },
    {
      "path_id": 6,
      "name": "천정탐방지원센터",
      "lat": 36.358692,
      "lon": 127.234749,
      "ele": 204.0
    },
    {
      "path_id": 7,
      "name": "천정탐방지원센터  코스",
      "lat": 36.3587,
      "lon": 127.233795,
      "ele": 216.0
    },
    {
      "path_id": 8,
      "name": "천정탐방지원센터  계곡",
      "lat": 36.358727,
      "lon": 127.233582,
      "ele": 213.0
    }
  ]
}
