[
  {
    "path_id": 0,
    "path": [
      {
        "lat": 37.710499,
        "lng": 127.002052
      },
      {
        "lat": 37.709305,
        "lng": 127.002731
      }
    ],
    "color": "#f7a356",
    "start_name": "잔잔한 계곡 / 등산로와 계곡",
    "length_meter": 145.6,
    "time_minute": 2
  },
  {
    "path_id": 1,
    "path": [
      {
        "lat": 37.709305,
        "lng": 127.002731
      },
      {
        "lat": 37.708237,
        "lng": 127.003456
      }
    ],
    "color": "#c015ff",
    "start_name": "멋진 바위 / 멋진 바위 / 작은 지류",
    "length_meter": 144.4,
    "time_minute": 2
  },
  {
    "path_id": 2,
    "path": [
      {
        "lat": 37.708237,
        "lng": 127.003456
      },
      {
        "lat": 37.707672,
        "lng": 127.004074
      }
    ],
    "color": "#0d53b8",
    "start_name": "작은 지류 / 송추폭포 / 송추폭포 중간 지점",
    "length_meter": 89.9,
    "time_minute": 1
  },
  {
    "path_id": 3,
    "path": [
      {
        "lat": 37.707672,
        "lng": 127.004074
      },
      {
        "lat": 37.705196,
        "lng": 127.00647
      }
    ],
    "color": "#2e2e2b",
    "start_name": "송추폭포 상단",
    "length_meter": 346.7,
    "time_minute": 5
  },
  {
    "path_id": 4,
    "path": [
      {
        "lat": 37.705196,
        "lng": 127.00647
      },
      {
        "lat": 37.704281,
        "lng": 127.007599
      }
    ],
    "color": "#d626e1",
    "start_name": "쉼터 / 계곡 조망",
    "length_meter": 143.5,
    "time_minute": 2
  },
  {
    "path_id": 5,
    "path": [
      {
        "lat": 37.704281,
        "lng": 127.007599
      },
      {
        "lat": 37.702858,
        "lng": 127.008682
      }
    ],
    "color": "#74be52",
    "start_name": "바위 쉼터 / 자연 쉼터",
    "length_meter": 184.8,
    "time_minute": 3
  },
  {
    "path_id": 6,
    "path": [
      {
        "lat": 37.702858,
        "lng": 127.008682
      },
      {
        "lat": 37.699379,
        "lng": 127.008453
      }
    ],
    "color": "#71ac41",
    "start_name": "쉼터",
    "length_meter": 387.4,
    "time_minute": 6
  },
  {
    "path_id": 7,
    "path": [
      {
        "lat": 37.699379,
        "lng": 127.008453
      },
      {
        "lat": 37.698406,
        "lng": 127.007919
      }
    ],
    "color": "#c069a7",
    "start_name": "쉼터",
    "length_meter": 118.0,
    "time_minute": 1
  },
  {
    "path_id": 8,
    "path": [
      {
        "lat": 37.698406,
        "lng": 127.007919
      },
      {
        "lat": 37.696724,
        "lng": 127.007156
      }
    ],
    "color": "#ab5ed0",
    "start_name": "쉼터",
    "length_meter": 198.7,
    "time_minute": 3
  },
  {
    "path_id": 9,
    "path": [
      {
        "lat": 37.696724,
        "lng": 127.007156
      },
      {
        "lat": 37.697327,
        "lng": 127.004036
      }
    ],
    "color": "#05f22f",
    "start_name": "갈림길 / 갈림길",
    "length_meter": 284.8,
    "time_minute": 4
  },
  {
    "path_id": 10,
    "path": [
      {
        "lat": 37.697327,
        "lng": 127.004036
      },
      {
        "lat": 37.697334,
        "lng": 127.002457
      }
    ],
    "color": "#222082",
    "start_name": "오봉정상 조망",
    "length_meter": 138.9,
    "time_minute": 2
  },
  {
    "path_id": 11,
    "path": [
      {
        "lat": 37.697334,
        "lng": 127.002457
      },
      {
        "lat": 37.69632,
        "lng": 127.003227
      }
    ],
    "color": "#c51b2d",
    "start_name": "갈림길",
    "length_meter": 131.5,
    "time_minute": 2
  },
  {
    "path_id": 12,
    "path": [
      {
        "lat": 37.69632,
        "lng": 127.003227
      },
      {
        "lat": 37.697502,
        "lng": 127.003677
      }
    ],
    "color": "#afa47d",
    "start_name": "자연 쉼터",
    "length_meter": 137.3,
    "time_minute": 2
  },
  {
    "path_id": 13,
    "path": [
      {
        "lat": 37.697502,
        "lng": 127.003677
      },
      {
        "lat": 37.696037,
        "lng": 127.00885
      }
    ],
    "color": "#bd62aa",
    "start_name": "오봉정상 조망 / 오봉 조망",
    "length_meter": 489.4,
    "time_minute": 8
  },
  {
    "path_id": 14,
    "path": [
      {
        "lat": 37.696037,
        "lng": 127.00885
      },
      {
        "lat": 37.696251,
        "lng": 127.009613
      }
    ],
    "color": "#e3f346",
    "start_name": "갈림길 / 추락주의",
    "length_meter": 73.0,
    "time_minute": 1
  },
  {
    "path_id": 15,
    "path": [
      {
        "lat": 37.696251,
        "lng": 127.009613
      },
      {
        "lat": 37.70256,
        "lng": 127.015587
      }
    ],
    "color": "#22b972",
    "start_name": "릿지구간 / 갈림길",
    "length_meter": 886.6,
    "time_minute": 14
  },
  {
    "path_id": 16,
    "path": [
      {
        "lat": 37.70256,
        "lng": 127.015587
      },
      {
        "lat": 37.703121,
        "lng": 127.015472
      }
    ],
    "color": "#6910a7",
    "start_name": "갈림길 / 갈림길",
    "length_meter": 63.2,
    "time_minute": 1
  },
  {
    "path_id": 17,
    "path": [
      {
        "lat": 37.703121,
        "lng": 127.015472
      },
      {
        "lat": 37.707142,
        "lng": 127.019493
      }
    ],
    "color": "#cb425d",
    "start_name": "국립공원 안전구급함 / 조망터",
    "length_meter": 573.8,
    "time_minute": 9
  },
  {
    "path_id": 18,
    "path": [
      {
        "lat": 37.707142,
        "lng": 127.019493
      },
      {
        "lat": 37.70771,
        "lng": 127.019318
      }
    ],
    "color": "#adbc9c",
    "start_name": "포대능선 조망",
    "length_meter": 65.0,
    "time_minute": 1
  },
  {
    "path_id": 19,
    "path": [
      {
        "lat": 37.70771,
        "lng": 127.019318
      },
      {
        "lat": 37.708282,
        "lng": 127.019493
      }
    ],
    "color": "#6d7a73",
    "start_name": "갈림길 / 포대산불감시초소",
    "length_meter": 69.8,
    "time_minute": 1
  },
  {
    "path_id": 20,
    "path": [
      {
        "lat": 37.708282,
        "lng": 127.019493
      },
      {
        "lat": 37.71043,
        "lng": 127.016701
      }
    ],
    "color": "#99d855",
    "start_name": "쉼터 / 갈림길",
    "length_meter": 344.2,
    "time_minute": 5
  },
  {
    "path_id": 21,
    "path": [
      {
        "lat": 37.71043,
        "lng": 127.016701
      },
      {
        "lat": 37.711773,
        "lng": 127.016136
      }
    ],
    "color": "#2b6614",
    "start_name": "조망터 / 멋진 바위",
    "length_meter": 157.9,
    "time_minute": 2
  },
  {
    "path_id": 22,
    "path": [
      {
        "lat": 37.711773,
        "lng": 127.016136
      },
      {
        "lat": 37.713203,
        "lng": 127.014412
      }
    ],
    "color": "#e3c91b",
    "start_name": "쉼터",
    "length_meter": 219.7,
    "time_minute": 3
  },
  {
    "path_id": 23,
    "path": [
      {
        "lat": 37.713203,
        "lng": 127.014412
      },
      {
        "lat": 37.714211,
        "lng": 127.013428
      }
    ],
    "color": "#18a557",
    "start_name": "사패산 조망",
    "length_meter": 141.6,
    "time_minute": 2
  },
  {
    "path_id": 24,
    "path": [
      {
        "lat": 37.714211,
        "lng": 127.013428
      },
      {
        "lat": 37.717216,
        "lng": 127.014191
      }
    ],
    "color": "#675a4e",
    "start_name": "갈림길 / 산불진화장비 보관함 / 119 구급함",
    "length_meter": 343.7,
    "time_minute": 5
  },
  {
    "path_id": 25,
    "path": [
      {
        "lat": 37.717216,
        "lng": 127.014191
      },
      {
        "lat": 37.719173,
        "lng": 127.014076
      }
    ],
    "color": "#7ad92f",
    "start_name": "쉼터",
    "length_meter": 217.8,
    "time_minute": 3
  },
  {
    "path_id": 26,
    "path": [
      {
        "lat": 37.719173,
        "lng": 127.014076
      },
      {
        "lat": 37.720989,
        "lng": 127.012497
      }
    ],
    "color": "#10b8f5",
    "start_name": "갈림길 / 119 구급함",
    "length_meter": 245.2,
    "time_minute": 4
  },
  {
    "path_id": 27,
    "path": [
      {
        "lat": 37.720989,
        "lng": 127.012497
      },
      {
        "lat": 37.7197,
        "lng": 127.008041
      }
    ],
    "color": "#072bf1",
    "start_name": "자연 쉼터 / 사패산 정상 조망 / 갈림길",
    "length_meter": 443.2,
    "time_minute": 7
  },
  {
    "path_id": 28,
    "path": [
      {
        "lat": 37.7197,
        "lng": 127.008041
      },
      {
        "lat": 37.719658,
        "lng": 127.006073
      }
    ],
    "color": "#1d1059",
    "start_name": "계곡 / 쉼터",
    "length_meter": 173.2,
    "time_minute": 2
  },
  {
    "path_id": 29,
    "path": [
      {
        "lat": 37.719658,
        "lng": 127.006073
      },
      {
        "lat": 37.719788,
        "lng": 127.005112
      }
    ],
    "color": "#b0b135",
    "start_name": "계곡 / 쉼터",
    "length_meter": 87.2,
    "time_minute": 1
  },
  {
    "path_id": 30,
    "path": [
      {
        "lat": 37.719788,
        "lng": 127.005112
      },
      {
        "lat": 37.719505,
        "lng": 127.004837
      }
    ],
    "color": "#378846",
    "start_name": "산불진화장비 보관함 / 원각폭포",
    "length_meter": 61.7,
    "time_minute": 1
  },
  {
    "path_id": 31,
    "path": [
      {
        "lat": 37.719505,
        "lng": 127.004837
      },
      {
        "lat": 37.720062,
        "lng": 127.003632
      }
    ],
    "color": "#d24212",
    "start_name": "아래 원각폭포 / 산행 입구",
    "length_meter": 122.8,
    "time_minute": 2
  },
  {
    "path_id": 32,
    "path": [
      {
        "lat": 37.720062,
        "lng": 127.003632
      },
      {
        "lat": 37.721699,
        "lng": 126.997826
      }
    ],
    "color": "#01df38",
    "start_name": "원각사",
    "length_meter": 542.1,
    "time_minute": 9
  },
  {
    "path_id": 33,
    "path": [
      {
        "lat": 37.721699,
        "lng": 126.997826
      },
      {
        "lat": 37.721695,
        "lng": 126.996773
      }
    ],
    "color": "#91ea24",
    "start_name": "화장실",
    "length_meter": 92.6,
    "time_minute": 1
  },
  {
    "path_id": 34,
    "path": [
      {
        "lat": 37.721695,
        "lng": 126.996773
      },
      {
        "lat": 37.721359,
        "lng": 126.996117
      }
    ],
    "color": "#1f80bf",
    "start_name": "갈림길",
    "length_meter": 68.7,
    "time_minute": 1
  },
  {
    "path_id": 35,
    "path": [
      {
        "lat": 37.721359,
        "lng": 126.996117
      },
      {
        "lat": 37.721905,
        "lng": 126.992004
      }
    ],
    "color": "#d1e88f",
    "start_name": "북한산 국립공원 도봉사무소 / 화장실",
    "length_meter": 372.5,
    "time_minute": 6
  },
  {
    "path_id": 36,
    "path": [
      {
        "lat": 37.721905,
        "lng": 126.992004
      },
      {
        "lat": 37.719955,
        "lng": 126.98494
      }
    ],
    "color": "#5a69cf",
    "start_name": "원각사 진입로 초입",
    "length_meter": 658.1,
    "time_minute": 10
  },
  {
    "path_id": 37,
    "path": [
      {
        "lat": 37.719955,
        "lng": 126.98494
      },
      {
        "lat": 37.717495,
        "lng": 126.981689
      }
    ],
    "color": "#cd704c",
    "start_name": "갈림길",
    "length_meter": 395.7,
    "time_minute": 6
  }
]