{
  "max_ele": 732.467,
  "total_length_km": "3.0km",
  "total_time": "0시간 37분",
  "track": [
    {
      "path_id": 0,
      "path": [
        {
          "lat": 37.695526,
          "lng": 127.009369
        },
        {
          "lat": 37.696297,
          "lng": 127.010216
        }
      ],
      "color": "#b314c6",
      "start_name": "갈림길",
      "length_meter": 113.6,
      "time_minute": 1
    },
    {
      "path_id": 1,
      "path": [
        {
          "lat": 37.696297,
          "lng": 127.010216
        },
        {
          "lat": 37.697613,
          "lng": 127.011383
        }
      ],
      "color": "#1c81be",
      "start_name": "쉼터",
      "length_meter": 178.8,
      "time_minute": 2
    },
    {
      "path_id": 2,
      "path": [
        {
          "lat": 37.697613,
          "lng": 127.011383
        },
        {
          "lat": 37.698261,
          "lng": 127.01268
        }
      ],
      "color": "#152392",
      "start_name": "신선대조망",
      "length_meter": 135.0,
      "time_minute": 1
    },
    {
      "path_id": 3,
      "path": [
        {
          "lat": 37.698261,
          "lng": 127.01268
        },
        {
          "lat": 37.698647,
          "lng": 127.015007
        }
      ],
      "color": "#734b94",
      "start_name": "갈림길",
      "length_meter": 209.2,
      "time_minute": 2
    },
    {
      "path_id": 4,
      "path": [
        {
          "lat": 37.698647,
          "lng": 127.015007
        },
        {
          "lat": 37.697548,
          "lng": 127.016151
        }
      ],
      "color": "#434418",
      "start_name": "도봉산신선대",
      "length_meter": 158.3,
      "time_minute": 1
    },
    {
      "path_id": 5,
      "path": [
        {
          "lat": 37.697548,
          "lng": 127.016151
        },
        {
          "lat": 37.696957,
          "lng": 127.016449
        }
      ],
      "color": "#104215",
      "start_name": "선인안전쉼터",
      "length_meter": 70.8,
      "time_minute": 0
    },
    {
      "path_id": 6,
      "path": [
        {
          "lat": 37.696957,
          "lng": 127.016449
        },
        {
          "lat": 37.695972,
          "lng": 127.016647
        }
      ],
      "color": "#bb17c7",
      "start_name": "낙석위험",
      "length_meter": 110.9,
      "time_minute": 1
    },
    {
      "path_id": 7,
      "path": [
        {
          "lat": 37.695972,
          "lng": 127.016647
        },
        {
          "lat": 37.695175,
          "lng": 127.01722
        }
      ],
      "color": "#84b4bc",
      "start_name": "갈림길 / 멧돼지출현주의",
      "length_meter": 103.2,
      "time_minute": 1
    },
    {
      "path_id": 8,
      "path": [
        {
          "lat": 37.695175,
          "lng": 127.01722
        },
        {
          "lat": 37.694149,
          "lng": 127.017143
        }
      ],
      "color": "#330c86",
      "start_name": "마당바위쉼터",
      "length_meter": 114.3,
      "time_minute": 1
    },
    {
      "path_id": 9,
      "path": [
        {
          "lat": 37.694149,
          "lng": 127.017143
        },
        {
          "lat": 37.694061,
          "lng": 127.017227
        }
      ],
      "color": "#784b60",
      "start_name": "갈림길",
      "length_meter": 12.3,
      "time_minute": 0
    },
    {
      "path_id": 10,
      "path": [
        {
          "lat": 37.694061,
          "lng": 127.017227
        },
        {
          "lat": 37.688606,
          "lng": 127.024437
        }
      ],
      "color": "#1a4859",
      "start_name": "마당바위 / 갈림길",
      "length_meter": 879.1,
      "time_minute": 14
    },
    {
      "path_id": 11,
      "path": [
        {
          "lat": 37.688606,
          "lng": 127.024437
        },
        {
          "lat": 37.68866,
          "lng": 127.025864
        }
      ],
      "color": "#721747",
      "start_name": "낙석위험",
      "length_meter": 125.7,
      "time_minute": 1
    },
    {
      "path_id": 12,
      "path": [
        {
          "lat": 37.68866,
          "lng": 127.025864
        },
        {
          "lat": 37.687798,
          "lng": 127.030426
        }
      ],
      "color": "#328660",
      "start_name": "갈림길",
      "length_meter": 412.7,
      "time_minute": 5
    },
    {
      "path_id": 13,
      "path": [
        {
          "lat": 37.687798,
          "lng": 127.030426
        },
        {
          "lat": 37.687782,
          "lng": 127.030403
        }
      ],
      "color": "#11aa10",
      "start_name": "간이쉼터",
      "length_meter": 2.7,
      "time_minute": 0
    },
    {
      "path_id": 14,
      "path": [
        {
          "lat": 37.687782,
          "lng": 127.030403
        },
        {
          "lat": 37.687668,
          "lng": 127.034546
        }
      ],
      "color": "#17199b",
      "start_name": "간이화장실",
      "length_meter": 364.8,
      "time_minute": 4
    }
  ]
}