[
  {
    "path_id": 0,
    "path": [
      {
        "lat": 37.695526,
        "lng": 127.009369
      },
      {
        "lat": 37.697613,
        "lng": 127.011383
      }
    ],
    "color": "#6a4659",
    "start_name": "갈림길",
    "length_meter": 292.0,
    "time_minute": 4
  },
  {
    "path_id": 1,
    "path": [
      {
        "lat": 37.697613,
        "lng": 127.011383
      },
      {
        "lat": 37.697605,
        "lng": 127.011414
      }
    ],
    "color": "#8ba163",
    "start_name": "신선대조망",
    "length_meter": 2.9,
    "time_minute": 0
  },
  {
    "path_id": 2,
    "path": [
      {
        "lat": 37.697605,
        "lng": 127.011414
      },
      {
        "lat": 37.698261,
        "lng": 127.01268
      }
    ],
    "color": "#b46343",
    "start_name": "포토존",
    "length_meter": 133.1,
    "time_minute": 2
  },
  {
    "path_id": 3,
    "path": [
      {
        "lat": 37.698261,
        "lng": 127.01268
      },
      {
        "lat": 37.698647,
        "lng": 127.015007
      }
    ],
    "color": "#23ab23",
    "start_name": "갈림길",
    "length_meter": 209.2,
    "time_minute": 3
  },
  {
    "path_id": 4,
    "path": [
      {
        "lat": 37.698647,
        "lng": 127.015007
      },
      {
        "lat": 37.697548,
        "lng": 127.016151
      }
    ],
    "color": "#12a055",
    "start_name": "도봉산신선대",
    "length_meter": 158.3,
    "time_minute": 2
  },
  {
    "path_id": 5,
    "path": [
      {
        "lat": 37.697548,
        "lng": 127.016151
      },
      {
        "lat": 37.696957,
        "lng": 127.016449
      }
    ],
    "color": "#8c4f49",
    "start_name": "선인안전쉼터",
    "length_meter": 70.8,
    "time_minute": 1
  },
  {
    "path_id": 6,
    "path": [
      {
        "lat": 37.696957,
        "lng": 127.016449
      },
      {
        "lat": 37.695972,
        "lng": 127.016647
      }
    ],
    "color": "#2c0b3b",
    "start_name": "낙석위험",
    "length_meter": 110.9,
    "time_minute": 1
  },
  {
    "path_id": 7,
    "path": [
      {
        "lat": 37.695972,
        "lng": 127.016647
      },
      {
        "lat": 37.695175,
        "lng": 127.01722
      }
    ],
    "color": "#9a6a4b",
    "start_name": "갈림길 / 멧돼지출현주의",
    "length_meter": 103.2,
    "time_minute": 1
  },
  {
    "path_id": 8,
    "path": [
      {
        "lat": 37.695175,
        "lng": 127.01722
      },
      {
        "lat": 37.694149,
        "lng": 127.017143
      }
    ],
    "color": "#44c732",
    "start_name": "마당바위쉼터",
    "length_meter": 114.3,
    "time_minute": 1
  },
  {
    "path_id": 9,
    "path": [
      {
        "lat": 37.694149,
        "lng": 127.017143
      },
      {
        "lat": 37.694061,
        "lng": 127.017227
      }
    ],
    "color": "#95a969",
    "start_name": "갈림길",
    "length_meter": 12.3,
    "time_minute": 0
  },
  {
    "path_id": 10,
    "path": [
      {
        "lat": 37.694061,
        "lng": 127.017227
      },
      {
        "lat": 37.688606,
        "lng": 127.024437
      }
    ],
    "color": "#69341b",
    "start_name": "마당바위 / 갈림길",
    "length_meter": 879.1,
    "time_minute": 14
  },
  {
    "path_id": 11,
    "path": [
      {
        "lat": 37.688606,
        "lng": 127.024437
      },
      {
        "lat": 37.68866,
        "lng": 127.025864
      }
    ],
    "color": "#64385a",
    "start_name": "낙석위험",
    "length_meter": 125.7,
    "time_minute": 2
  },
  {
    "path_id": 12,
    "path": [
      {
        "lat": 37.68866,
        "lng": 127.025864
      },
      {
        "lat": 37.687798,
        "lng": 127.030426
      }
    ],
    "color": "#48937d",
    "start_name": "갈림길",
    "length_meter": 412.7,
    "time_minute": 6
  },
  {
    "path_id": 13,
    "path": [
      {
        "lat": 37.687798,
        "lng": 127.030426
      },
      {
        "lat": 37.687782,
        "lng": 127.030403
      }
    ],
    "color": "#781da0",
    "start_name": "간이쉼터",
    "length_meter": 2.7,
    "time_minute": 0
  },
  {
    "path_id": 14,
    "path": [
      {
        "lat": 37.687782,
        "lng": 127.030403
      },
      {
        "lat": 37.687668,
        "lng": 127.034546
      }
    ],
    "color": "#a620bb",
    "start_name": "간이화장실",
    "length_meter": 364.8,
    "time_minute": 6
  }
]