{
    "max_ele": 1446.64,
    "track": [
        {
            "path_id": 1,
            "name": "해인사주차장",
            "lat": 35.793415,
            "lon": 128.094452,
            "ele": 569.354
        },
        {
            "path_id": 2,
            "name": "허덕교 화장실",
            "lat": 35.795212,
            "lon": 128.094147,
            "ele": 590.61
        },
        {
            "path_id": 3,
            "name": "갈림길",
            "lat": 35.796276,
            "lon": 128.09494,
            "ele": 592.086
        },
        {
            "path_id": 4,
            "name": "카페",
            "lat": 35.79628,
            "lon": 128.094955,
            "ele": 593.15
        },
        {
            "path_id": 5,
            "name": "갈림길",
            "lat": 35.796978,
            "lon": 128.09549,
            "ele": 589.224
        },
        {
            "path_id": 6,
            "name": "일주문주차장",
            "lat": 35.799023,
            "lon": 128.096451,
            "ele": 630.492
        },
        {
            "path_id": 7,
            "name": "갈림길",
            "lat": 35.799713,
            "lon": 128.096207,
            "ele": 637.053
        },
        {
            "path_id": 11,
            "name": "토신골탐방로입구",
            "lat": 35.802166,
            "lon": 128.097092,
            "ele": 652.526
        },
        {
            "path_id": 12,
            "name": "갈림길",
            "lat": 35.821159,
            "lon": 128.116852,
            "ele": 1257.268
        },
        {
            "path_id": 13,
            "name": "자연경관",
            "lat": 35.821861,
            "lon": 128.117126,
            "ele": 1293.726
        },
        {
            "path_id": 14,
            "name": "너럭바위 조망",
            "lat": 35.821831,
            "lon": 128.117096,
            "ele": 1295.131
        },
        {
            "path_id": 15,
            "name": "암벽",
            "lat": 35.822144,
            "lon": 128.117462,
            "ele": 1299.361
        },
        {
            "path_id": 17,
            "name": "가야산 우두봉(상왕봉)",
            "lat": 35.823547,
            "lon": 128.120499,
            "ele": 1446.64
        },
        {
            "path_id": 18,
            "name": "갈림길",
            "lat": 35.823112,
            "lon": 128.120361,
            "ele": 1422.775
        },
        {
            "path_id": 19,
            "name": "봉천대",
            "lat": 35.822807,
            "lon": 128.11998,
            "ele": 1418.529
        },
        {
            "path_id": 20,
            "name": "밴치",
            "lat": 35.808575,
            "lon": 128.102707,
            "ele": 756.016
        },
        {
            "path_id": 21,
            "name": "수다라카페",
            "lat": 35.800396,
            "lon": 128.095917,
            "ele": 634.449
        },
        {
            "path_id": 22,
            "name": "해인사관광안내소",
            "lat": 35.798485,
            "lon": 128.096466,
            "ele": 622.382
        }
    ]
}