{
    "max_ele": 1037.417,
    "track": [
        {
            "path_id": 1,
            "name": "금수산 상학주차장 버스정류장",
            "lat": 36.975719,
            "lon": 128.274933,
            "ele": 433.665
        },
        {
            "path_id": 2,
            "name": "상학주차장",
            "lat": 36.975479,
            "lon": 128.274689,
            "ele": 435.452
        },
        {
            "path_id": 4,
            "name": "대추나무집",
            "lat": 36.97728,
            "lon": 128.273529,
            "ele": 434.529
        },
        {
            "path_id": 5,
            "name": "들머리",
            "lat": 36.978851,
            "lon": 128.269379,
            "ele": 499.659
        },
        {
            "path_id": 6,
            "name": "갈림길",
            "lat": 36.978901,
            "lon": 128.269394,
            "ele": 489.075
        },
        {
            "path_id": 7,
            "name": "갈림길",
            "lat": 36.980797,
            "lon": 128.267578,
            "ele": 520.459
        },
        {
            "path_id": 8,
            "name": "대비사",
            "lat": 36.980644,
            "lon": 128.265945,
            "ele": 0.0
        },
        {
            "path_id": 9,
            "name": "쉼터",
            "lat": 36.983791,
            "lon": 128.266388,
            "ele": 581.783
        },
        {
            "path_id": 10,
            "name": "쉼터",
            "lat": 36.984837,
            "lon": 128.266266,
            "ele": 608.189
        },
        {
            "path_id": 11,
            "name": "갈림길",
            "lat": 36.985901,
            "lon": 128.267044,
            "ele": 628.013
        },
        {
            "path_id": 12,
            "name": "쉼터",
            "lat": 36.985909,
            "lon": 128.266998,
            "ele": 628.529
        },
        {
            "path_id": 13,
            "name": "남근석공원",
            "lat": 36.985889,
            "lon": 128.26683,
            "ele": 633.512
        },
        {
            "path_id": 14,
            "name": "쉼터",
            "lat": 36.985897,
            "lon": 128.266693,
            "ele": 633.58
        },
        {
            "path_id": 15,
            "name": "갈림길",
            "lat": 36.985851,
            "lon": 128.265991,
            "ele": 640.856
        },
        {
            "path_id": 16,
            "name": "옹달샘",
            "lat": 36.986027,
            "lon": 128.263458,
            "ele": 682.477
        },
        {
            "path_id": 17,
            "name": "왕제비꽃 서식지",
            "lat": 36.98613,
            "lon": 128.263046,
            "ele": 679.24
        },
        {
            "path_id": 18,
            "name": "갈림길",
            "lat": 36.986168,
            "lon": 128.26265,
            "ele": 694.938
        },
        {
            "path_id": 19,
            "name": "설금전망대",
            "lat": 36.986786,
            "lon": 128.263672,
            "ele": 708.174
        },
        {
            "path_id": 20,
            "name": "낙석주의지점",
            "lat": 36.985992,
            "lon": 128.258774,
            "ele": 819.654
        },
        {
            "path_id": 21,
            "name": "낙석주의구간",
            "lat": 36.986458,
            "lon": 128.257004,
            "ele": 909.609
        },
        {
            "path_id": 22,
            "name": "갈림길",
            "lat": 36.986546,
            "lon": 128.25589,
            "ele": 973.403
        },
        {
            "path_id": 23,
            "name": "전망대",
            "lat": 36.986488,
            "lon": 128.255814,
            "ele": 978.034
        },
        {
            "path_id": 24,
            "name": "금수산정상",
            "lat": 36.985016,
            "lon": 128.256775,
            "ele": 1037.417
        },
        {
            "path_id": 25,
            "name": "갈림길",
            "lat": 36.98204,
            "lon": 128.257004,
            "ele": 928.701
        },
        {
            "path_id": 26,
            "name": "전망대",
            "lat": 36.981266,
            "lon": 128.258682,
            "ele": 903.286
        },
        {
            "path_id": 27,
            "name": "갈림길",
            "lat": 36.97739,
            "lon": 128.264038,
            "ele": 630.287
        },
        {
            "path_id": 28,
            "name": "금수산 들머리앞 주차장",
            "lat": 36.978764,
            "lon": 128.269806,
            "ele": 470.102
        }
    ]
}