[
    {
        "path_id": 1,
        "name": "지리산",
        "lat": 35.303749,
        "lon": 127.749046
    },
    {
        "path_id": 2,
        "name": "화장실",
        "lat": 35.303642,
        "lon": 127.749107
    },
    {
        "path_id": 3,
        "name": "중산리 탐방센타",
        "lat": 35.303776,
        "lon": 127.749245
    },
    {
        "path_id": 4,
        "name": "갈림길",
        "lat": 35.306065,
        "lon": 127.748276
    },
    {
        "path_id": 5,
        "name": "칼바위",
        "lat": 35.31321,
        "lon": 127.741898
    },
    {
        "path_id": 6,
        "name": "갈림길",
        "lat": 35.314259,
        "lon": 127.741272
    },
    {
        "path_id": 7,
        "name": "돌계단",
        "lat": 35.314873,
        "lon": 127.740982
    },
    {
        "path_id": 8,
        "name": "데크계단",
        "lat": 35.315472,
        "lon": 127.74057
    },
    {
        "path_id": 9,
        "name": "거리목",
        "lat": 35.315834,
        "lon": 127.740456
    },
    {
        "path_id": 10,
        "name": "데크계단",
        "lat": 35.319378,
        "lon": 127.740242
    },
    {
        "path_id": 11,
        "name": "망바위",
        "lat": 35.319874,
        "lon": 127.739464
    },
    {
        "path_id": 12,
        "name": "조망점",
        "lat": 35.326492,
        "lon": 127.738762
    },
    {
        "path_id": 13,
        "name": "대피소",
        "lat": 35.327251,
        "lon": 127.737343
    },
    {
        "path_id": 14,
        "name": "화장실",
        "lat": 35.327126,
        "lon": 127.737419
    },
    {
        "path_id": 15,
        "name": "갈림길",
        "lat": 35.327145,
        "lon": 127.737381
    },
    {
        "path_id": 16,
        "name": "법계사",
        "lat": 35.327175,
        "lon": 127.736801
    },
    {
        "path_id": 17,
        "name": "갈림길",
        "lat": 35.327202,
        "lon": 127.736801
    },
    {
        "path_id": 18,
        "name": "조망터",
        "lat": 35.326935,
        "lon": 127.736084
    },
    {
        "path_id": 19,
        "name": "쉼터",
        "lat": 35.329727,
        "lon": 127.735527
    },
    {
        "path_id": 21,
        "name": "개선문",
        "lat": 35.333046,
        "lon": 127.732742
    },
    {
        "path_id": 22,
        "name": "위치목",
        "lat": 35.333511,
        "lon": 127.732513
    },
    {
        "path_id": 23,
        "name": "조망점",
        "lat": 35.333817,
        "lon": 127.731766
    },
    {
        "path_id": 24,
        "name": "자연경관",
        "lat": 35.336449,
        "lon": 127.727867
    },
    {
        "path_id": 25,
        "name": "갈림길",
        "lat": 35.336361,
        "lon": 127.727409
    },
    {
        "path_id": 26,
        "name": "통천문",
        "lat": 35.336338,
        "lon": 127.727348
    },
    {
        "path_id": 27,
        "name": "조망터",
        "lat": 35.335403,
        "lon": 127.723686
    },
    {
        "path_id": 28,
        "name": "제석봉",
        "lat": 35.334869,
        "lon": 127.721046
    },
    {
        "path_id": 29,
        "name": "조망터",
        "lat": 35.334873,
        "lon": 127.720932
    },
    {
        "path_id": 30,
        "name": "갈림길",
        "lat": 35.332512,
        "lon": 127.716469
    },
    {
        "path_id": 31,
        "name": "장터목",
        "lat": 35.332344,
        "lon": 127.716217
    },
    {
        "path_id": 32,
        "name": "화장실",
        "lat": 35.332294,
        "lon": 127.716164
    },
    {
        "path_id": 33,
        "name": "거리목",
        "lat": 35.328861,
        "lon": 127.71299
    },
    {
        "path_id": 34,
        "name": "연하봉",
        "lat": 35.328045,
        "lon": 127.710526
    },
    {
        "path_id": 35,
        "name": "119 긴급구조 넘버01-44",
        "lat": 35.317829,
        "lon": 127.70266
    },
    {
        "path_id": 36,
        "name": "촛대봉",
        "lat": 35.316044,
        "lon": 127.700233
    },
    {
        "path_id": 37,
        "name": "갈림길",
        "lat": 35.316128,
        "lon": 127.700027
    },
    {
        "path_id": 42,
        "name": "데크길",
        "lat": 35.309189,
        "lon": 127.692131
    },
    {
        "path_id": 44,
        "name": "거림탐방지원센타",
        "lat": 35.285034,
        "lon": 127.718338
    }
]