[
    {
        "path_id": 1,
        "name": "갈림길",
        "lat": 35.296329,
        "lon": 127.521111
    },
    {
        "path_id": 2,
        "name": "무넹기 조망점",
        "lat": 35.296253,
        "lon": 127.519531
    },
    {
        "path_id": 3,
        "name": "갈림길",
        "lat": 35.296074,
        "lon": 127.519913
    },
    {
        "path_id": 4,
        "name": "코재전망대",
        "lat": 35.295025,
        "lon": 127.519737
    },
    {
        "path_id": 5,
        "name": "접선대  쉼터",
        "lat": 35.289661,
        "lon": 127.517311
    },
    {
        "path_id": 6,
        "name": "참샘터",
        "lat": 35.272144,
        "lon": 127.507545
    },
    {
        "path_id": 7,
        "name": "갈림길",
        "lat": 35.269844,
        "lon": 127.50621
    },
    {
        "path_id": 9,
        "name": "카페",
        "lat": 35.268936,
        "lon": 127.505363
    },
    {
        "path_id": 10,
        "name": "갈림길",
        "lat": 35.268356,
        "lon": 127.505173
    },
    {
        "path_id": 11,
        "name": "숲길",
        "lat": 35.267773,
        "lon": 127.504677
    },
    {
        "path_id": 12,
        "name": "쉼터",
        "lat": 35.262012,
        "lon": 127.501465
    },
    {
        "path_id": 14,
        "name": "갈림길",
        "lat": 35.258289,
        "lon": 127.499123
    },
    {
        "path_id": 16,
        "name": "화엄사자연관찰로",
        "lat": 35.255234,
        "lon": 127.497871
    },
    {
        "path_id": 17,
        "name": "갈림길",
        "lat": 35.255058,
        "lon": 127.497467
    },
    {
        "path_id": 18,
        "name": "화엄사",
        "lat": 35.254986,
        "lon": 127.497337
    },
    {
        "path_id": 19,
        "name": "갈림길",
        "lat": 35.255138,
        "lon": 127.497139
    },
    {
        "path_id": 20,
        "name": "화엄사  부도",
        "lat": 35.253445,
        "lon": 127.494888
    },
    {
        "path_id": 21,
        "name": "쉼터",
        "lat": 35.246815,
        "lon": 127.491241
    },
    {
        "path_id": 22,
        "name": "화엄사  일주문",
        "lat": 35.246109,
        "lon": 127.490959
    },
    {
        "path_id": 23,
        "name": "화엄사 매표소앞 화장실",
        "lat": 35.245224,
        "lon": 127.490555
    },
    {
        "path_id": 24,
        "name": "상가공용주차장안에 버스정류장 택시승강장",
        "lat": 35.243145,
        "lon": 127.48864
    }
]