{
  "max_ele": 1037.417,
  "track": [
    {
      "path_id": 0,
      "path": [
        {
          "lat": 36.975719,
          "lng": 128.274933
        },
        {
          "lat": 36.97728,
          "lng": 128.273529
        }
      ],
      "color": "#ba771b",
      "start_name": "금수산 상학주차장 버스정류장 / 상학주차장",
      "length_meter": 259.6,
      "time_minute": 4
    },
    {
      "path_id": 1,
      "path": [
        {
          "lat": 36.97728,
          "lng": 128.273529
        },
        {
          "lat": 36.978851,
          "lng": 128.269379
        }
      ],
      "color": "#473900",
      "start_name": "대추나무집",
      "length_meter": 407.9,
      "time_minute": 6
    },
    {
      "path_id": 2,
      "path": [
        {
          "lat": 36.978851,
          "lng": 128.269379
        },
        {
          "lat": 36.980644,
          "lng": 128.265945
        }
      ],
      "color": "#6f8c9b",
      "start_name": "들머리 / 갈림길",
      "length_meter": 368.2,
      "time_minute": 6
    },
    {
      "path_id": 3,
      "path": [
        {
          "lat": 36.980644,
          "lng": 128.265945
        },
        {
          "lat": 36.983791,
          "lng": 128.266388
        }
      ],
      "color": "#76782c",
      "start_name": "대비사",
      "length_meter": 352.1,
      "time_minute": 5
    },
    {
      "path_id": 4,
      "path": [
        {
          "lat": 36.983791,
          "lng": 128.266388
        },
        {
          "lat": 36.985901,
          "lng": 128.267044
        }
      ],
      "color": "#724a41",
      "start_name": "쉼터",
      "length_meter": 241.7,
      "time_minute": 4
    },
    {
      "path_id": 5,
      "path": [
        {
          "lat": 36.985901,
          "lng": 128.267044
        },
        {
          "lat": 36.985897,
          "lng": 128.266693
        }
      ],
      "color": "#6e733a",
      "start_name": "갈림길 / 쉼터 / 남근석공원",
      "length_meter": 31.5,
      "time_minute": 0
    },
    {
      "path_id": 6,
      "path": [
        {
          "lat": 36.985897,
          "lng": 128.266693
        },
        {
          "lat": 36.985851,
          "lng": 128.265991
        }
      ],
      "color": "#3bc726",
      "start_name": "쉼터",
      "length_meter": 62.6,
      "time_minute": 1
    },
    {
      "path_id": 7,
      "path": [
        {
          "lat": 36.985851,
          "lng": 128.265991
        },
        {
          "lat": 36.986027,
          "lng": 128.263458
        }
      ],
      "color": "#bf8365",
      "start_name": "갈림길",
      "length_meter": 225.8,
      "time_minute": 3
    },
    {
      "path_id": 8,
      "path": [
        {
          "lat": 36.986027,
          "lng": 128.263458
        },
        {
          "lat": 36.98613,
          "lng": 128.263046
        }
      ],
      "color": "#384d4d",
      "start_name": "옹달샘",
      "length_meter": 38.3,
      "time_minute": 0
    },
    {
      "path_id": 9,
      "path": [
        {
          "lat": 36.98613,
          "lng": 128.263046
        },
        {
          "lat": 36.986786,
          "lng": 128.263672
        }
      ],
      "color": "#706cc4",
      "start_name": "왕제비꽃 서식지 / 갈림길",
      "length_meter": 149.3,
      "time_minute": 2
    },
    {
      "path_id": 10,
      "path": [
        {
          "lat": 36.986786,
          "lng": 128.263672
        },
        {
          "lat": 36.985992,
          "lng": 128.258774
        }
      ],
      "color": "#a7813a",
      "start_name": "설금전망대",
      "length_meter": 443.9,
      "time_minute": 7
    },
    {
      "path_id": 11,
      "path": [
        {
          "lat": 36.985992,
          "lng": 128.258774
        },
        {
          "lat": 36.986458,
          "lng": 128.257004
        }
      ],
      "color": "#932f07",
      "start_name": "낙석주의지점",
      "length_meter": 165.5,
      "time_minute": 2
    },
    {
      "path_id": 12,
      "path": [
        {
          "lat": 36.986458,
          "lng": 128.257004
        },
        {
          "lat": 36.986546,
          "lng": 128.25589
        }
      ],
      "color": "#98ac8e",
      "start_name": "낙석주의구간",
      "length_meter": 99.4,
      "time_minute": 1
    },
    {
      "path_id": 13,
      "path": [
        {
          "lat": 36.986546,
          "lng": 128.25589
        },
        {
          "lat": 36.985016,
          "lng": 128.256775
        }
      ],
      "color": "#89c793",
      "start_name": "갈림길 / 전망대",
      "length_meter": 193.9,
      "time_minute": 3
    },
    {
      "path_id": 14,
      "path": [
        {
          "lat": 36.985016,
          "lng": 128.256775
        },
        {
          "lat": 36.98204,
          "lng": 128.257004
        }
      ],
      "color": "#2f2b6a",
      "start_name": "금수산정상",
      "length_meter": 331.5,
      "time_minute": 5
    },
    {
      "path_id": 15,
      "path": [
        {
          "lat": 36.98204,
          "lng": 128.257004
        },
        {
          "lat": 36.981266,
          "lng": 128.258682
        }
      ],
      "color": "#731e3e",
      "start_name": "갈림길",
      "length_meter": 172.1,
      "time_minute": 2
    },
    {
      "path_id": 16,
      "path": [
        {
          "lat": 36.981266,
          "lng": 128.258682
        },
        {
          "lat": 36.97739,
          "lng": 128.264038
        }
      ],
      "color": "#7ebdac",
      "start_name": "전망대",
      "length_meter": 642.0,
      "time_minute": 10
    },
    {
      "path_id": 17,
      "path": [
        {
          "lat": 36.97739,
          "lng": 128.264038
        },
        {
          "lat": 36.978764,
          "lng": 128.269806
        }
      ],
      "color": "#5d480e",
      "start_name": "갈림길",
      "length_meter": 534.7,
      "time_minute": 8
    }
  ]
}