{
  "max_ele": 1043.833,
  "track": [
    {
      "path_id": 0,
      "path": [
        {
          "lat": 36.964703,
          "lng": 128.240112
        },
        {
          "lat": 36.964947,
          "lng": 128.239716
        }
      ],
      "color": "#5829ba",
      "start_name": "상천휴게소 주차장 / 금수산순두부",
      "length_meter": 99.3,
      "time_minute": 1
    },
    {
      "path_id": 1,
      "path": [
        {
          "lat": 36.964947,
          "lng": 128.239716
        },
        {
          "lat": 36.970646,
          "lng": 128.241531
        }
      ],
      "color": "#7b1566",
      "start_name": "매점 / 상천주차장 버스 정류장",
      "length_meter": 673.2,
      "time_minute": 11
    },
    {
      "path_id": 2,
      "path": [
        {
          "lat": 36.970646,
          "lng": 128.241531
        },
        {
          "lat": 36.972004,
          "lng": 128.240967
        }
      ],
      "color": "#a85c2e",
      "start_name": "금슈산 상천코스 들머리 / 갈림길",
      "length_meter": 159.2,
      "time_minute": 2
    },
    {
      "path_id": 3,
      "path": [
        {
          "lat": 36.972004,
          "lng": 128.240967
        },
        {
          "lat": 36.972702,
          "lng": 128.240356
        }
      ],
      "color": "#320478",
      "start_name": "계곡",
      "length_meter": 94.7,
      "time_minute": 1
    },
    {
      "path_id": 4,
      "path": [
        {
          "lat": 36.972702,
          "lng": 128.240356
        },
        {
          "lat": 36.978508,
          "lng": 128.240204
        }
      ],
      "color": "#4f8d45",
      "start_name": "용담폭포",
      "length_meter": 645.7,
      "time_minute": 10
    },
    {
      "path_id": 5,
      "path": [
        {
          "lat": 36.978508,
          "lng": 128.240204
        },
        {
          "lat": 36.978512,
          "lng": 128.240158
        }
      ],
      "color": "#376bc2",
      "start_name": "조망지점",
      "length_meter": 4.1,
      "time_minute": 0
    },
    {
      "path_id": 6,
      "path": [
        {
          "lat": 36.978512,
          "lng": 128.240158
        },
        {
          "lat": 36.986458,
          "lng": 128.241318
        }
      ],
      "color": "#309867",
      "start_name": "독수리바위",
      "length_meter": 889.5,
      "time_minute": 14
    },
    {
      "path_id": 7,
      "path": [
        {
          "lat": 36.986458,
          "lng": 128.241318
        },
        {
          "lat": 36.986404,
          "lng": 128.240936
        }
      ],
      "color": "#8859b2",
      "start_name": "갈림길",
      "length_meter": 34.5,
      "time_minute": 0
    },
    {
      "path_id": 8,
      "path": [
        {
          "lat": 36.986404,
          "lng": 128.240936
        },
        {
          "lat": 36.986595,
          "lng": 128.255814
        }
      ],
      "color": "#895672",
      "start_name": "망덕봉",
      "length_meter": 1321.6,
      "time_minute": 22
    },
    {
      "path_id": 9,
      "path": [
        {
          "lat": 36.986595,
          "lng": 128.255814
        },
        {
          "lat": 36.985031,
          "lng": 128.256729
        }
      ],
      "color": "#09a312",
      "start_name": "갈림길 / 조망지점",
      "length_meter": 198.2,
      "time_minute": 3
    },
    {
      "path_id": 10,
      "path": [
        {
          "lat": 36.985031,
          "lng": 128.256729
        },
        {
          "lat": 36.982075,
          "lng": 128.256958
        }
      ],
      "color": "#a60988",
      "start_name": "금수산정상",
      "length_meter": 329.3,
      "time_minute": 5
    },
    {
      "path_id": 11,
      "path": [
        {
          "lat": 36.982075,
          "lng": 128.256958
        },
        {
          "lat": 36.977463,
          "lng": 128.254242
        }
      ],
      "color": "#a768b2",
      "start_name": "갈림길",
      "length_meter": 566.7,
      "time_minute": 9
    },
    {
      "path_id": 12,
      "path": [
        {
          "lat": 36.977463,
          "lng": 128.254242
        },
        {
          "lat": 36.977245,
          "lng": 128.253189
        }
      ],
      "color": "#3d5f33",
      "start_name": "낙석주의지점",
      "length_meter": 96.6,
      "time_minute": 1
    },
    {
      "path_id": 13,
      "path": [
        {
          "lat": 36.977245,
          "lng": 128.253189
        },
        {
          "lat": 36.974777,
          "lng": 128.247787
        }
      ],
      "color": "#b22fb3",
      "start_name": "주의지점",
      "length_meter": 552.8,
      "time_minute": 9
    },
    {
      "path_id": 14,
      "path": [
        {
          "lat": 36.974777,
          "lng": 128.247787
        },
        {
          "lat": 36.968594,
          "lng": 128.239517
        }
      ],
      "color": "#aba375",
      "start_name": "계곡",
      "length_meter": 1006.2,
      "time_minute": 16
    }
  ]
}