{
  "max_ele": 906.043,
  "total_length_km": "7.2km",
  "total_time": "1시간 29분",
  "track": [
    {
      "path_id": 0,
      "path": [
        {
          "lat": 36.675217,
          "lng": 127.959419
        },
        {
          "lat": 36.662907,
          "lng": 127.955254
        }
      ],
      "color": "#be210d",
      "start_name": "대야산탐방지원센터 / 대야산용추주차장",
      "length_meter": 1439.8,
      "time_minute": 23
    },
    {
      "path_id": 1,
      "path": [
        {
          "lat": 36.662907,
          "lng": 127.955254
        },
        {
          "lat": 36.661739,
          "lng": 127.955193
        }
      ],
      "color": "#7d004d",
      "start_name": "웨이포인트 13",
      "length_meter": 130.0,
      "time_minute": 1
    },
    {
      "path_id": 2,
      "path": [
        {
          "lat": 36.661739,
          "lng": 127.955193
        },
        {
          "lat": 36.660477,
          "lng": 127.949631
        }
      ],
      "color": "#5f571f",
      "start_name": "갈림길",
      "length_meter": 515.6,
      "time_minute": 6
    },
    {
      "path_id": 3,
      "path": [
        {
          "lat": 36.660477,
          "lng": 127.949631
        },
        {
          "lat": 36.659878,
          "lng": 127.950111
        }
      ],
      "color": "#4b4523",
      "start_name": "쉼터 / 둔덕산이정표",
      "length_meter": 83.5,
      "time_minute": 1
    },
    {
      "path_id": 4,
      "path": [
        {
          "lat": 36.659878,
          "lng": 127.950111
        },
        {
          "lat": 36.658295,
          "lng": 127.951614
        }
      ],
      "color": "#18a553",
      "start_name": "산악위치표지판",
      "length_meter": 221.3,
      "time_minute": 2
    },
    {
      "path_id": 5,
      "path": [
        {
          "lat": 36.658295,
          "lng": 127.951614
        },
        {
          "lat": 36.657261,
          "lng": 127.950592
        }
      ],
      "color": "#3b8457",
      "start_name": "대야산조망점",
      "length_meter": 146.7,
      "time_minute": 1
    },
    {
      "path_id": 6,
      "path": [
        {
          "lat": 36.657261,
          "lng": 127.950592
        },
        {
          "lat": 36.653908,
          "lng": 127.951981
        }
      ],
      "color": "#35853f",
      "start_name": "구조목표지판",
      "length_meter": 392.9,
      "time_minute": 4
    },
    {
      "path_id": 7,
      "path": [
        {
          "lat": 36.653908,
          "lng": 127.951981
        },
        {
          "lat": 36.653233,
          "lng": 127.952072
        }
      ],
      "color": "#aeae5f",
      "start_name": "산악위치표지판",
      "length_meter": 75.5,
      "time_minute": 0
    },
    {
      "path_id": 8,
      "path": [
        {
          "lat": 36.653233,
          "lng": 127.952072
        },
        {
          "lat": 36.650749,
          "lng": 127.951393
        }
      ],
      "color": "#c7540d",
      "start_name": "국가지점번호및 이정표",
      "length_meter": 282.8,
      "time_minute": 3
    },
    {
      "path_id": 9,
      "path": [
        {
          "lat": 36.650749,
          "lng": 127.951393
        },
        {
          "lat": 36.650234,
          "lng": 127.948586
        }
      ],
      "color": "#4d8ba0",
      "start_name": "갈림길 / 산악위치표지판 / 국가지점번호및 이정표",
      "length_meter": 268.5,
      "time_minute": 4
    },
    {
      "path_id": 10,
      "path": [
        {
          "lat": 36.650234,
          "lng": 127.948586
        },
        {
          "lat": 36.650326,
          "lng": 127.94799
        }
      ],
      "color": "#8e8d04",
      "start_name": "손녀마귀통시바위 / 손녀마귀통시바위 조망점 / 젖꼭지바위",
      "length_meter": 68.9,
      "time_minute": 1
    },
    {
      "path_id": 11,
      "path": [
        {
          "lat": 36.650326,
          "lng": 127.94799
        },
        {
          "lat": 36.65184,
          "lng": 127.94384
        }
      ],
      "color": "#495844",
      "start_name": "젖꼭지바위 조망점 / 복주머니바위 / 조망점1 / 조망점2 / 기암",
      "length_meter": 406.8,
      "time_minute": 6
    },
    {
      "path_id": 12,
      "path": [
        {
          "lat": 36.65184,
          "lng": 127.94384
        },
        {
          "lat": 36.650906,
          "lng": 127.942482
        }
      ],
      "color": "#26689f",
      "start_name": "능선포토존",
      "length_meter": 159.6,
      "time_minute": 1
    },
    {
      "path_id": 13,
      "path": [
        {
          "lat": 36.650906,
          "lng": 127.942482
        },
        {
          "lat": 36.650379,
          "lng": 127.941574
        }
      ],
      "color": "#37981e",
      "start_name": "기암 / 마귀할미통시바위",
      "length_meter": 100.4,
      "time_minute": 1
    },
    {
      "path_id": 14,
      "path": [
        {
          "lat": 36.650379,
          "lng": 127.941574
        },
        {
          "lat": 36.650364,
          "lng": 127.941559
        }
      ],
      "color": "#3616a9",
      "start_name": "마귀할미통시바위 암릉포토존",
      "length_meter": 2.1,
      "time_minute": 0
    },
    {
      "path_id": 15,
      "path": [
        {
          "lat": 36.650364,
          "lng": 127.941559
        },
        {
          "lat": 36.650055,
          "lng": 127.939445
        }
      ],
      "color": "#0fbb2e",
      "start_name": "마귀할미통시바위 암릉군",
      "length_meter": 191.7,
      "time_minute": 2
    },
    {
      "path_id": 16,
      "path": [
        {
          "lat": 36.650055,
          "lng": 127.939445
        },
        {
          "lat": 36.666405,
          "lng": 127.947304
        }
      ],
      "color": "#42088d",
      "start_name": "갈림길",
      "length_meter": 1948.5,
      "time_minute": 24
    },
    {
      "path_id": 17,
      "path": [
        {
          "lat": 36.666405,
          "lng": 127.947304
        },
        {
          "lat": 36.666386,
          "lng": 127.947372
        }
      ],
      "color": "#3a2243",
      "start_name": "월영대",
      "length_meter": 6.4,
      "time_minute": 0
    },
    {
      "path_id": 18,
      "path": [
        {
          "lat": 36.666386,
          "lng": 127.947372
        },
        {
          "lat": 36.667816,
          "lng": 127.954308
        }
      ],
      "color": "#c0b384",
      "start_name": "선유동천나들길종합안내판 / 갈림길 / 용추골쉼터 / 구조표지목",
      "length_meter": 710.3,
      "time_minute": 11
    }
  ]
}