[
  {
    "path_id": 0,
    "path": [
      {
        "lat": 36.675217,
        "lng": 127.959419
      },
      {
        "lat": 36.674946,
        "lng": 127.959457
      }
    ],
    "color": "#27a4ce",
    "start_name": "대야산탐방지원센터 / 대야산용추주차장",
    "length_meter": 74.2,
    "time_minute": 1
  },
  {
    "path_id": 1,
    "path": [
      {
        "lat": 36.674946,
        "lng": 127.959457
      },
      {
        "lat": 36.665749,
        "lng": 127.956192
      }
    ],
    "color": "#921fe2",
    "start_name": "화장실",
    "length_meter": 1063.3,
    "time_minute": 17
  },
  {
    "path_id": 2,
    "path": [
      {
        "lat": 36.665749,
        "lng": 127.956192
      },
      {
        "lat": 36.664558,
        "lng": 127.955727
      }
    ],
    "color": "#b49483",
    "start_name": "이정표",
    "length_meter": 138.8,
    "time_minute": 2
  },
  {
    "path_id": 3,
    "path": [
      {
        "lat": 36.664558,
        "lng": 127.955727
      },
      {
        "lat": 36.662907,
        "lng": 127.955254
      }
    ],
    "color": "#a199aa",
    "start_name": "국가지점번호",
    "length_meter": 188.4,
    "time_minute": 3
  },
  {
    "path_id": 4,
    "path": [
      {
        "lat": 36.662907,
        "lng": 127.955254
      },
      {
        "lat": 36.661739,
        "lng": 127.955193
      }
    ],
    "color": "#8262a1",
    "start_name": "웨이포인트 13",
    "length_meter": 130.0,
    "time_minute": 2
  },
  {
    "path_id": 5,
    "path": [
      {
        "lat": 36.661739,
        "lng": 127.955193
      },
      {
        "lat": 36.660461,
        "lng": 127.94957
      }
    ],
    "color": "#16d868",
    "start_name": "갈림길",
    "length_meter": 521.3,
    "time_minute": 8
  },
  {
    "path_id": 6,
    "path": [
      {
        "lat": 36.660461,
        "lng": 127.94957
      },
      {
        "lat": 36.659878,
        "lng": 127.950111
      }
    ],
    "color": "#874116",
    "start_name": "국가지점번호 / 쉼터 / 둔덕산이정표",
    "length_meter": 89.3,
    "time_minute": 1
  },
  {
    "path_id": 7,
    "path": [
      {
        "lat": 36.659878,
        "lng": 127.950111
      },
      {
        "lat": 36.65839,
        "lng": 127.951721
      }
    ],
    "color": "#f8e313",
    "start_name": "산악위치표지판 / 이정표",
    "length_meter": 221.0,
    "time_minute": 3
  },
  {
    "path_id": 8,
    "path": [
      {
        "lat": 36.65839,
        "lng": 127.951721
      },
      {
        "lat": 36.657787,
        "lng": 127.951256
      }
    ],
    "color": "#3a1d29",
    "start_name": "산악위치표지판 / 국가지점번호 / 이정표 / 대야산조망점",
    "length_meter": 84.6,
    "time_minute": 1
  },
  {
    "path_id": 9,
    "path": [
      {
        "lat": 36.657787,
        "lng": 127.951256
      },
      {
        "lat": 36.657261,
        "lng": 127.950592
      }
    ],
    "color": "#f62fd7",
    "start_name": "조망점 / 조망점",
    "length_meter": 83.3,
    "time_minute": 1
  },
  {
    "path_id": 10,
    "path": [
      {
        "lat": 36.657261,
        "lng": 127.950592
      },
      {
        "lat": 36.656345,
        "lng": 127.950729
      }
    ],
    "color": "#032f5f",
    "start_name": "구조목표지판",
    "length_meter": 102.6,
    "time_minute": 1
  },
  {
    "path_id": 11,
    "path": [
      {
        "lat": 36.656345,
        "lng": 127.950729
      },
      {
        "lat": 36.653908,
        "lng": 127.951981
      }
    ],
    "color": "#48a796",
    "start_name": "국가지점번호",
    "length_meter": 293.1,
    "time_minute": 4
  },
  {
    "path_id": 12,
    "path": [
      {
        "lat": 36.653908,
        "lng": 127.951981
      },
      {
        "lat": 36.653233,
        "lng": 127.952072
      }
    ],
    "color": "#140ce5",
    "start_name": "산악위치표지판",
    "length_meter": 75.5,
    "time_minute": 1
  },
  {
    "path_id": 13,
    "path": [
      {
        "lat": 36.653233,
        "lng": 127.952072
      },
      {
        "lat": 36.650749,
        "lng": 127.951393
      }
    ],
    "color": "#126397",
    "start_name": "국가지점번호및 이정표",
    "length_meter": 282.8,
    "time_minute": 4
  },
  {
    "path_id": 14,
    "path": [
      {
        "lat": 36.650749,
        "lng": 127.951393
      },
      {
        "lat": 36.650234,
        "lng": 127.948586
      }
    ],
    "color": "#34a091",
    "start_name": "갈림길 / 산악위치표지판 / 국가지점번호및 이정표",
    "length_meter": 268.5,
    "time_minute": 4
  },
  {
    "path_id": 15,
    "path": [
      {
        "lat": 36.650234,
        "lng": 127.948586
      },
      {
        "lat": 36.650387,
        "lng": 127.947937
      }
    ],
    "color": "#74c8e5",
    "start_name": "손녀마귀통시바위 / 손녀마귀통시바위 조망점",
    "length_meter": 60.7,
    "time_minute": 1
  },
  {
    "path_id": 16,
    "path": [
      {
        "lat": 36.650387,
        "lng": 127.947937
      },
      {
        "lat": 36.650505,
        "lng": 127.947449
      }
    ],
    "color": "#287592",
    "start_name": "젖꼭지바위 / 젖꼭지바위 조망점 / 복주머니바위 / 조망점1 / 조망점2",
    "length_meter": 60.6,
    "time_minute": 1
  },
  {
    "path_id": 17,
    "path": [
      {
        "lat": 36.650505,
        "lng": 127.947449
      },
      {
        "lat": 36.65147,
        "lng": 127.945213
      }
    ],
    "color": "#ffe8f5",
    "start_name": "조망점 / 기암",
    "length_meter": 226.9,
    "time_minute": 3
  },
  {
    "path_id": 18,
    "path": [
      {
        "lat": 36.65147,
        "lng": 127.945213
      },
      {
        "lat": 36.651855,
        "lng": 127.943825
      }
    ],
    "color": "#66fd63",
    "start_name": "조망점",
    "length_meter": 131.0,
    "time_minute": 2
  },
  {
    "path_id": 19,
    "path": [
      {
        "lat": 36.651855,
        "lng": 127.943825
      },
      {
        "lat": 36.650906,
        "lng": 127.942482
      }
    ],
    "color": "#12d888",
    "start_name": "조망점 / 능선포토존",
    "length_meter": 161.7,
    "time_minute": 2
  },
  {
    "path_id": 20,
    "path": [
      {
        "lat": 36.650906,
        "lng": 127.942482
      },
      {
        "lat": 36.650379,
        "lng": 127.941574
      }
    ],
    "color": "#e390c4",
    "start_name": "기암 / 기암 / 마귀할미통시바위 / 마귀할미통시바위 / 마귀할미통시바위",
    "length_meter": 101.3,
    "time_minute": 1
  },
  {
    "path_id": 21,
    "path": [
      {
        "lat": 36.650379,
        "lng": 127.941574
      },
      {
        "lat": 36.650055,
        "lng": 127.939445
      }
    ],
    "color": "#9c5d04",
    "start_name": "마귀할미통시바위 암릉포토존 / 마귀할미통시바위 암릉군",
    "length_meter": 193.8,
    "time_minute": 3
  },
  {
    "path_id": 22,
    "path": [
      {
        "lat": 36.650055,
        "lng": 127.939445
      },
      {
        "lat": 36.666405,
        "lng": 127.947304
      }
    ],
    "color": "#dea1c9",
    "start_name": "갈림길",
    "length_meter": 1948.5,
    "time_minute": 32
  },
  {
    "path_id": 23,
    "path": [
      {
        "lat": 36.666405,
        "lng": 127.947304
      },
      {
        "lat": 36.666622,
        "lng": 127.947075
      }
    ],
    "color": "#8cd5c3",
    "start_name": "월영대 / 월영대 / 월영대 / 선유동천나들길종합안내판 / 갈림길",
    "length_meter": 69.5,
    "time_minute": 1
  },
  {
    "path_id": 24,
    "path": [
      {
        "lat": 36.666622,
        "lng": 127.947075
      },
      {
        "lat": 36.668209,
        "lng": 127.949654
      }
    ],
    "color": "#81f204",
    "start_name": "갈림길 / 용추골쉼터 / 구조표지목",
    "length_meter": 302.6,
    "time_minute": 5
  },
  {
    "path_id": 25,
    "path": [
      {
        "lat": 36.668209,
        "lng": 127.949654
      },
      {
        "lat": 36.667912,
        "lng": 127.953888
      }
    ],
    "color": "#58840a",
    "start_name": "구조표지목",
    "length_meter": 379.1,
    "time_minute": 6
  },
  {
    "path_id": 26,
    "path": [
      {
        "lat": 36.667912,
        "lng": 127.953888
      },
      {
        "lat": 36.667816,
        "lng": 127.954308
      }
    ],
    "color": "#402f20",
    "start_name": "구조표지목",
    "length_meter": 39.0,
    "time_minute": 0
  }
]