{
  "max_ele": 906.043,
  "track": [
    {
      "path_id": 0,
      "path": [
        {
          "lat": 36.675217,
          "lng": 127.959419
        },
        {
          "lat": 36.662907,
          "lng": 127.955254
        }
      ],
      "color": "#5e04a4",
      "start_name": "대야산탐방지원센터 / 대야산용추주차장",
      "length_meter": 1439.8,
      "time_minute": 23
    },
    {
      "path_id": 1,
      "path": [
        {
          "lat": 36.662907,
          "lng": 127.955254
        },
        {
          "lat": 36.661739,
          "lng": 127.955193
        }
      ],
      "color": "#9549a3",
      "start_name": "웨이포인트 13",
      "length_meter": 130.0,
      "time_minute": 2
    },
    {
      "path_id": 2,
      "path": [
        {
          "lat": 36.661739,
          "lng": 127.955193
        },
        {
          "lat": 36.660477,
          "lng": 127.949631
        }
      ],
      "color": "#b49095",
      "start_name": "갈림길",
      "length_meter": 515.6,
      "time_minute": 8
    },
    {
      "path_id": 3,
      "path": [
        {
          "lat": 36.660477,
          "lng": 127.949631
        },
        {
          "lat": 36.659878,
          "lng": 127.950111
        }
      ],
      "color": "#a01938",
      "start_name": "쉼터 / 둔덕산이정표",
      "length_meter": 83.5,
      "time_minute": 1
    },
    {
      "path_id": 4,
      "path": [
        {
          "lat": 36.659878,
          "lng": 127.950111
        },
        {
          "lat": 36.658295,
          "lng": 127.951614
        }
      ],
      "color": "#995c2f",
      "start_name": "산악위치표지판",
      "length_meter": 221.3,
      "time_minute": 3
    },
    {
      "path_id": 5,
      "path": [
        {
          "lat": 36.658295,
          "lng": 127.951614
        },
        {
          "lat": 36.657261,
          "lng": 127.950592
        }
      ],
      "color": "#93bcb8",
      "start_name": "대야산조망점",
      "length_meter": 146.7,
      "time_minute": 2
    },
    {
      "path_id": 6,
      "path": [
        {
          "lat": 36.657261,
          "lng": 127.950592
        },
        {
          "lat": 36.653908,
          "lng": 127.951981
        }
      ],
      "color": "#0d9405",
      "start_name": "구조목표지판",
      "length_meter": 392.9,
      "time_minute": 6
    },
    {
      "path_id": 7,
      "path": [
        {
          "lat": 36.653908,
          "lng": 127.951981
        },
        {
          "lat": 36.653233,
          "lng": 127.952072
        }
      ],
      "color": "#5c6e76",
      "start_name": "산악위치표지판",
      "length_meter": 75.5,
      "time_minute": 1
    },
    {
      "path_id": 8,
      "path": [
        {
          "lat": 36.653233,
          "lng": 127.952072
        },
        {
          "lat": 36.650749,
          "lng": 127.951393
        }
      ],
      "color": "#8f9f0d",
      "start_name": "국가지점번호및 이정표",
      "length_meter": 282.8,
      "time_minute": 4
    },
    {
      "path_id": 9,
      "path": [
        {
          "lat": 36.650749,
          "lng": 127.951393
        },
        {
          "lat": 36.650234,
          "lng": 127.948586
        }
      ],
      "color": "#855c15",
      "start_name": "갈림길 / 산악위치표지판 / 국가지점번호및 이정표",
      "length_meter": 268.5,
      "time_minute": 4
    },
    {
      "path_id": 10,
      "path": [
        {
          "lat": 36.650234,
          "lng": 127.948586
        },
        {
          "lat": 36.650387,
          "lng": 127.947937
        }
      ],
      "color": "#4b5f3c",
      "start_name": "손녀마귀통시바위 / 손녀마귀통시바위 조망점",
      "length_meter": 60.7,
      "time_minute": 1
    },
    {
      "path_id": 11,
      "path": [
        {
          "lat": 36.650387,
          "lng": 127.947937
        },
        {
          "lat": 36.65052,
          "lng": 127.947441
        }
      ],
      "color": "#30aa0c",
      "start_name": "젖꼭지바위 / 젖꼭지바위 조망점 / 복주머니바위 / 조망점1 / 조망점2",
      "length_meter": 61.9,
      "time_minute": 1
    },
    {
      "path_id": 12,
      "path": [
        {
          "lat": 36.65052,
          "lng": 127.947441
        },
        {
          "lat": 36.65184,
          "lng": 127.94384
        }
      ],
      "color": "#b0c327",
      "start_name": "기암",
      "length_meter": 353.2,
      "time_minute": 5
    },
    {
      "path_id": 13,
      "path": [
        {
          "lat": 36.65184,
          "lng": 127.94384
        },
        {
          "lat": 36.650906,
          "lng": 127.942482
        }
      ],
      "color": "#562468",
      "start_name": "능선포토존",
      "length_meter": 159.6,
      "time_minute": 2
    },
    {
      "path_id": 14,
      "path": [
        {
          "lat": 36.650906,
          "lng": 127.942482
        },
        {
          "lat": 36.650379,
          "lng": 127.941574
        }
      ],
      "color": "#35bc23",
      "start_name": "기암 / 마귀할미통시바위",
      "length_meter": 100.4,
      "time_minute": 1
    },
    {
      "path_id": 15,
      "path": [
        {
          "lat": 36.650379,
          "lng": 127.941574
        },
        {
          "lat": 36.650364,
          "lng": 127.941559
        }
      ],
      "color": "#12c7c4",
      "start_name": "마귀할미통시바위 암릉포토존",
      "length_meter": 2.1,
      "time_minute": 0
    },
    {
      "path_id": 16,
      "path": [
        {
          "lat": 36.650364,
          "lng": 127.941559
        },
        {
          "lat": 36.650055,
          "lng": 127.939445
        }
      ],
      "color": "#3f72c0",
      "start_name": "마귀할미통시바위 암릉군",
      "length_meter": 191.7,
      "time_minute": 3
    },
    {
      "path_id": 17,
      "path": [
        {
          "lat": 36.650055,
          "lng": 127.939445
        },
        {
          "lat": 36.666405,
          "lng": 127.947304
        }
      ],
      "color": "#7c14b7",
      "start_name": "갈림길",
      "length_meter": 1948.5,
      "time_minute": 32
    },
    {
      "path_id": 18,
      "path": [
        {
          "lat": 36.666405,
          "lng": 127.947304
        },
        {
          "lat": 36.666386,
          "lng": 127.947372
        }
      ],
      "color": "#c5b22e",
      "start_name": "월영대",
      "length_meter": 6.4,
      "time_minute": 0
    },
    {
      "path_id": 19,
      "path": [
        {
          "lat": 36.666386,
          "lng": 127.947372
        },
        {
          "lat": 36.667816,
          "lng": 127.954308
        }
      ],
      "color": "#854859",
      "start_name": "선유동천나들길종합안내판 / 갈림길 / 용추골쉼터 / 구조표지목",
      "length_meter": 710.3,
      "time_minute": 11
    }
  ]
}