[
    {
        "name": "갈림길",
        "lat": 37.621212,
        "lon": 126.993446
    },
    {
        "name": "청수폭포",
        "lat": 37.621552,
        "lon": 126.993279
    },
    {
        "name": "청수화장실",
        "lat": 37.622589,
        "lon": 126.992645
    },
    {
        "name": "소화기 쉼터",
        "lat": 37.626163,
        "lon": 126.989594
    },
    {
        "name": "갈림길",
        "lat": 37.628429,
        "lon": 126.988686
    },
    {
        "name": "영천 약수터",
        "lat": 37.628853,
        "lon": 126.987389
    },
    {
        "name": "쌍줄기 약수터",
        "lat": 37.631142,
        "lon": 126.985565
    },
    {
        "name": "보국문 쉼터",
        "lat": 37.631325,
        "lon": 126.985458
    },
    {
        "name": "겨울철 상습결빙구간",
        "lat": 37.63599,
        "lon": 126.981819
    },
    {
        "name": "인두암",
        "lat": 37.631733,
        "lon": 126.977631
    },
    {
        "name": "갈림길",
        "lat": 37.629517,
        "lon": 126.977303
    },
    {
        "name": "갈림길",
        "lat": 37.62875,
        "lon": 126.978004
    },
    {
        "name": "갈림길",
        "lat": 37.628113,
        "lon": 126.978256
    },
    {
        "name": "갈림길",
        "lat": 37.626095,
        "lon": 126.978104
    },
    {
        "name": "형제봉 조망점",
        "lat": 37.621056,
        "lon": 126.97718
    },
    {
        "name": "동령폭포",
        "lat": 37.621082,
        "lon": 126.977188
    },
    {
        "name": "무명 쉼터",
        "lat": 37.61948,
        "lon": 126.975998
    },
    {
        "name": "평창공원 지킴터 화장실",
        "lat": 37.617569,
        "lon": 126.975746
    },
    {
        "name": "평창공원지킴터",
        "lat": 37.617283,
        "lon": 126.975754
    },
    {
        "name": "갈림길",
        "lat": 37.617271,
        "lon": 126.975761
    },
    {
        "name": "갈림길",
        "lat": 37.617413,
        "lon": 126.977066
    },
    {
        "name": "감람산기도원",
        "lat": 37.61591,
        "lon": 126.980049
    },
    {
        "name": "선원사",
        "lat": 37.61488,
        "lon": 126.979622
    },
    {
        "name": "연화정사",
        "lat": 37.614704,
        "lon": 126.979568
    },
    {
        "name": "갈림길",
        "lat": 37.612797,
        "lon": 126.982155
    },
    {
        "name": "김영희 강남 동태찜",
        "lat": 37.611446,
        "lon": 126.978333
    },
    {
        "name": "롯데아파트(정류소 ID : 01-159)",
        "lat": 37.610382,
        "lon": 126.976517
    }
]