[
  {
    "path_id": 0,
    "path": [
      {
        "lat": 35.528458,
        "lng": 129.026276
      },
      {
        "lat": 35.529648,
        "lng": 129.025772
      }
    ],
    "color": "#a92fe4",
    "start_name": "자연경관 / 관광자원",
    "length_meter": 141.0,
    "time_minute": 2
  },
  {
    "path_id": 1,
    "path": [
      {
        "lat": 35.529648,
        "lng": 129.025772
      },
      {
        "lat": 35.530495,
        "lng": 129.025589
      }
    ],
    "color": "#0d389f",
    "start_name": "쉼터",
    "length_meter": 95.6,
    "time_minute": 1
  },
  {
    "path_id": 2,
    "path": [
      {
        "lat": 35.530495,
        "lng": 129.025589
      },
      {
        "lat": 35.531174,
        "lng": 129.025879
      }
    ],
    "color": "#997b8a",
    "start_name": "뱀등 독충주의 / 안전구조목 / 쉼터",
    "length_meter": 81.7,
    "time_minute": 1
  },
  {
    "path_id": 3,
    "path": [
      {
        "lat": 35.531174,
        "lng": 129.025879
      },
      {
        "lat": 35.532276,
        "lng": 129.026077
      }
    ],
    "color": "#7eeab5",
    "start_name": "안내도 / 쉼터",
    "length_meter": 124.5,
    "time_minute": 2
  },
  {
    "path_id": 4,
    "path": [
      {
        "lat": 35.532276,
        "lng": 129.026077
      },
      {
        "lat": 35.532867,
        "lng": 129.02597
      }
    ],
    "color": "#28abde",
    "start_name": "자연경관",
    "length_meter": 66.4,
    "time_minute": 1
  },
  {
    "path_id": 5,
    "path": [
      {
        "lat": 35.532867,
        "lng": 129.02597
      },
      {
        "lat": 35.533482,
        "lng": 129.025711
      }
    ],
    "color": "#f704b3",
    "start_name": "쉼터 / 안내도",
    "length_meter": 72.5,
    "time_minute": 1
  },
  {
    "path_id": 6,
    "path": [
      {
        "lat": 35.533482,
        "lng": 129.025711
      },
      {
        "lat": 35.53463,
        "lng": 129.024948
      }
    ],
    "color": "#89297c",
    "start_name": "주의 / 포토존 / 쉼터 / 자연경관",
    "length_meter": 165.7,
    "time_minute": 2
  },
  {
    "path_id": 7,
    "path": [
      {
        "lat": 35.53463,
        "lng": 129.024948
      },
      {
        "lat": 35.53627,
        "lng": 129.024094
      }
    ],
    "color": "#3822d6",
    "start_name": "주의",
    "length_meter": 198.1,
    "time_minute": 3
  },
  {
    "path_id": 8,
    "path": [
      {
        "lat": 35.53627,
        "lng": 129.024094
      },
      {
        "lat": 35.539364,
        "lng": 129.022324
      }
    ],
    "color": "#626ada",
    "start_name": "쉼터",
    "length_meter": 379.5,
    "time_minute": 6
  },
  {
    "path_id": 9,
    "path": [
      {
        "lat": 35.539364,
        "lng": 129.022324
      },
      {
        "lat": 35.541172,
        "lng": 129.021896
      }
    ],
    "color": "#aa6a72",
    "start_name": "쉼터",
    "length_meter": 204.7,
    "time_minute": 3
  },
  {
    "path_id": 10,
    "path": [
      {
        "lat": 35.541172,
        "lng": 129.021896
      },
      {
        "lat": 35.54208,
        "lng": 129.021851
      }
    ],
    "color": "#d56b83",
    "start_name": "금지",
    "length_meter": 101.0,
    "time_minute": 1
  },
  {
    "path_id": 11,
    "path": [
      {
        "lat": 35.54208,
        "lng": 129.021851
      },
      {
        "lat": 35.542683,
        "lng": 129.022339
      }
    ],
    "color": "#d8bc51",
    "start_name": "쉼터 / 관광자원 / 관광자원",
    "length_meter": 90.5,
    "time_minute": 1
  },
  {
    "path_id": 12,
    "path": [
      {
        "lat": 35.542683,
        "lng": 129.022339
      },
      {
        "lat": 35.545063,
        "lng": 129.024994
      }
    ],
    "color": "#dadc7f",
    "start_name": "휴양림상단 / 휴양림안내도",
    "length_meter": 358.6,
    "time_minute": 5
  },
  {
    "path_id": 13,
    "path": [
      {
        "lat": 35.545063,
        "lng": 129.024994
      },
      {
        "lat": 35.543877,
        "lng": 129.021759
      }
    ],
    "color": "#75299f",
    "start_name": "안전구조목",
    "length_meter": 321.0,
    "time_minute": 5
  },
  {
    "path_id": 14,
    "path": [
      {
        "lat": 35.543877,
        "lng": 129.021759
      },
      {
        "lat": 35.547108,
        "lng": 129.032715
      }
    ],
    "color": "#9b2f05",
    "start_name": "쉼터 / 갈림길 41",
    "length_meter": 1073.0,
    "time_minute": 17
  },
  {
    "path_id": 15,
    "path": [
      {
        "lat": 35.547108,
        "lng": 129.032715
      },
      {
        "lat": 35.545837,
        "lng": 129.043594
      }
    ],
    "color": "#fe227f",
    "start_name": "조망점 / 관광자원 / 관광자원 / 쉼터",
    "length_meter": 1022.7,
    "time_minute": 17
  },
  {
    "path_id": 16,
    "path": [
      {
        "lat": 35.545837,
        "lng": 129.043594
      },
      {
        "lat": 35.544666,
        "lng": 129.041321
      }
    ],
    "color": "#c16a85",
    "start_name": "갈림길 46 / 안전구조목",
    "length_meter": 243.4,
    "time_minute": 4
  },
  {
    "path_id": 17,
    "path": [
      {
        "lat": 35.544666,
        "lng": 129.041321
      },
      {
        "lat": 35.543404,
        "lng": 129.040466
      }
    ],
    "color": "#789ca2",
    "start_name": "조망점",
    "length_meter": 160.2,
    "time_minute": 2
  },
  {
    "path_id": 18,
    "path": [
      {
        "lat": 35.543404,
        "lng": 129.040466
      },
      {
        "lat": 35.544983,
        "lng": 129.036346
      }
    ],
    "color": "#ecdb83",
    "start_name": "안전구조목",
    "length_meter": 412.0,
    "time_minute": 6
  },
  {
    "path_id": 19,
    "path": [
      {
        "lat": 35.544983,
        "lng": 129.036346
      },
      {
        "lat": 35.544018,
        "lng": 129.031662
      }
    ],
    "color": "#30903e",
    "start_name": "안전구조목",
    "length_meter": 437.2,
    "time_minute": 7
  },
  {
    "path_id": 20,
    "path": [
      {
        "lat": 35.544018,
        "lng": 129.031662
      },
      {
        "lat": 35.543869,
        "lng": 129.026688
      }
    ],
    "color": "#a8d228",
    "start_name": "안전구조목",
    "length_meter": 450.3,
    "time_minute": 7
  },
  {
    "path_id": 21,
    "path": [
      {
        "lat": 35.543869,
        "lng": 129.026688
      },
      {
        "lat": 35.541302,
        "lng": 129.024994
      }
    ],
    "color": "#cf6057",
    "start_name": "안전구조목",
    "length_meter": 324.0,
    "time_minute": 5
  },
  {
    "path_id": 22,
    "path": [
      {
        "lat": 35.541302,
        "lng": 129.024994
      },
      {
        "lat": 35.538174,
        "lng": 129.02507
      }
    ],
    "color": "#00491e",
    "start_name": "안전구조목",
    "length_meter": 347.9,
    "time_minute": 5
  },
  {
    "path_id": 23,
    "path": [
      {
        "lat": 35.538174,
        "lng": 129.02507
      },
      {
        "lat": 35.541553,
        "lng": 129.022629
      }
    ],
    "color": "#d439bb",
    "start_name": "갈림길 78",
    "length_meter": 435.8,
    "time_minute": 7
  },
  {
    "path_id": 24,
    "path": [
      {
        "lat": 35.541553,
        "lng": 129.022629
      },
      {
        "lat": 35.533573,
        "lng": 129.025589
      }
    ],
    "color": "#a437f1",
    "start_name": "갈림길 79 / 쉼터",
    "length_meter": 931.0,
    "time_minute": 15
  },
  {
    "path_id": 25,
    "path": [
      {
        "lat": 35.533573,
        "lng": 129.025589
      },
      {
        "lat": 35.532154,
        "lng": 129.026016
      }
    ],
    "color": "#819824",
    "start_name": "갈림길 26",
    "length_meter": 162.4,
    "time_minute": 2
  },
  {
    "path_id": 26,
    "path": [
      {
        "lat": 35.532154,
        "lng": 129.026016
      },
      {
        "lat": 35.528755,
        "lng": 129.026047
      }
    ],
    "color": "#ded41d",
    "start_name": "주의",
    "length_meter": 378.0,
    "time_minute": 6
  }
]