[
  {
    "path_id": 0,
    "path": [
      {
        "lat": 35.528458,
        "lng": 129.026276
      },
      {
        "lat": 35.530495,
        "lng": 129.025589
      }
    ],
    "color": "#898c96",
    "start_name": "자연경관 / 관광자원",
    "length_meter": 236.6,
    "time_minute": 3
  },
  {
    "path_id": 1,
    "path": [
      {
        "lat": 35.530495,
        "lng": 129.025589
      },
      {
        "lat": 35.531174,
        "lng": 129.025879
      }
    ],
    "color": "#3b5035",
    "start_name": "뱀등 독충주의 / 안전구조목",
    "length_meter": 81.1,
    "time_minute": 1
  },
  {
    "path_id": 2,
    "path": [
      {
        "lat": 35.531174,
        "lng": 129.025879
      },
      {
        "lat": 35.532276,
        "lng": 129.026077
      }
    ],
    "color": "#85c45e",
    "start_name": "안내도",
    "length_meter": 123.8,
    "time_minute": 2
  },
  {
    "path_id": 3,
    "path": [
      {
        "lat": 35.532276,
        "lng": 129.026077
      },
      {
        "lat": 35.533077,
        "lng": 129.025848
      }
    ],
    "color": "#bc318a",
    "start_name": "자연경관",
    "length_meter": 91.4,
    "time_minute": 1
  },
  {
    "path_id": 4,
    "path": [
      {
        "lat": 35.533077,
        "lng": 129.025848
      },
      {
        "lat": 35.533558,
        "lng": 129.025375
      }
    ],
    "color": "#608850",
    "start_name": "안내도 / 주의",
    "length_meter": 78.3,
    "time_minute": 1
  },
  {
    "path_id": 5,
    "path": [
      {
        "lat": 35.533558,
        "lng": 129.025375
      },
      {
        "lat": 35.53463,
        "lng": 129.024948
      }
    ],
    "color": "#12657e",
    "start_name": "포토존 / 자연경관",
    "length_meter": 126.7,
    "time_minute": 2
  },
  {
    "path_id": 6,
    "path": [
      {
        "lat": 35.53463,
        "lng": 129.024948
      },
      {
        "lat": 35.541172,
        "lng": 129.021896
      }
    ],
    "color": "#3a0d68",
    "start_name": "주의",
    "length_meter": 778.1,
    "time_minute": 12
  },
  {
    "path_id": 7,
    "path": [
      {
        "lat": 35.541172,
        "lng": 129.021896
      },
      {
        "lat": 35.542267,
        "lng": 129.021805
      }
    ],
    "color": "#9e58c1",
    "start_name": "금지",
    "length_meter": 122.0,
    "time_minute": 2
  },
  {
    "path_id": 8,
    "path": [
      {
        "lat": 35.542267,
        "lng": 129.021805
      },
      {
        "lat": 35.542683,
        "lng": 129.022339
      }
    ],
    "color": "#9d3ca9",
    "start_name": "관광자원",
    "length_meter": 66.9,
    "time_minute": 1
  },
  {
    "path_id": 9,
    "path": [
      {
        "lat": 35.542683,
        "lng": 129.022339
      },
      {
        "lat": 35.545063,
        "lng": 129.024994
      }
    ],
    "color": "#0227a4",
    "start_name": "휴양림상단 / 휴양림안내도",
    "length_meter": 358.6,
    "time_minute": 5
  },
  {
    "path_id": 10,
    "path": [
      {
        "lat": 35.545063,
        "lng": 129.024994
      },
      {
        "lat": 35.54388,
        "lng": 129.021652
      }
    ],
    "color": "#c5ab33",
    "start_name": "안전구조목",
    "length_meter": 329.7,
    "time_minute": 5
  },
  {
    "path_id": 11,
    "path": [
      {
        "lat": 35.54388,
        "lng": 129.021652
      },
      {
        "lat": 35.547039,
        "lng": 129.032761
      }
    ],
    "color": "#38a188",
    "start_name": "갈림길",
    "length_meter": 1064.7,
    "time_minute": 17
  },
  {
    "path_id": 12,
    "path": [
      {
        "lat": 35.547039,
        "lng": 129.032761
      },
      {
        "lat": 35.545837,
        "lng": 129.043594
      }
    ],
    "color": "#02b82c",
    "start_name": "관광자원",
    "length_meter": 989.2,
    "time_minute": 16
  },
  {
    "path_id": 13,
    "path": [
      {
        "lat": 35.545837,
        "lng": 129.043594
      },
      {
        "lat": 35.545837,
        "lng": 129.043594
      }
    ],
    "color": "#1a236c",
    "start_name": "갈림길",
    "length_meter": 0.0,
    "time_minute": 0
  },
  {
    "path_id": 14,
    "path": [
      {
        "lat": 35.545837,
        "lng": 129.043594
      },
      {
        "lat": 35.538174,
        "lng": 129.02507
      }
    ],
    "color": "#66126c",
    "start_name": "안전구조목",
    "length_meter": 1880.2,
    "time_minute": 31
  },
  {
    "path_id": 15,
    "path": [
      {
        "lat": 35.538174,
        "lng": 129.02507
      },
      {
        "lat": 35.532154,
        "lng": 129.026016
      }
    ],
    "color": "#48bf79",
    "start_name": "갈림길",
    "length_meter": 674.8,
    "time_minute": 11
  },
  {
    "path_id": 16,
    "path": [
      {
        "lat": 35.532154,
        "lng": 129.026016
      },
      {
        "lat": 35.528755,
        "lng": 129.026047
      }
    ],
    "color": "#a06612",
    "start_name": "주의",
    "length_meter": 378.0,
    "time_minute": 6
  }
]