[
  {
    "path_id": 0,
    "path": [
      {
        "lat": 35.578575,
        "lng": 129.027924
      },
      {
        "lat": 35.569218,
        "lng": 129.023926
      }
    ],
    "color": "#452c88",
    "start_name": "주차장간판 / 화장실",
    "length_meter": 1101.5,
    "time_minute": 18
  },
  {
    "path_id": 1,
    "path": [
      {
        "lat": 35.569218,
        "lng": 129.023926
      },
      {
        "lat": 35.568687,
        "lng": 129.023758
      }
    ],
    "color": "#02e871",
    "start_name": "식당 / 사계절식당 메뉴판",
    "length_meter": 61.9,
    "time_minute": 1
  },
  {
    "path_id": 2,
    "path": [
      {
        "lat": 35.568687,
        "lng": 129.023758
      },
      {
        "lat": 35.567806,
        "lng": 129.023132
      }
    ],
    "color": "#1923a6",
    "start_name": "간판",
    "length_meter": 113.1,
    "time_minute": 1
  },
  {
    "path_id": 3,
    "path": [
      {
        "lat": 35.567806,
        "lng": 129.023132
      },
      {
        "lat": 35.566948,
        "lng": 129.022781
      }
    ],
    "color": "#7a213f",
    "start_name": "배내2주차장 / 소문난김치집",
    "length_meter": 101.6,
    "time_minute": 1
  },
  {
    "path_id": 4,
    "path": [
      {
        "lat": 35.566948,
        "lng": 129.022781
      },
      {
        "lat": 35.566422,
        "lng": 129.022568
      }
    ],
    "color": "#aab491",
    "start_name": "식당",
    "length_meter": 61.6,
    "time_minute": 1
  },
  {
    "path_id": 5,
    "path": [
      {
        "lat": 35.566422,
        "lng": 129.022568
      },
      {
        "lat": 35.56802,
        "lng": 129.023376
      }
    ],
    "color": "#7d77b9",
    "start_name": "버스",
    "length_meter": 192.1,
    "time_minute": 3
  },
  {
    "path_id": 6,
    "path": [
      {
        "lat": 35.56802,
        "lng": 129.023376
      },
      {
        "lat": 35.565258,
        "lng": 129.024872
      }
    ],
    "color": "#435af4",
    "start_name": "식당간판 / 신불산들머리 / 안내도 / 공터",
    "length_meter": 380.6,
    "time_minute": 6
  },
  {
    "path_id": 7,
    "path": [
      {
        "lat": 35.565258,
        "lng": 129.024872
      },
      {
        "lat": 35.56789,
        "lng": 129.023254
      }
    ],
    "color": "#9df4f4",
    "start_name": "안내도",
    "length_meter": 327.2,
    "time_minute": 5
  },
  {
    "path_id": 8,
    "path": [
      {
        "lat": 35.56789,
        "lng": 129.023254
      },
      {
        "lat": 35.568565,
        "lng": 129.023636
      }
    ],
    "color": "#a82915",
    "start_name": "화장실",
    "length_meter": 82.6,
    "time_minute": 1
  }
]