[
  {
    "path_id": 0,
    "path": [
      {
        "lat": 35.556694,
        "lng": 129.060852
      },
      {
        "lat": 35.555706,
        "lng": 129.058289
      }
    ],
    "color": "#af5893",
    "start_name": "안전구족목",
    "length_meter": 256.6,
    "time_minute": 4
  },
  {
    "path_id": 1,
    "path": [
      {
        "lat": 35.555706,
        "lng": 129.058289
      },
      {
        "lat": 35.555176,
        "lng": 129.057205
      }
    ],
    "color": "#c5b5a6",
    "start_name": "갈림길 21 / 위험",
    "length_meter": 114.4,
    "time_minute": 1
  },
  {
    "path_id": 2,
    "path": [
      {
        "lat": 35.555176,
        "lng": 129.057205
      },
      {
        "lat": 35.554943,
        "lng": 129.054504
      }
    ],
    "color": "#cde662",
    "start_name": "안전구조목과구급함",
    "length_meter": 245.7,
    "time_minute": 4
  },
  {
    "path_id": 3,
    "path": [
      {
        "lat": 35.554943,
        "lng": 129.054504
      },
      {
        "lat": 35.55442,
        "lng": 129.052795
      }
    ],
    "color": "#994baa",
    "start_name": "자연경관",
    "length_meter": 165.2,
    "time_minute": 2
  },
  {
    "path_id": 4,
    "path": [
      {
        "lat": 35.55442,
        "lng": 129.052795
      },
      {
        "lat": 35.553596,
        "lng": 129.05217
      }
    ],
    "color": "#4110b2",
    "start_name": "갈림길 25",
    "length_meter": 107.7,
    "time_minute": 1
  },
  {
    "path_id": 5,
    "path": [
      {
        "lat": 35.553596,
        "lng": 129.05217
      },
      {
        "lat": 35.553165,
        "lng": 129.051773
      }
    ],
    "color": "#715db0",
    "start_name": "위험 / 갈림길 27 / 조망점 / 자연경관",
    "length_meter": 62.9,
    "time_minute": 1
  },
  {
    "path_id": 6,
    "path": [
      {
        "lat": 35.553165,
        "lng": 129.051773
      },
      {
        "lat": 35.553024,
        "lng": 129.050583
      }
    ],
    "color": "#58c62d",
    "start_name": "조망점 / 자연경관",
    "length_meter": 111.5,
    "time_minute": 1
  },
  {
    "path_id": 7,
    "path": [
      {
        "lat": 35.553024,
        "lng": 129.050583
      },
      {
        "lat": 35.552349,
        "lng": 129.049622
      }
    ],
    "color": "#6b6f05",
    "start_name": "조망점 / 조망점",
    "length_meter": 116.3,
    "time_minute": 1
  },
  {
    "path_id": 8,
    "path": [
      {
        "lat": 35.552349,
        "lng": 129.049622
      },
      {
        "lat": 35.552048,
        "lng": 129.049042
      }
    ],
    "color": "#5f4915",
    "start_name": "안전구조목 / 위험 / 험로 / 조망점",
    "length_meter": 63.8,
    "time_minute": 1
  },
  {
    "path_id": 9,
    "path": [
      {
        "lat": 35.552048,
        "lng": 129.049042
      },
      {
        "lat": 35.551563,
        "lng": 129.048325
      }
    ],
    "color": "#1dfeb8",
    "start_name": "자연경관 / 위험 / 자연경관",
    "length_meter": 85.4,
    "time_minute": 1
  },
  {
    "path_id": 10,
    "path": [
      {
        "lat": 35.551563,
        "lng": 129.048325
      },
      {
        "lat": 35.551334,
        "lng": 129.047836
      }
    ],
    "color": "#4806ec",
    "start_name": "조망점 / 자연경관 / 안전구조목과구급함",
    "length_meter": 51.5,
    "time_minute": 0
  }
]