[
  {
    "path_id": 0,
    "path": [
      {
        "lat": 35.528458,
        "lng": 129.026276
      },
      {
        "lat": 35.530495,
        "lng": 129.025589
      }
    ],
    "color": "#19bc5a",
    "start_name": "자연경관 / 관광자원",
    "length_meter": 236.6,
    "time_minute": 3
  },
  {
    "path_id": 1,
    "path": [
      {
        "lat": 35.530495,
        "lng": 129.025589
      },
      {
        "lat": 35.531174,
        "lng": 129.025879
      }
    ],
    "color": "#9fab59",
    "start_name": "뱀등 독충주의 / 안전구조목",
    "length_meter": 81.1,
    "time_minute": 1
  },
  {
    "path_id": 2,
    "path": [
      {
        "lat": 35.531174,
        "lng": 129.025879
      },
      {
        "lat": 35.532276,
        "lng": 129.026077
      }
    ],
    "color": "#8884b4",
    "start_name": "안내도",
    "length_meter": 123.8,
    "time_minute": 2
  },
  {
    "path_id": 3,
    "path": [
      {
        "lat": 35.532276,
        "lng": 129.026077
      },
      {
        "lat": 35.533077,
        "lng": 129.025848
      }
    ],
    "color": "#f2afc5",
    "start_name": "자연경관",
    "length_meter": 91.4,
    "time_minute": 1
  },
  {
    "path_id": 4,
    "path": [
      {
        "lat": 35.533077,
        "lng": 129.025848
      },
      {
        "lat": 35.533558,
        "lng": 129.025375
      }
    ],
    "color": "#666a8c",
    "start_name": "안내도 / 주의",
    "length_meter": 78.3,
    "time_minute": 1
  },
  {
    "path_id": 5,
    "path": [
      {
        "lat": 35.533558,
        "lng": 129.025375
      },
      {
        "lat": 35.53463,
        "lng": 129.024948
      }
    ],
    "color": "#26713c",
    "start_name": "포토존 / 자연경관",
    "length_meter": 126.7,
    "time_minute": 2
  },
  {
    "path_id": 6,
    "path": [
      {
        "lat": 35.53463,
        "lng": 129.024948
      },
      {
        "lat": 35.541172,
        "lng": 129.021896
      }
    ],
    "color": "#e154b5",
    "start_name": "주의",
    "length_meter": 778.1,
    "time_minute": 12
  },
  {
    "path_id": 7,
    "path": [
      {
        "lat": 35.541172,
        "lng": 129.021896
      },
      {
        "lat": 35.542267,
        "lng": 129.021805
      }
    ],
    "color": "#675d78",
    "start_name": "금지",
    "length_meter": 122.0,
    "time_minute": 2
  },
  {
    "path_id": 8,
    "path": [
      {
        "lat": 35.542267,
        "lng": 129.021805
      },
      {
        "lat": 35.542683,
        "lng": 129.022339
      }
    ],
    "color": "#529c3a",
    "start_name": "관광자원",
    "length_meter": 66.9,
    "time_minute": 1
  },
  {
    "path_id": 9,
    "path": [
      {
        "lat": 35.542683,
        "lng": 129.022339
      },
      {
        "lat": 35.545063,
        "lng": 129.024994
      }
    ],
    "color": "#fb4886",
    "start_name": "휴양림상단 / 휴양림안내도",
    "length_meter": 358.6,
    "time_minute": 5
  },
  {
    "path_id": 10,
    "path": [
      {
        "lat": 35.545063,
        "lng": 129.024994
      },
      {
        "lat": 35.54388,
        "lng": 129.021652
      }
    ],
    "color": "#beeda8",
    "start_name": "안전구조목",
    "length_meter": 329.7,
    "time_minute": 5
  },
  {
    "path_id": 11,
    "path": [
      {
        "lat": 35.54388,
        "lng": 129.021652
      },
      {
        "lat": 35.547039,
        "lng": 129.032761
      }
    ],
    "color": "#9b6023",
    "start_name": "갈림길 41",
    "length_meter": 1064.7,
    "time_minute": 17
  },
  {
    "path_id": 12,
    "path": [
      {
        "lat": 35.547039,
        "lng": 129.032761
      },
      {
        "lat": 35.545837,
        "lng": 129.043594
      }
    ],
    "color": "#efa6b4",
    "start_name": "관광자원",
    "length_meter": 989.2,
    "time_minute": 16
  },
  {
    "path_id": 13,
    "path": [
      {
        "lat": 35.545837,
        "lng": 129.043594
      },
      {
        "lat": 35.538174,
        "lng": 129.02507
      }
    ],
    "color": "#aac446",
    "start_name": "갈림길 46 / 안전구조목",
    "length_meter": 1880.2,
    "time_minute": 31
  },
  {
    "path_id": 14,
    "path": [
      {
        "lat": 35.538174,
        "lng": 129.02507
      },
      {
        "lat": 35.541553,
        "lng": 129.022629
      }
    ],
    "color": "#3a2f89",
    "start_name": "갈림길 78",
    "length_meter": 435.8,
    "time_minute": 7
  },
  {
    "path_id": 15,
    "path": [
      {
        "lat": 35.541553,
        "lng": 129.022629
      },
      {
        "lat": 35.533573,
        "lng": 129.025589
      }
    ],
    "color": "#18eab7",
    "start_name": "갈림길 79",
    "length_meter": 926.9,
    "time_minute": 15
  },
  {
    "path_id": 16,
    "path": [
      {
        "lat": 35.533573,
        "lng": 129.025589
      },
      {
        "lat": 35.532154,
        "lng": 129.026016
      }
    ],
    "color": "#9ab101",
    "start_name": "갈림길 26",
    "length_meter": 162.4,
    "time_minute": 2
  },
  {
    "path_id": 17,
    "path": [
      {
        "lat": 35.532154,
        "lng": 129.026016
      },
      {
        "lat": 35.528755,
        "lng": 129.026047
      }
    ],
    "color": "#0d4cdd",
    "start_name": "주의",
    "length_meter": 378.0,
    "time_minute": 6
  }
]