[
    {
        "path_id": 1,
        "name": "병사골 입구",
        "lat": 36.371922,
        "lon": 127.257866
    },
    {
        "path_id": 2,
        "name": "탐방로 안내판",
        "lat": 36.371498,
        "lon": 127.257523
    },
    {
        "path_id": 3,
        "name": "안내표지(이정표)",
        "lat": 36.371876,
        "lon": 127.255363
    },
    {
        "path_id": 4,
        "name": "장군봉 오름길",
        "lat": 36.373089,
        "lon": 127.253181
    },
    {
        "path_id": 5,
        "name": "안내 표지(이정표)",
        "lat": 36.373123,
        "lon": 127.252258
    },
    {
        "path_id": 6,
        "name": "위험지역",
        "lat": 36.372166,
        "lon": 127.248909
    },
    {
        "path_id": 7,
        "name": "안내표지(이정표)",
        "lat": 36.371403,
        "lon": 127.247757
    },
    {
        "path_id": 8,
        "name": "장군봉 조망점",
        "lat": 36.371246,
        "lon": 127.247803
    },
    {
        "path_id": 9,
        "name": "장군봉",
        "lat": 36.371269,
        "lon": 127.247803
    },
    {
        "path_id": 10,
        "name": "안내표지(이정표)",
        "lat": 36.371021,
        "lon": 127.245514
    },
    {
        "path_id": 12,
        "name": "계룡산국립공원 위치번호",
        "lat": 36.370476,
        "lon": 127.243927
    },
    {
        "path_id": 13,
        "name": "계룡산 국립공원 위치표시",
        "lat": 36.369461,
        "lon": 127.239922
    },
    {
        "path_id": 14,
        "name": "안내표지(이정표)",
        "lat": 36.368526,
        "lon": 127.23674
    },
    {
        "path_id": 16,
        "name": "갈림길",
        "lat": 36.367992,
        "lon": 127.234215
    },
    {
        "path_id": 17,
        "name": "갓바위 삼거리 쉼터",
        "lat": 36.367966,
        "lon": 127.234215
    },
    {
        "path_id": 18,
        "name": "갈림길",
        "lat": 36.366245,
        "lon": 127.234344
    },
    {
        "path_id": 19,
        "name": "안내표지(이정표)",
        "lat": 36.366257,
        "lon": 127.234367
    },
    {
        "path_id": 20,
        "name": "계룡산국립공원 위치표시",
        "lat": 36.367001,
        "lon": 127.229919
    },
    {
        "path_id": 21,
        "name": "갈림길",
        "lat": 36.366428,
        "lon": 127.226433
    },
    {
        "path_id": 22,
        "name": "안내표지(이정표)",
        "lat": 36.366421,
        "lon": 127.226425
    },
    {
        "path_id": 24,
        "name": "계룡산국립공원 위치표시",
        "lat": 36.366085,
        "lon": 127.221909
    },
    {
        "path_id": 26,
        "name": "계룡산국립공원위치표시",
        "lat": 36.366108,
        "lon": 127.217453
    },
    {
        "path_id": 27,
        "name": "큰배재 쉼터",
        "lat": 36.366077,
        "lon": 127.217461
    },
    {
        "path_id": 28,
        "name": "갈림길",
        "lat": 36.366154,
        "lon": 127.217499
    },
    {
        "path_id": 29,
        "name": "안내표지(이정표)",
        "lat": 36.366135,
        "lon": 127.217499
    },
    {
        "path_id": 30,
        "name": "갈림길",
        "lat": 36.365913,
        "lon": 127.216888
    },
    {
        "path_id": 31,
        "name": "안내표지(이정표)",
        "lat": 36.365891,
        "lon": 127.216873
    },
    {
        "path_id": 33,
        "name": "계룡산국립공원위치표시",
        "lat": 36.364304,
        "lon": 127.215874
    },
    {
        "path_id": 34,
        "name": "갈림길",
        "lat": 36.363018,
        "lon": 127.214401
    },
    {
        "path_id": 35,
        "name": "안내표지(이정표)",
        "lat": 36.362988,
        "lon": 127.214355
    },
    {
        "path_id": 36,
        "name": "남매탑",
        "lat": 36.362717,
        "lon": 127.213898
    },
    {
        "path_id": 37,
        "name": "안내표지(이정표)",
        "lat": 36.362743,
        "lon": 127.213799
    },
    {
        "path_id": 38,
        "name": "남매탑 쉼터",
        "lat": 36.362862,
        "lon": 127.213768
    },
    {
        "path_id": 39,
        "name": "계룡산국립공원위치표시",
        "lat": 36.362751,
        "lon": 127.213707
    },
    {
        "path_id": 40,
        "name": "급경사(낙석)위험지역",
        "lat": 36.362896,
        "lon": 127.21315
    },
    {
        "path_id": 41,
        "name": "갈림길",
        "lat": 36.3624,
        "lon": 127.21154
    },
    {
        "path_id": 42,
        "name": "안내표지( 이정표)",
        "lat": 36.362381,
        "lon": 127.211494
    },
    {
        "path_id": 43,
        "name": "계룡산국립공원위치표시",
        "lat": 36.362385,
        "lon": 127.211494
    },
    {
        "path_id": 44,
        "name": "삼불봉고개 쉼터",
        "lat": 36.362419,
        "lon": 127.211502
    },
    {
        "path_id": 45,
        "name": "갈림길",
        "lat": 36.362228,
        "lon": 127.211433
    }
]