[
    {
        "path_id": 4,
        "name": "갈림길",
        "lat": 35.434914,
        "lon": 126.751534
    },
    {
        "path_id": 6,
        "name": "원격제어자동염수분사장치",
        "lat": 35.435982,
        "lon": 126.751472
    },
    {
        "path_id": 7,
        "name": "양고살재",
        "lat": 35.436123,
        "lon": 126.751427
    },
    {
        "path_id": 9,
        "name": "자연경관",
        "lat": 35.437088,
        "lon": 126.750931
    },
    {
        "path_id": 12,
        "name": "갈림길",
        "lat": 35.437889,
        "lon": 126.74881
    },
    {
        "path_id": 14,
        "name": "방장사",
        "lat": 35.43914,
        "lon": 126.748062
    },
    {
        "path_id": 15,
        "name": "갈림길",
        "lat": 35.44054,
        "lon": 126.746407
    },
    {
        "path_id": 18,
        "name": "갈미봉",
        "lat": 35.440697,
        "lon": 126.744339
    },
    {
        "path_id": 19,
        "name": "자연경관",
        "lat": 35.440704,
        "lon": 126.744339
    },
    {
        "path_id": 21,
        "name": "갈림길",
        "lat": 35.443031,
        "lon": 126.742538
    },
    {
        "path_id": 25,
        "name": "교차지점",
        "lat": 35.447117,
        "lon": 126.739883
    },
    {
        "path_id": 26,
        "name": "방문산 벽오봉",
        "lat": 35.448017,
        "lon": 126.738533
    },
    {
        "path_id": 27,
        "name": "자연경관",
        "lat": 35.448032,
        "lon": 126.738518
    },
    {
        "path_id": 31,
        "name": "방장산 시산제제단,방등산가비,산악자전거 종합안내도",
        "lat": 35.448631,
        "lon": 126.738235
    },
    {
        "path_id": 32,
        "name": "산악자전거종합안내도",
        "lat": 35.448689,
        "lon": 126.738251
    },
    {
        "path_id": 33,
        "name": "갈림길",
        "lat": 35.448711,
        "lon": 126.738289
    },
    {
        "path_id": 37,
        "name": "억새봉",
        "lat": 35.449165,
        "lon": 126.738083
    },
    {
        "path_id": 38,
        "name": "큰솔봉 방장산",
        "lat": 35.449162,
        "lon": 126.738113
    },
    {
        "path_id": 39,
        "name": "신림저수지",
        "lat": 35.449165,
        "lon": 126.738106
    },
    {
        "path_id": 41,
        "name": "패러글라이딩 활공장",
        "lat": 35.449173,
        "lon": 126.738152
    },
    {
        "path_id": 42,
        "name": "임도와 등산로",
        "lat": 35.450783,
        "lon": 126.739838
    },
    {
        "path_id": 43,
        "name": "갈림길",
        "lat": 35.450981,
        "lon": 126.740059
    },
    {
        "path_id": 45,
        "name": "신선봉 (큰솔봉)",
        "lat": 35.45256,
        "lon": 126.741158
    },
    {
        "path_id": 46,
        "name": "자연경관",
        "lat": 35.452488,
        "lon": 126.741402
    },
    {
        "path_id": 47,
        "name": "갈림길",
        "lat": 35.450954,
        "lon": 126.745972
    },
    {
        "path_id": 48,
        "name": "자연경관",
        "lat": 35.462021,
        "lon": 126.758575
    },
    {
        "path_id": 49,
        "name": "서대봉 큰바위",
        "lat": 35.464394,
        "lon": 126.761177
    },
    {
        "path_id": 52,
        "name": "자연경관",
        "lat": 35.465961,
        "lon": 126.765953
    },
    {
        "path_id": 60,
        "name": "산초",
        "lat": 35.466587,
        "lon": 126.770592
    },
    {
        "path_id": 61,
        "name": "갈림길",
        "lat": 35.467342,
        "lon": 126.77137
    },
    {
        "path_id": 62,
        "name": "자연경관",
        "lat": 35.467365,
        "lon": 126.77153
    },
    {
        "path_id": 63,
        "name": "쓰리봉",
        "lat": 35.467354,
        "lon": 126.771538
    },
    {
        "path_id": 65,
        "name": "갈림길",
        "lat": 35.46804,
        "lon": 126.772308
    },
    {
        "path_id": 67,
        "name": "자연경관",
        "lat": 35.47028,
        "lon": 126.781067
    },
    {
        "path_id": 70,
        "name": "갈림길",
        "lat": 35.467598,
        "lon": 126.788651
    }
]