[
    {
        "path_id": 1,
        "name": "갈림길",
        "lat": 36.396729,
        "lon": 129.147003
    },
    {
        "path_id": 2,
        "name": "전망대",
        "lat": 36.395039,
        "lon": 129.14978
    },
    {
        "path_id": 3,
        "name": "제2전망대",
        "lat": 36.393234,
        "lon": 129.154404
    },
    {
        "path_id": 4,
        "name": "제3전망대",
        "lat": 36.392048,
        "lon": 129.157425
    },
    {
        "path_id": 5,
        "name": "정상",
        "lat": 36.38942,
        "lon": 129.162216
    },
    {
        "path_id": 6,
        "name": "정상",
        "lat": 36.389313,
        "lon": 129.16243
    },
    {
        "path_id": 7,
        "name": "아들바위",
        "lat": 36.397209,
        "lon": 129.148331
    },
    {
        "path_id": 8,
        "name": "계곡 쉼터",
        "lat": 36.397419,
        "lon": 129.150528
    },
    {
        "path_id": 9,
        "name": "자화교 화장실",
        "lat": 36.396461,
        "lon": 129.155899
    },
    {
        "path_id": 10,
        "name": "자판기",
        "lat": 36.396442,
        "lon": 129.156433
    },
    {
        "path_id": 11,
        "name": "갈림길",
        "lat": 36.396484,
        "lon": 129.15683
    },
    {
        "path_id": 12,
        "name": "갈림길",
        "lat": 36.395485,
        "lon": 129.159317
    },
    {
        "path_id": 13,
        "name": "주왕암  화장실",
        "lat": 36.395447,
        "lon": 129.159286
    },
    {
        "path_id": 14,
        "name": "무장굴",
        "lat": 36.395634,
        "lon": 129.157303
    },
    {
        "path_id": 15,
        "name": "무명폭포",
        "lat": 36.395683,
        "lon": 129.15744
    },
    {
        "path_id": 16,
        "name": "주왕굴",
        "lat": 36.394665,
        "lon": 129.160355
    },
    {
        "path_id": 17,
        "name": "주왕암",
        "lat": 36.395031,
        "lon": 129.159592
    },
    {
        "path_id": 18,
        "name": "전망대",
        "lat": 36.397243,
        "lon": 129.158325
    },
    {
        "path_id": 19,
        "name": "ㅅ삭소교  화장실",
        "lat": 36.399445,
        "lon": 129.162247
    },
    {
        "path_id": 21,
        "name": "학소교",
        "lat": 36.399544,
        "lon": 129.162842
    },
    {
        "path_id": 22,
        "name": "급수대 주상절리",
        "lat": 36.398209,
        "lon": 129.158829
    },
    {
        "path_id": 23,
        "name": "갈림길",
        "lat": 36.397663,
        "lon": 129.157211
    }
]