[
  {
    "path_id": 0,
    "path": [
      {
        "lat": 36.116108,
        "lng": 128.001495
      },
      {
        "lat": 36.11512,
        "lng": 128.000046
      }
    ],
    "color": "#35c170",
    "start_name": "극락전주차장 / 입산통제소",
    "length_meter": 170.5,
    "time_minute": 2
  },
  {
    "path_id": 1,
    "path": [
      {
        "lat": 36.11512,
        "lng": 128.000046
      },
      {
        "lat": 36.110046,
        "lng": 127.992935
      }
    ],
    "color": "#014403",
    "start_name": "황악산이정표",
    "length_meter": 852.3,
    "time_minute": 14
  },
  {
    "path_id": 2,
    "path": [
      {
        "lat": 36.110046,
        "lng": 127.992935
      },
      {
        "lat": 36.110054,
        "lng": 127.992912
      }
    ],
    "color": "#127d2c",
    "start_name": "망월봉",
    "length_meter": 2.2,
    "time_minute": 0
  },
  {
    "path_id": 3,
    "path": [
      {
        "lat": 36.110054,
        "lng": 127.992912
      },
      {
        "lat": 36.109028,
        "lng": 127.99128
      }
    ],
    "color": "#683fa7",
    "start_name": "망월봉쉼터 / 갈림길",
    "length_meter": 191.6,
    "time_minute": 3
  },
  {
    "path_id": 4,
    "path": [
      {
        "lat": 36.109028,
        "lng": 127.99128
      },
      {
        "lat": 36.103855,
        "lng": 127.980324
      }
    ],
    "color": "#72a762",
    "start_name": "국가지점번호 / 갈림길",
    "length_meter": 1144.7,
    "time_minute": 19
  },
  {
    "path_id": 5,
    "path": [
      {
        "lat": 36.103855,
        "lng": 127.980324
      },
      {
        "lat": 36.104332,
        "lng": 127.977654
      }
    ],
    "color": "#8f2e8b",
    "start_name": "신선봉 / 갈림길",
    "length_meter": 245.7,
    "time_minute": 4
  },
  {
    "path_id": 6,
    "path": [
      {
        "lat": 36.104332,
        "lng": 127.977654
      },
      {
        "lat": 36.105808,
        "lng": 127.972198
      }
    ],
    "color": "#23856d",
    "start_name": "국가지점번호",
    "length_meter": 516.9,
    "time_minute": 8
  },
  {
    "path_id": 7,
    "path": [
      {
        "lat": 36.105808,
        "lng": 127.972198
      },
      {
        "lat": 36.109535,
        "lng": 127.974953
      }
    ],
    "color": "#8b657c",
    "start_name": "갈림길 / 국가지점번호",
    "length_meter": 483.4,
    "time_minute": 8
  },
  {
    "path_id": 8,
    "path": [
      {
        "lat": 36.109535,
        "lng": 127.974953
      },
      {
        "lat": 36.111649,
        "lng": 127.980774
      }
    ],
    "color": "#785f4b",
    "start_name": "내원계곡과 등산로합류점",
    "length_meter": 573.3,
    "time_minute": 9
  },
  {
    "path_id": 9,
    "path": [
      {
        "lat": 36.111649,
        "lng": 127.980774
      },
      {
        "lat": 36.116138,
        "lng": 127.99482
      }
    ],
    "color": "#3b1685",
    "start_name": "내원계곡폭포",
    "length_meter": 1356.9,
    "time_minute": 22
  },
  {
    "path_id": 10,
    "path": [
      {
        "lat": 36.116138,
        "lng": 127.99482
      },
      {
        "lat": 36.116978,
        "lng": 127.996277
      }
    ],
    "color": "#7db3a9",
    "start_name": "명적암주차장",
    "length_meter": 160.8,
    "time_minute": 2
  },
  {
    "path_id": 11,
    "path": [
      {
        "lat": 36.116978,
        "lng": 127.996277
      },
      {
        "lat": 36.117805,
        "lng": 127.999779
      }
    ],
    "color": "#b49906",
    "start_name": "갈림길",
    "length_meter": 327.7,
    "time_minute": 5
  },
  {
    "path_id": 12,
    "path": [
      {
        "lat": 36.117805,
        "lng": 127.999779
      },
      {
        "lat": 36.117737,
        "lng": 127.99984
      }
    ],
    "color": "#1a5f29",
    "start_name": "입산통제소",
    "length_meter": 9.3,
    "time_minute": 0
  }
]