{
  "max_ele": 960.445,
  "total_length_km": "6.0km",
  "total_time": "1시간 15분",
  "start_name": "극락전주차장",
  "end_name": "백두대간안내지도판및황악산등산안내판",
  "track": [
    {
      "path_id": 0,
      "path": [
        {
          "lat": 36.116108,
          "lng": 128.001495
        },
        {
          "lat": 36.11512,
          "lng": 128.000046
        }
      ],
      "color": "#203c1b",
      "start_name": "극락전주차장 / 입산통제소",
      "length_meter": 170.5,
      "time_minute": 2
    },
    {
      "path_id": 1,
      "path": [
        {
          "lat": 36.11512,
          "lng": 128.000046
        },
        {
          "lat": 36.110046,
          "lng": 127.992935
        }
      ],
      "color": "#6037c3",
      "start_name": "황악산이정표",
      "length_meter": 852.3,
      "time_minute": 10
    },
    {
      "path_id": 2,
      "path": [
        {
          "lat": 36.110046,
          "lng": 127.992935
        },
        {
          "lat": 36.110054,
          "lng": 127.992912
        }
      ],
      "color": "#ad2461",
      "start_name": "망월봉",
      "length_meter": 2.2,
      "time_minute": 0
    },
    {
      "path_id": 3,
      "path": [
        {
          "lat": 36.110054,
          "lng": 127.992912
        },
        {
          "lat": 36.109028,
          "lng": 127.99128
        }
      ],
      "color": "#7291c1",
      "start_name": "망월봉쉼터 / 갈림길",
      "length_meter": 191.6,
      "time_minute": 3
    },
    {
      "path_id": 4,
      "path": [
        {
          "lat": 36.109028,
          "lng": 127.99128
        },
        {
          "lat": 36.109039,
          "lng": 127.991302
        }
      ],
      "color": "#815215",
      "start_name": "국가지점번호",
      "length_meter": 2.3,
      "time_minute": 0
    },
    {
      "path_id": 5,
      "path": [
        {
          "lat": 36.109039,
          "lng": 127.991302
        },
        {
          "lat": 36.108749,
          "lng": 127.989655
        }
      ],
      "color": "#263288",
      "start_name": "갈림길 / 갈림길쉼터",
      "length_meter": 151.8,
      "time_minute": 2
    },
    {
      "path_id": 6,
      "path": [
        {
          "lat": 36.108749,
          "lng": 127.989655
        },
        {
          "lat": 36.103855,
          "lng": 127.980324
        }
      ],
      "color": "#3bb945",
      "start_name": "쉼터",
      "length_meter": 999.4,
      "time_minute": 12
    },
    {
      "path_id": 7,
      "path": [
        {
          "lat": 36.103855,
          "lng": 127.980324
        },
        {
          "lat": 36.103863,
          "lng": 127.980309
        }
      ],
      "color": "#8d5995",
      "start_name": "신선봉",
      "length_meter": 1.6,
      "time_minute": 0
    },
    {
      "path_id": 8,
      "path": [
        {
          "lat": 36.103863,
          "lng": 127.980309
        },
        {
          "lat": 36.104332,
          "lng": 127.977654
        }
      ],
      "color": "#901578",
      "start_name": "이정표 / 갈림길",
      "length_meter": 244.2,
      "time_minute": 4
    },
    {
      "path_id": 9,
      "path": [
        {
          "lat": 36.104332,
          "lng": 127.977654
        },
        {
          "lat": 36.104321,
          "lng": 127.977654
        }
      ],
      "color": "#325469",
      "start_name": "국가지점번호",
      "length_meter": 1.2,
      "time_minute": 0
    },
    {
      "path_id": 10,
      "path": [
        {
          "lat": 36.104321,
          "lng": 127.977654
        },
        {
          "lat": 36.105808,
          "lng": 127.972198
        }
      ],
      "color": "#ab5237",
      "start_name": "쉼터",
      "length_meter": 517.3,
      "time_minute": 6
    },
    {
      "path_id": 11,
      "path": [
        {
          "lat": 36.105808,
          "lng": 127.972198
        },
        {
          "lat": 36.109535,
          "lng": 127.974953
        }
      ],
      "color": "#946a17",
      "start_name": "갈림길 / 국가지점번호",
      "length_meter": 483.4,
      "time_minute": 8
    },
    {
      "path_id": 12,
      "path": [
        {
          "lat": 36.109535,
          "lng": 127.974953
        },
        {
          "lat": 36.111649,
          "lng": 127.980774
        }
      ],
      "color": "#9d6867",
      "start_name": "내원계곡과 등산로합류점",
      "length_meter": 573.3,
      "time_minute": 7
    },
    {
      "path_id": 13,
      "path": [
        {
          "lat": 36.111649,
          "lng": 127.980774
        },
        {
          "lat": 36.116138,
          "lng": 127.99482
        }
      ],
      "color": "#73c729",
      "start_name": "내원계곡폭포",
      "length_meter": 1356.9,
      "time_minute": 16
    },
    {
      "path_id": 14,
      "path": [
        {
          "lat": 36.116138,
          "lng": 127.99482
        },
        {
          "lat": 36.116978,
          "lng": 127.996277
        }
      ],
      "color": "#b1b153",
      "start_name": "명적암주차장",
      "length_meter": 160.8,
      "time_minute": 2
    },
    {
      "path_id": 15,
      "path": [
        {
          "lat": 36.116978,
          "lng": 127.996277
        },
        {
          "lat": 36.117805,
          "lng": 127.999779
        }
      ],
      "color": "#3d814f",
      "start_name": "갈림길",
      "length_meter": 327.7,
      "time_minute": 4
    },
    {
      "path_id": 16,
      "path": [
        {
          "lat": 36.117805,
          "lng": 127.999779
        },
        {
          "lat": 36.117737,
          "lng": 127.99984
        }
      ],
      "color": "#252f17",
      "start_name": "입산통제소",
      "length_meter": 9.3,
      "time_minute": 0
    }
  ]
}