[
  {
    "path_id": 0,
    "path": [
      {
        "lat": 36.151463,
        "lng": 127.99115
      },
      {
        "lat": 36.151432,
        "lng": 127.991127
      }
    ],
    "color": "#cbe03c",
    "start_point_name": "괘방령표지석",
    "length": 4,
    "time": "0"
  },
  {
    "path_id": 1,
    "path": [
      {
        "lat": 36.151432,
        "lng": 127.991127
      },
      {
        "lat": 36.151093,
        "lng": 127.990913
      }
    ],
    "color": "#c8a09a",
    "start_point_name": "괘방령백두대간보호지역안내판",
    "length": 42,
    "time": "0"
  },
  {
    "path_id": 2,
    "path": [
      {
        "lat": 36.151093,
        "lng": 127.990913
      },
      {
        "lat": 36.148445,
        "lng": 127.988579
      }
    ],
    "color": "#c36c1c",
    "start_point_name": "쉼터",
    "length": 361,
    "time": "6"
  },
  {
    "path_id": 3,
    "path": [
      {
        "lat": 36.148445,
        "lng": 127.988579
      },
      {
        "lat": 36.145912,
        "lng": 127.987785
      }
    ],
    "color": "#226138",
    "start_point_name": "가성산조망점",
    "length": 290,
    "time": "4"
  },
  {
    "path_id": 4,
    "path": [
      {
        "lat": 36.145912,
        "lng": 127.987785
      },
      {
        "lat": 36.145367,
        "lng": 127.987892
      }
    ],
    "color": "#a00ac6",
    "start_point_name": "이정표",
    "length": 61,
    "time": "1"
  },
  {
    "path_id": 5,
    "path": [
      {
        "lat": 36.145367,
        "lng": 127.987892
      },
      {
        "lat": 36.14497,
        "lng": 127.988213
      }
    ],
    "color": "#13d1f3",
    "start_point_name": "수원함양보안림",
    "length": 52,
    "time": "0"
  },
  {
    "path_id": 6,
    "path": [
      {
        "lat": 36.14497,
        "lng": 127.988213
      },
      {
        "lat": 36.143978,
        "lng": 127.989067
      }
    ],
    "color": "#59e764",
    "start_point_name": "백두대간보호지역",
    "length": 134,
    "time": "2"
  },
  {
    "path_id": 7,
    "path": [
      {
        "lat": 36.143978,
        "lng": 127.989067
      },
      {
        "lat": 36.140919,
        "lng": 127.98735
      }
    ],
    "color": "#4fcd09",
    "start_point_name": "백두대간보호지역판",
    "length": 373,
    "time": "6"
  },
  {
    "path_id": 8,
    "path": [
      {
        "lat": 36.140919,
        "lng": 127.98735
      },
      {
        "lat": 36.140915,
        "lng": 127.987373
      }
    ],
    "color": "#f26aed",
    "start_point_name": "여시골산정상쉼터",
    "length": 2,
    "time": "0"
  },
  {
    "path_id": 9,
    "path": [
      {
        "lat": 36.140915,
        "lng": 127.987373
      },
      {
        "lat": 36.140915,
        "lng": 127.987373
      }
    ],
    "color": "#b5754a",
    "start_point_name": "이정표",
    "length": 0,
    "time": "0"
  },
  {
    "path_id": 10,
    "path": [
      {
        "lat": 36.140915,
        "lng": 127.987373
      },
      {
        "lat": 36.135429,
        "lng": 127.987984
      }
    ],
    "color": "#d2d21a",
    "start_point_name": "여시골산",
    "length": 612,
    "time": "10"
  },
  {
    "path_id": 11,
    "path": [
      {
        "lat": 36.135429,
        "lng": 127.987984
      },
      {
        "lat": 36.135433,
        "lng": 127.987991
      }
    ],
    "color": "#422062",
    "start_point_name": "여시굴",
    "length": 0,
    "time": "0"
  },
  {
    "path_id": 12,
    "path": [
      {
        "lat": 36.135433,
        "lng": 127.987991
      },
      {
        "lat": 36.134201,
        "lng": 127.988304
      }
    ],
    "color": "#ab7b2c",
    "start_point_name": "여시굴",
    "length": 139,
    "time": "2"
  },
  {
    "path_id": 13,
    "path": [
      {
        "lat": 36.134201,
        "lng": 127.988304
      },
      {
        "lat": 36.132023,
        "lng": 127.988113
      }
    ],
    "color": "#4a32bd",
    "start_point_name": "능선쉼터",
    "length": 242,
    "time": "4"
  },
  {
    "path_id": 14,
    "path": [
      {
        "lat": 36.132023,
        "lng": 127.988113
      },
      {
        "lat": 36.123955,
        "lng": 127.998276
      }
    ],
    "color": "#789ff8",
    "start_point_name": "쉼터",
    "length": 1279,
    "time": "21"
  },
  {
    "path_id": 15,
    "path": [
      {
        "lat": 36.123955,
        "lng": 127.998276
      },
      {
        "lat": 36.123955,
        "lng": 127.998322
      }
    ],
    "color": "#3e52fb",
    "start_point_name": "태봉산갈림길쉼터",
    "length": 4,
    "time": "0"
  },
  {
    "path_id": 16,
    "path": [
      {
        "lat": 36.123955,
        "lng": 127.998322
      },
      {
        "lat": 36.118721,
        "lng": 128.003418
      }
    ],
    "color": "#702172",
    "start_point_name": "갈림길",
    "length": 740,
    "time": "12"
  },
  {
    "path_id": 17,
    "path": [
      {
        "lat": 36.118721,
        "lng": 128.003418
      },
      {
        "lat": 36.118675,
        "lng": 128.003448
      }
    ],
    "color": "#13d35b",
    "start_point_name": "웨이포인트 33",
    "length": 5,
    "time": "0"
  },
  {
    "path_id": 18,
    "path": [
      {
        "lat": 36.118675,
        "lng": 128.003448
      },
      {
        "lat": 36.118622,
        "lng": 128.004196
      }
    ],
    "color": "#3ebd03",
    "start_point_name": "웨이포인트 34",
    "length": 67,
    "time": "1"
  },
  {
    "path_id": 19,
    "path": [
      {
        "lat": 36.118622,
        "lng": 128.004196
      },
      {
        "lat": 36.118549,
        "lng": 128.004379
      }
    ],
    "color": "#1a8a58",
    "start_point_name": "태봉산쉼터",
    "length": 18,
    "time": "0"
  },
  {
    "path_id": 20,
    "path": [
      {
        "lat": 36.118549,
        "lng": 128.004379
      },
      {
        "lat": 36.11795,
        "lng": 128.00737
      }
    ],
    "color": "#5dd132",
    "start_point_name": "태봉산",
    "length": 276,
    "time": "4"
  },
  {
    "path_id": 21,
    "path": [
      {
        "lat": 36.11795,
        "lng": 128.00737
      },
      {
        "lat": 36.117607,
        "lng": 128.007294
      }
    ],
    "color": "#53974e",
    "start_point_name": "쉼터",
    "length": 38,
    "time": "0"
  },
  {
    "path_id": 22,
    "path": [
      {
        "lat": 36.117607,
        "lng": 128.007294
      },
      {
        "lat": 36.117512,
        "lng": 128.007263
      }
    ],
    "color": "#3de6b9",
    "start_point_name": "공원내 고려~조선시대기와가마유적",
    "length": 10,
    "time": "0"
  },
  {
    "path_id": 23,
    "path": [
      {
        "lat": 36.117512,
        "lng": 128.007263
      },
      {
        "lat": 36.116669,
        "lng": 128.00827
      }
    ],
    "color": "#0d1c06",
    "start_point_name": "쉼터",
    "length": 130,
    "time": "2"
  },
  {
    "path_id": 24,
    "path": [
      {
        "lat": 36.116669,
        "lng": 128.00827
      },
      {
        "lat": 36.116982,
        "lng": 128.009399
      }
    ],
    "color": "#ced193",
    "start_point_name": "김천시립박물관",
    "length": 107,
    "time": "1"
  },
  {
    "path_id": 25,
    "path": [
      {
        "lat": 36.116982,
        "lng": 128.009399
      },
      {
        "lat": 36.117146,
        "lng": 128.009186
      }
    ],
    "color": "#531175",
    "start_point_name": "김천시립박물관",
    "length": 26,
    "time": "0"
  },
  {
    "path_id": 26,
    "path": [
      {
        "lat": 36.117146,
        "lng": 128.009186
      },
      {
        "lat": 36.118282,
        "lng": 128.009201
      }
    ],
    "color": "#09dfeb",
    "start_point_name": "사명대사공원주차장",
    "length": 126,
    "time": "2"
  },
  {
    "path_id": 27,
    "path": [
      {
        "lat": 36.118282,
        "lng": 128.009201
      },
      {
        "lat": 36.118935,
        "lng": 128.008804
      }
    ],
    "color": "#897760",
    "start_point_name": "평화의 탑",
    "length": 80,
    "time": "1"
  },
  {
    "path_id": 28,
    "path": [
      {
        "lat": 36.118935,
        "lng": 128.008804
      },
      {
        "lat": 36.119331,
        "lng": 128.00824
      }
    ],
    "color": "#446482",
    "start_point_name": "평화의탑",
    "length": 67,
    "time": "1"
  },
  {
    "path_id": 29,
    "path": [
      {
        "lat": 36.119331,
        "lng": 128.00824
      },
      {
        "lat": 36.119606,
        "lng": 128.007538
      }
    ],
    "color": "#01117d",
    "start_point_name": "공원내쉼터",
    "length": 70,
    "time": "1"
  },
  {
    "path_id": 30,
    "path": [
      {
        "lat": 36.119606,
        "lng": 128.007538
      },
      {
        "lat": 36.119858,
        "lng": 128.007095
      }
    ],
    "color": "#ed8d86",
    "start_point_name": "공원내마을이정표",
    "length": 48,
    "time": "0"
  },
  {
    "path_id": 31,
    "path": [
      {
        "lat": 36.119858,
        "lng": 128.007095
      },
      {
        "lat": 36.120434,
        "lng": 128.006119
      }
    ],
    "color": "#48c220",
    "start_point_name": "건강문화원주차장",
    "length": 108,
    "time": "1"
  },
  {
    "path_id": 32,
    "path": [
      {
        "lat": 36.120434,
        "lng": 128.006119
      },
      {
        "lat": 36.121811,
        "lng": 128.005295
      }
    ],
    "color": "#48ef67",
    "start_point_name": "건강문화원",
    "length": 170,
    "time": "2"
  },
  {
    "path_id": 33,
    "path": [
      {
        "lat": 36.121811,
        "lng": 128.005295
      },
      {
        "lat": 36.122364,
        "lng": 128.003662
      }
    ],
    "color": "#7025e6",
    "start_point_name": "산불감시초소",
    "length": 159,
    "time": "2"
  },
  {
    "path_id": 34,
    "path": [
      {
        "lat": 36.122364,
        "lng": 128.003662
      },
      {
        "lat": 36.122284,
        "lng": 128.00325
      }
    ],
    "color": "#c10e9c",
    "start_point_name": "직지사노인요양원",
    "length": 38,
    "time": "0"
  },
  {
    "path_id": 35,
    "path": [
      {
        "lat": 36.122284,
        "lng": 128.00325
      },
      {
        "lat": 36.122814,
        "lng": 128.003265
      }
    ],
    "color": "#392544",
    "start_point_name": "직지사북암",
    "length": 58,
    "time": "0"
  },
  {
    "path_id": 36,
    "path": [
      {
        "lat": 36.122814,
        "lng": 128.003265
      },
      {
        "lat": 36.125748,
        "lng": 128.008682
      }
    ],
    "color": "#6265c2",
    "start_point_name": "직지사북암주차장",
    "length": 585,
    "time": "9"
  },
  {
    "path_id": 37,
    "path": [
      {
        "lat": 36.125748,
        "lng": 128.008682
      },
      {
        "lat": 36.131878,
        "lng": 128.011047
      }
    ],
    "color": "#4360aa",
    "start_point_name": "이정표",
    "length": 713,
    "time": "11"
  },
  {
    "path_id": 38,
    "path": [
      {
        "lat": 36.131878,
        "lng": 128.011047
      },
      {
        "lat": 36.131702,
        "lng": 128.011276
      }
    ],
    "color": "#424417",
    "start_point_name": "기날쉼터",
    "length": 28,
    "time": "0"
  }
]