{
  "mnt_id": 84,
  "mnt_name": "축령산",
  "course_id": 215,
  "max_ele": 910.832,
  "total_length_km": "2.9km",
  "total_time": "0시간 36분",
  "start_name": "시내버스 축령산자연휴양림",
  "end_name": "남이바위",
  "level": "중",
  "track": [
    {
      "path_id": 0,
      "path": [
        {
          "lat": 37.752541,
          "lng": 127.30883,
          "ele": 297.386
        },
        {
          "lat": 37.754208,
          "lng": 127.31398,
          "ele": 370.874
        }
      ],
      "color": "#87825f",
      "start_name": "시내버스 축령산자연휴양림 / 슈퍼 / 축령산 계곡가든 / 축령산 자연휴양림",
      "end_name": "나무벤치",
      "length_meter": 502.8,
      "time_minute": 8
    },
    {
      "path_id": 1,
      "path": [
        {
          "lat": 37.754208,
          "lng": 127.31398,
          "ele": 370.874
        },
        {
          "lat": 37.752773,
          "lng": 127.334007,
          "ele": 904.963
        }
      ],
      "color": "#242735",
      "start_name": "나무벤치",
      "end_name": "갈림길",
      "length_meter": 1767.9,
      "time_minute": 22
    },
    {
      "path_id": 2,
      "path": [
        {
          "lat": 37.752773,
          "lng": 127.334007,
          "ele": 904.963
        },
        {
          "lat": 37.751217,
          "lng": 127.332024,
          "ele": 885.365
        }
      ],
      "color": "#b04c8e",
      "start_name": "갈림길 / 축령산 정상 886.2m",
      "end_name": "헬기장",
      "length_meter": 248.8,
      "time_minute": 4
    },
    {
      "path_id": 3,
      "path": [
        {
          "lat": 37.751217,
          "lng": 127.332024,
          "ele": 885.365
        },
        {
          "lat": 37.749367,
          "lng": 127.330093,
          "ele": 868.921
        }
      ],
      "color": "#1f3c31",
      "start_name": "헬기장",
      "end_name": "갈림길",
      "length_meter": 266.7,
      "time_minute": 3
    },
    {
      "path_id": 4,
      "path": [
        {
          "lat": 37.749367,
          "lng": 127.330093,
          "ele": 868.921
        },
        {
          "lat": 37.748859,
          "lng": 127.328583,
          "ele": 860.926
        }
      ],
      "color": "#47371b",
      "start_name": "갈림길",
      "end_name": "남이바위",
      "length_meter": 144.3,
      "time_minute": 1
    }
  ]
}