[
  {
    "path_id": 0,
    "path": [
      {
        "lat": 37.755405,
        "lng": 127.314644
      },
      {
        "lat": 37.755424,
        "lng": 127.314659
      }
    ],
    "color": "#7bddbc",
    "start_point_name": "축령산휴양림",
    "length": 2,
    "time": "0"
  },
  {
    "path_id": 1,
    "path": [
      {
        "lat": 37.755424,
        "lng": 127.314659
      },
      {
        "lat": 37.755524,
        "lng": 127.314865
      }
    ],
    "color": "#f0f110",
    "start_point_name": "휴양림주차장",
    "length": 21,
    "time": "0"
  },
  {
    "path_id": 2,
    "path": [
      {
        "lat": 37.755524,
        "lng": 127.314865
      },
      {
        "lat": 37.757511,
        "lng": 127.317299
      }
    ],
    "color": "#1a6271",
    "start_point_name": "산림휴양관",
    "length": 307,
    "time": "5"
  },
  {
    "path_id": 3,
    "path": [
      {
        "lat": 37.757511,
        "lng": 127.317299
      },
      {
        "lat": 37.75716,
        "lng": 127.319885
      }
    ],
    "color": "#678e2d",
    "start_point_name": "갈림길",
    "length": 230,
    "time": "3"
  },
  {
    "path_id": 4,
    "path": [
      {
        "lat": 37.75716,
        "lng": 127.319885
      },
      {
        "lat": 37.756924,
        "lng": 127.322548
      }
    ],
    "color": "#1f6519",
    "start_point_name": "갈림길",
    "length": 235,
    "time": "3"
  },
  {
    "path_id": 5,
    "path": [
      {
        "lat": 37.756924,
        "lng": 127.322548
      },
      {
        "lat": 37.757423,
        "lng": 127.323242
      }
    ],
    "color": "#e7e7b0",
    "start_point_name": "갈림길",
    "length": 82,
    "time": "1"
  },
  {
    "path_id": 6,
    "path": [
      {
        "lat": 37.757423,
        "lng": 127.323242
      },
      {
        "lat": 37.756908,
        "lng": 127.32576
      }
    ],
    "color": "#15e45b",
    "start_point_name": "갈림길",
    "length": 228,
    "time": "3"
  },
  {
    "path_id": 7,
    "path": [
      {
        "lat": 37.756908,
        "lng": 127.32576
      },
      {
        "lat": 37.756729,
        "lng": 127.32962
      }
    ],
    "color": "#557533",
    "start_point_name": "전나무숲",
    "length": 339,
    "time": "5"
  },
  {
    "path_id": 8,
    "path": [
      {
        "lat": 37.756729,
        "lng": 127.32962
      },
      {
        "lat": 37.756729,
        "lng": 127.329643
      }
    ],
    "color": "#6019a6",
    "start_point_name": "갈림길",
    "length": 2,
    "time": "0"
  },
  {
    "path_id": 9,
    "path": [
      {
        "lat": 37.756729,
        "lng": 127.329643
      },
      {
        "lat": 37.759907,
        "lng": 127.327591
      }
    ],
    "color": "#c2a3a8",
    "start_point_name": "갈림길",
    "length": 396,
    "time": "6"
  },
  {
    "path_id": 10,
    "path": [
      {
        "lat": 37.759907,
        "lng": 127.327591
      },
      {
        "lat": 37.76395,
        "lng": 127.312477
      }
    ],
    "color": "#534df2",
    "start_point_name": "서리산헬기장대피소",
    "length": 1402,
    "time": "23"
  },
  {
    "path_id": 11,
    "path": [
      {
        "lat": 37.76395,
        "lng": 127.312477
      },
      {
        "lat": 37.757339,
        "lng": 127.313858
      }
    ],
    "color": "#8de8cc",
    "start_point_name": "갈림길",
    "length": 745,
    "time": "12"
  },
  {
    "path_id": 12,
    "path": [
      {
        "lat": 37.757339,
        "lng": 127.313858
      },
      {
        "lat": 37.756363,
        "lng": 127.312492
      }
    ],
    "color": "#534b17",
    "start_point_name": "갈림길",
    "length": 161,
    "time": "2"
  },
  {
    "path_id": 13,
    "path": [
      {
        "lat": 37.756363,
        "lng": 127.312492
      },
      {
        "lat": 37.756367,
        "lng": 127.312462
      }
    ],
    "color": "#cb03cb",
    "start_point_name": "갈림길",
    "length": 2,
    "time": "0"
  },
  {
    "path_id": 14,
    "path": [
      {
        "lat": 37.756367,
        "lng": 127.312462
      },
      {
        "lat": 37.754623,
        "lng": 127.313049
      }
    ],
    "color": "#527c06",
    "start_point_name": "전나무군락지",
    "length": 200,
    "time": "3"
  },
  {
    "path_id": 15,
    "path": [
      {
        "lat": 37.754623,
        "lng": 127.313049
      },
      {
        "lat": 37.754204,
        "lng": 127.312019
      }
    ],
    "color": "#a5f1aa",
    "start_point_name": "휴양림관리사무소",
    "length": 101,
    "time": "1"
  },
  {
    "path_id": 16,
    "path": [
      {
        "lat": 37.754204,
        "lng": 127.312019
      },
      {
        "lat": 37.754135,
        "lng": 127.311745
      }
    ],
    "color": "#c2671a",
    "start_point_name": "휴양림제2주차장",
    "length": 25,
    "time": "0"
  },
  {
    "path_id": 17,
    "path": [
      {
        "lat": 37.754135,
        "lng": 127.311745
      },
      {
        "lat": 37.753773,
        "lng": 127.311348
      }
    ],
    "color": "#cb6bcd",
    "start_point_name": "제2주차장 화장실",
    "length": 53,
    "time": "0"
  },
  {
    "path_id": 18,
    "path": [
      {
        "lat": 37.753773,
        "lng": 127.311348
      },
      {
        "lat": 37.75362,
        "lng": 127.311188
      }
    ],
    "color": "#b38c8e",
    "start_point_name": "버스전용조차장",
    "length": 22,
    "time": "0"
  },
  {
    "path_id": 19,
    "path": [
      {
        "lat": 37.75362,
        "lng": 127.311188
      },
      {
        "lat": 37.753586,
        "lng": 127.311081
      }
    ],
    "color": "#1da857",
    "start_point_name": "축령산휴양림 검문소",
    "length": 10,
    "time": "0"
  },
  {
    "path_id": 20,
    "path": [
      {
        "lat": 37.753586,
        "lng": 127.311081
      },
      {
        "lat": 37.753605,
        "lng": 127.311134
      }
    ],
    "color": "#e71b89",
    "start_point_name": "휴양림주차장",
    "length": 5,
    "time": "0"
  },
  {
    "path_id": 21,
    "path": [
      {
        "lat": 37.753605,
        "lng": 127.311134
      },
      {
        "lat": 37.754715,
        "lng": 127.313721
      }
    ],
    "color": "#7e305e",
    "start_point_name": "갈림길",
    "length": 258,
    "time": "4"
  },
  {
    "path_id": 22,
    "path": [
      {
        "lat": 37.754715,
        "lng": 127.313721
      },
      {
        "lat": 37.755405,
        "lng": 127.314461
      }
    ],
    "color": "#8459c7",
    "start_point_name": "휴양림 숲속의집",
    "length": 100,
    "time": "1"
  }
]