[
  {
    "path_id": 0,
    "path": [
      {
        "lat": 37.750446,
        "lng": 127.306976
      },
      {
        "lat": 37.751144,
        "lng": 127.30661
      }
    ],
    "color": "#9dc2ab",
    "start_name": "갈림길",
    "length_meter": 84.0,
    "time_minute": 1
  },
  {
    "path_id": 1,
    "path": [
      {
        "lat": 37.751144,
        "lng": 127.30661
      },
      {
        "lat": 37.752941,
        "lng": 127.300331
      }
    ],
    "color": "#378a01",
    "start_name": "반딧불이 서식지 / 갈림길",
    "length_meter": 595.7,
    "time_minute": 9
  },
  {
    "path_id": 2,
    "path": [
      {
        "lat": 37.752941,
        "lng": 127.300331
      },
      {
        "lat": 37.761639,
        "lng": 127.301437
      }
    ],
    "color": "#0d13af",
    "start_name": "자연쉄터",
    "length_meter": 972.0,
    "time_minute": 16
  },
  {
    "path_id": 3,
    "path": [
      {
        "lat": 37.761639,
        "lng": 127.301437
      },
      {
        "lat": 37.766079,
        "lng": 127.308151
      }
    ],
    "color": "#15bd0c",
    "start_name": "갈림길",
    "length_meter": 769.5,
    "time_minute": 12
  },
  {
    "path_id": 4,
    "path": [
      {
        "lat": 37.766079,
        "lng": 127.308151
      },
      {
        "lat": 37.766521,
        "lng": 127.308777
      }
    ],
    "color": "#079fa0",
    "start_name": "능선",
    "length_meter": 73.8,
    "time_minute": 1
  },
  {
    "path_id": 5,
    "path": [
      {
        "lat": 37.766521,
        "lng": 127.308777
      },
      {
        "lat": 37.766567,
        "lng": 127.309486
      }
    ],
    "color": "#a18949",
    "start_name": "능선길",
    "length_meter": 62.5,
    "time_minute": 1
  },
  {
    "path_id": 6,
    "path": [
      {
        "lat": 37.766567,
        "lng": 127.309486
      },
      {
        "lat": 37.766602,
        "lng": 127.309593
      }
    ],
    "color": "#90414a",
    "start_name": "축령산",
    "length_meter": 10.2,
    "time_minute": 0
  },
  {
    "path_id": 7,
    "path": [
      {
        "lat": 37.766602,
        "lng": 127.309593
      },
      {
        "lat": 37.767651,
        "lng": 127.310516
      }
    ],
    "color": "#c6a31b",
    "start_name": "화채봉 / 갈림길",
    "length_meter": 147.7,
    "time_minute": 2
  },
  {
    "path_id": 8,
    "path": [
      {
        "lat": 37.767651,
        "lng": 127.310516
      },
      {
        "lat": 37.768188,
        "lng": 127.311012
      }
    ],
    "color": "#a43e9c",
    "start_name": "철쭉동산 / 갈림길",
    "length_meter": 74.1,
    "time_minute": 1
  },
  {
    "path_id": 9,
    "path": [
      {
        "lat": 37.768188,
        "lng": 127.311012
      },
      {
        "lat": 37.768417,
        "lng": 127.312057
      }
    ],
    "color": "#be009e",
    "start_name": "철쭉능선 / 철쭉능선길 / 철쭉능산 전망터",
    "length_meter": 98.2,
    "time_minute": 1
  },
  {
    "path_id": 10,
    "path": [
      {
        "lat": 37.768417,
        "lng": 127.312057
      },
      {
        "lat": 37.768421,
        "lng": 127.312675
      }
    ],
    "color": "#02a47e",
    "start_name": "쩔쭉능선 조망터 / 철쭉동산 / 단체산객 쉄터 / 철쭉동산",
    "length_meter": 63.2,
    "time_minute": 1
  },
  {
    "path_id": 11,
    "path": [
      {
        "lat": 37.768421,
        "lng": 127.312675
      },
      {
        "lat": 37.768471,
        "lng": 127.316055
      }
    ],
    "color": "#5b9d6b",
    "start_name": "전망대",
    "length_meter": 297.1,
    "time_minute": 4
  },
  {
    "path_id": 12,
    "path": [
      {
        "lat": 37.768471,
        "lng": 127.316055
      },
      {
        "lat": 37.765934,
        "lng": 127.320152
      }
    ],
    "color": "#4c198c",
    "start_name": "갈림길 / 서리산 / 정상쉄터 / 뱀,맷돼지조심",
    "length_meter": 467.3,
    "time_minute": 7
  },
  {
    "path_id": 13,
    "path": [
      {
        "lat": 37.765934,
        "lng": 127.320152
      },
      {
        "lat": 37.761383,
        "lng": 127.324905
      }
    ],
    "color": "#a89a40",
    "start_name": "뱀,맷돠지 / 축령산조망",
    "length_meter": 659.0,
    "time_minute": 10
  },
  {
    "path_id": 14,
    "path": [
      {
        "lat": 37.761383,
        "lng": 127.324905
      },
      {
        "lat": 37.760704,
        "lng": 127.325508
      }
    ],
    "color": "#1d9c02",
    "start_name": "뱀,멧돼지",
    "length_meter": 92.3,
    "time_minute": 1
  },
  {
    "path_id": 15,
    "path": [
      {
        "lat": 37.760704,
        "lng": 127.325508
      },
      {
        "lat": 37.760086,
        "lng": 127.320564
      }
    ],
    "color": "#c50e0a",
    "start_name": "갈림길",
    "length_meter": 440.0,
    "time_minute": 7
  },
  {
    "path_id": 16,
    "path": [
      {
        "lat": 37.760086,
        "lng": 127.320564
      },
      {
        "lat": 37.757202,
        "lng": 127.317482
      }
    ],
    "color": "#c69691",
    "start_name": "전망대.정자 / 갈림길",
    "length_meter": 421.6,
    "time_minute": 7
  },
  {
    "path_id": 17,
    "path": [
      {
        "lat": 37.757202,
        "lng": 127.317482
      },
      {
        "lat": 37.756992,
        "lng": 127.316566
      }
    ],
    "color": "#64ac87",
    "start_name": "임도쉄터",
    "length_meter": 83.8,
    "time_minute": 1
  },
  {
    "path_id": 18,
    "path": [
      {
        "lat": 37.756992,
        "lng": 127.316566
      },
      {
        "lat": 37.756248,
        "lng": 127.31649
      }
    ],
    "color": "#36c438",
    "start_name": "하늘바라기 폭포",
    "length_meter": 83.0,
    "time_minute": 1
  },
  {
    "path_id": 19,
    "path": [
      {
        "lat": 37.756248,
        "lng": 127.31649
      },
      {
        "lat": 37.755795,
        "lng": 127.31575
      }
    ],
    "color": "#c5bc46",
    "start_name": "특산물 판매장",
    "length_meter": 82.3,
    "time_minute": 1
  },
  {
    "path_id": 20,
    "path": [
      {
        "lat": 37.755795,
        "lng": 127.31575
      },
      {
        "lat": 37.755501,
        "lng": 127.315613
      }
    ],
    "color": "#7e22c0",
    "start_name": "쉄터",
    "length_meter": 34.8,
    "time_minute": 0
  }
]