[
  {
    "path_id": 0,
    "path": [
      {
        "lat": 37.750446,
        "lng": 127.306976
      },
      {
        "lat": 37.751144,
        "lng": 127.30661
      }
    ],
    "color": "#4742e7",
    "start_name": "갈림길 7",
    "length_meter": 84.0,
    "time_minute": 1
  },
  {
    "path_id": 1,
    "path": [
      {
        "lat": 37.751144,
        "lng": 127.30661
      },
      {
        "lat": 37.752941,
        "lng": 127.300331
      }
    ],
    "color": "#27abd6",
    "start_name": "반딧불이 서식지 / 갈림길 9",
    "length_meter": 595.7,
    "time_minute": 9
  },
  {
    "path_id": 2,
    "path": [
      {
        "lat": 37.752941,
        "lng": 127.300331
      },
      {
        "lat": 37.761639,
        "lng": 127.301437
      }
    ],
    "color": "#af9215",
    "start_name": "자연쉄터",
    "length_meter": 972.0,
    "time_minute": 16
  },
  {
    "path_id": 3,
    "path": [
      {
        "lat": 37.761639,
        "lng": 127.301437
      },
      {
        "lat": 37.764881,
        "lng": 127.304024
      }
    ],
    "color": "#0e5689",
    "start_name": "갈림길 11",
    "length_meter": 426.2,
    "time_minute": 7
  },
  {
    "path_id": 4,
    "path": [
      {
        "lat": 37.764881,
        "lng": 127.304024
      },
      {
        "lat": 37.765629,
        "lng": 127.304596
      }
    ],
    "color": "#933a80",
    "start_name": "갈림길 12",
    "length_meter": 97.2,
    "time_minute": 1
  },
  {
    "path_id": 5,
    "path": [
      {
        "lat": 37.765629,
        "lng": 127.304596
      },
      {
        "lat": 37.766079,
        "lng": 127.308151
      }
    ],
    "color": "#f63e8a",
    "start_name": "갈림길 13",
    "length_meter": 316.5,
    "time_minute": 5
  },
  {
    "path_id": 6,
    "path": [
      {
        "lat": 37.766079,
        "lng": 127.308151
      },
      {
        "lat": 37.766521,
        "lng": 127.308777
      }
    ],
    "color": "#fa2023",
    "start_name": "능선",
    "length_meter": 73.8,
    "time_minute": 1
  },
  {
    "path_id": 7,
    "path": [
      {
        "lat": 37.766521,
        "lng": 127.308777
      },
      {
        "lat": 37.766567,
        "lng": 127.309486
      }
    ],
    "color": "#556035",
    "start_name": "능선길 / 능선길",
    "length_meter": 63.4,
    "time_minute": 1
  },
  {
    "path_id": 8,
    "path": [
      {
        "lat": 37.766567,
        "lng": 127.309486
      },
      {
        "lat": 37.766907,
        "lng": 127.310135
      }
    ],
    "color": "#8bd102",
    "start_name": "축령산 / 화채봉",
    "length_meter": 68.7,
    "time_minute": 1
  },
  {
    "path_id": 9,
    "path": [
      {
        "lat": 37.766907,
        "lng": 127.310135
      },
      {
        "lat": 37.767651,
        "lng": 127.310516
      }
    ],
    "color": "#52f299",
    "start_name": "갈림길 19",
    "length_meter": 89.3,
    "time_minute": 1
  },
  {
    "path_id": 10,
    "path": [
      {
        "lat": 37.767651,
        "lng": 127.310516
      },
      {
        "lat": 37.768188,
        "lng": 127.311012
      }
    ],
    "color": "#304084",
    "start_name": "철쭉동산 / 갈림길 21",
    "length_meter": 74.1,
    "time_minute": 1
  },
  {
    "path_id": 11,
    "path": [
      {
        "lat": 37.768188,
        "lng": 127.311012
      },
      {
        "lat": 37.768417,
        "lng": 127.312057
      }
    ],
    "color": "#1c948e",
    "start_name": "철쭉능선 / 철쭉능선길 / 철쭉능산 전망터",
    "length_meter": 98.2,
    "time_minute": 1
  },
  {
    "path_id": 12,
    "path": [
      {
        "lat": 37.768417,
        "lng": 127.312057
      },
      {
        "lat": 37.768421,
        "lng": 127.312675
      }
    ],
    "color": "#c4afb4",
    "start_name": "쩔쭉능선 조망터 / 철쭉동산 / 단체산객 쉄터 / 철쭉동산",
    "length_meter": 63.2,
    "time_minute": 1
  },
  {
    "path_id": 13,
    "path": [
      {
        "lat": 37.768421,
        "lng": 127.312675
      },
      {
        "lat": 37.768471,
        "lng": 127.316055
      }
    ],
    "color": "#c6f85c",
    "start_name": "전망대",
    "length_meter": 297.1,
    "time_minute": 4
  },
  {
    "path_id": 14,
    "path": [
      {
        "lat": 37.768471,
        "lng": 127.316055
      },
      {
        "lat": 37.767933,
        "lng": 127.316399
      }
    ],
    "color": "#ce7f83",
    "start_name": "갈림길 31 / 서리산 / 정상쉄터 / 뱀,맷돼지조심",
    "length_meter": 74.4,
    "time_minute": 1
  },
  {
    "path_id": 15,
    "path": [
      {
        "lat": 37.767933,
        "lng": 127.316399
      },
      {
        "lat": 37.765934,
        "lng": 127.320152
      }
    ],
    "color": "#2d57fc",
    "start_name": "산불감시초소",
    "length_meter": 397.8,
    "time_minute": 6
  },
  {
    "path_id": 16,
    "path": [
      {
        "lat": 37.765934,
        "lng": 127.320152
      },
      {
        "lat": 37.761383,
        "lng": 127.324905
      }
    ],
    "color": "#d13086",
    "start_name": "뱀,맷돠지 / 축령산조망",
    "length_meter": 659.0,
    "time_minute": 10
  },
  {
    "path_id": 17,
    "path": [
      {
        "lat": 37.761383,
        "lng": 127.324905
      },
      {
        "lat": 37.760704,
        "lng": 127.325508
      }
    ],
    "color": "#046564",
    "start_name": "뱀,멧돼지",
    "length_meter": 92.3,
    "time_minute": 1
  },
  {
    "path_id": 18,
    "path": [
      {
        "lat": 37.760704,
        "lng": 127.325508
      },
      {
        "lat": 37.760307,
        "lng": 127.326744
      }
    ],
    "color": "#eb8e80",
    "start_name": "갈림길 38",
    "length_meter": 117.3,
    "time_minute": 1
  },
  {
    "path_id": 19,
    "path": [
      {
        "lat": 37.760307,
        "lng": 127.326744
      },
      {
        "lat": 37.760597,
        "lng": 127.323357
      }
    ],
    "color": "#691ee1",
    "start_name": "갈림길 39 / 갈림길 40",
    "length_meter": 361.2,
    "time_minute": 6
  },
  {
    "path_id": 20,
    "path": [
      {
        "lat": 37.760597,
        "lng": 127.323357
      },
      {
        "lat": 37.760532,
        "lng": 127.320938
      }
    ],
    "color": "#b61da4",
    "start_name": "갈림길 41",
    "length_meter": 212.8,
    "time_minute": 3
  },
  {
    "path_id": 21,
    "path": [
      {
        "lat": 37.760532,
        "lng": 127.320938
      },
      {
        "lat": 37.760071,
        "lng": 127.32058
      }
    ],
    "color": "#c44533",
    "start_name": "갈림길 42 / 전망대.정자",
    "length_meter": 61.7,
    "time_minute": 1
  },
  {
    "path_id": 22,
    "path": [
      {
        "lat": 37.760071,
        "lng": 127.32058
      },
      {
        "lat": 37.762058,
        "lng": 127.320137
      }
    ],
    "color": "#53d227",
    "start_name": "갈림길 44",
    "length_meter": 224.4,
    "time_minute": 3
  },
  {
    "path_id": 23,
    "path": [
      {
        "lat": 37.762058,
        "lng": 127.320137
      },
      {
        "lat": 37.762894,
        "lng": 127.318077
      }
    ],
    "color": "#a64323",
    "start_name": "갈림길 45",
    "length_meter": 203.6,
    "time_minute": 3
  },
  {
    "path_id": 24,
    "path": [
      {
        "lat": 37.762894,
        "lng": 127.318077
      },
      {
        "lat": 37.760921,
        "lng": 127.315514
      }
    ],
    "color": "#d73051",
    "start_name": "갈림길 46",
    "length_meter": 314.5,
    "time_minute": 5
  },
  {
    "path_id": 25,
    "path": [
      {
        "lat": 37.760921,
        "lng": 127.315514
      },
      {
        "lat": 37.757675,
        "lng": 127.317062
      }
    ],
    "color": "#692057",
    "start_name": "갈림길 47",
    "length_meter": 385.7,
    "time_minute": 6
  },
  {
    "path_id": 26,
    "path": [
      {
        "lat": 37.757675,
        "lng": 127.317062
      },
      {
        "lat": 37.757202,
        "lng": 127.317482
      }
    ],
    "color": "#21f332",
    "start_name": "갈림길 48",
    "length_meter": 64.3,
    "time_minute": 1
  },
  {
    "path_id": 27,
    "path": [
      {
        "lat": 37.757202,
        "lng": 127.317482
      },
      {
        "lat": 37.756992,
        "lng": 127.316566
      }
    ],
    "color": "#51f140",
    "start_name": "임도쉄터",
    "length_meter": 83.8,
    "time_minute": 1
  },
  {
    "path_id": 28,
    "path": [
      {
        "lat": 37.756992,
        "lng": 127.316566
      },
      {
        "lat": 37.756248,
        "lng": 127.31649
      }
    ],
    "color": "#58f7ad",
    "start_name": "하늘바라기 폭포",
    "length_meter": 83.0,
    "time_minute": 1
  },
  {
    "path_id": 29,
    "path": [
      {
        "lat": 37.756248,
        "lng": 127.31649
      },
      {
        "lat": 37.755795,
        "lng": 127.31575
      }
    ],
    "color": "#3b454c",
    "start_name": "특산물 판매장",
    "length_meter": 82.3,
    "time_minute": 1
  },
  {
    "path_id": 30,
    "path": [
      {
        "lat": 37.755795,
        "lng": 127.31575
      },
      {
        "lat": 37.755501,
        "lng": 127.315613
      }
    ],
    "color": "#1ddb6f",
    "start_name": "쉄터",
    "length_meter": 34.8,
    "time_minute": 0
  }
]