[
  {
    "path_id": 0,
    "path": [
      {
        "lat": 37.752541,
        "lng": 127.30883
      },
      {
        "lat": 37.754208,
        "lng": 127.31398
      }
    ],
    "color": "#4bb333",
    "start_name": "시내버스 축령산자연휴양림 / 슈퍼 / 축령산 계곡가든 / 축령산 자연휴양림",
    "length_meter": 502.8,
    "time_minute": 8
  },
  {
    "path_id": 1,
    "path": [
      {
        "lat": 37.754208,
        "lng": 127.31398
      },
      {
        "lat": 37.752773,
        "lng": 127.334007
      }
    ],
    "color": "#511852",
    "start_name": "나무벤치",
    "length_meter": 1767.9,
    "time_minute": 29
  },
  {
    "path_id": 2,
    "path": [
      {
        "lat": 37.752773,
        "lng": 127.334007
      },
      {
        "lat": 37.751217,
        "lng": 127.332024
      }
    ],
    "color": "#149967",
    "start_name": "갈림길 / 축령산 정상 886.2m",
    "length_meter": 248.8,
    "time_minute": 4
  },
  {
    "path_id": 3,
    "path": [
      {
        "lat": 37.751217,
        "lng": 127.332024
      },
      {
        "lat": 37.749367,
        "lng": 127.330093
      }
    ],
    "color": "#c6220a",
    "start_name": "헬기장",
    "length_meter": 266.7,
    "time_minute": 4
  },
  {
    "path_id": 4,
    "path": [
      {
        "lat": 37.749367,
        "lng": 127.330093
      },
      {
        "lat": 37.748859,
        "lng": 127.328583
      }
    ],
    "color": "#579b0f",
    "start_name": "갈림길",
    "length_meter": 144.3,
    "time_minute": 2
  },
  {
    "path_id": 5,
    "path": [
      {
        "lat": 37.748859,
        "lng": 127.328583
      },
      {
        "lat": 37.751057,
        "lng": 127.32283
      }
    ],
    "color": "#592e62",
    "start_name": "남이바위",
    "length_meter": 561.8,
    "time_minute": 9
  },
  {
    "path_id": 6,
    "path": [
      {
        "lat": 37.751057,
        "lng": 127.32283
      },
      {
        "lat": 37.751907,
        "lng": 127.315224
      }
    ],
    "color": "#42a07d",
    "start_name": "갈림길",
    "length_meter": 675.4,
    "time_minute": 11
  },
  {
    "path_id": 7,
    "path": [
      {
        "lat": 37.751907,
        "lng": 127.315224
      },
      {
        "lat": 37.75251,
        "lng": 127.313881
      }
    ],
    "color": "#947a9d",
    "start_name": "나무벤치 / 갈림길",
    "length_meter": 136.5,
    "time_minute": 2
  }
]