[
  {
    "path_id": 0,
    "path": [
      {
        "lat": 37.755405,
        "lng": 127.314644
      },
      {
        "lat": 37.757511,
        "lng": 127.317299
      }
    ],
    "color": "#dd17aa",
    "start_name": "축령산휴양림 / 휴양림주차장 / 산림휴양관",
    "length_meter": 331.3,
    "time_minute": 5
  },
  {
    "path_id": 1,
    "path": [
      {
        "lat": 37.757511,
        "lng": 127.317299
      },
      {
        "lat": 37.75716,
        "lng": 127.319885
      }
    ],
    "color": "#afd60a",
    "start_name": "갈림길",
    "length_meter": 230.7,
    "time_minute": 3
  },
  {
    "path_id": 2,
    "path": [
      {
        "lat": 37.75716,
        "lng": 127.319885
      },
      {
        "lat": 37.756924,
        "lng": 127.322548
      }
    ],
    "color": "#75f5f0",
    "start_name": "갈림길",
    "length_meter": 235.6,
    "time_minute": 3
  },
  {
    "path_id": 3,
    "path": [
      {
        "lat": 37.756924,
        "lng": 127.322548
      },
      {
        "lat": 37.757423,
        "lng": 127.323242
      }
    ],
    "color": "#d18897",
    "start_name": "갈림길",
    "length_meter": 82.5,
    "time_minute": 1
  },
  {
    "path_id": 4,
    "path": [
      {
        "lat": 37.757423,
        "lng": 127.323242
      },
      {
        "lat": 37.756908,
        "lng": 127.32576
      }
    ],
    "color": "#b18866",
    "start_name": "갈림길",
    "length_meter": 228.6,
    "time_minute": 3
  },
  {
    "path_id": 5,
    "path": [
      {
        "lat": 37.756908,
        "lng": 127.32576
      },
      {
        "lat": 37.756729,
        "lng": 127.32962
      }
    ],
    "color": "#f125ad",
    "start_name": "전나무숲",
    "length_meter": 339.9,
    "time_minute": 5
  },
  {
    "path_id": 6,
    "path": [
      {
        "lat": 37.756729,
        "lng": 127.32962
      },
      {
        "lat": 37.759907,
        "lng": 127.327591
      }
    ],
    "color": "#01a2ca",
    "start_name": "갈림길 / 갈림길",
    "length_meter": 398.8,
    "time_minute": 6
  },
  {
    "path_id": 7,
    "path": [
      {
        "lat": 37.759907,
        "lng": 127.327591
      },
      {
        "lat": 37.76395,
        "lng": 127.312477
      }
    ],
    "color": "#a0be18",
    "start_name": "서리산헬기장대피소",
    "length_meter": 1402.6,
    "time_minute": 23
  },
  {
    "path_id": 8,
    "path": [
      {
        "lat": 37.76395,
        "lng": 127.312477
      },
      {
        "lat": 37.757339,
        "lng": 127.313858
      }
    ],
    "color": "#f5eff9",
    "start_name": "갈림길",
    "length_meter": 745.1,
    "time_minute": 12
  },
  {
    "path_id": 9,
    "path": [
      {
        "lat": 37.757339,
        "lng": 127.313858
      },
      {
        "lat": 37.756363,
        "lng": 127.312492
      }
    ],
    "color": "#28c7a6",
    "start_name": "갈림길",
    "length_meter": 161.9,
    "time_minute": 2
  },
  {
    "path_id": 10,
    "path": [
      {
        "lat": 37.756363,
        "lng": 127.312492
      },
      {
        "lat": 37.754623,
        "lng": 127.313049
      }
    ],
    "color": "#d73b85",
    "start_name": "갈림길 / 전나무군락지",
    "length_meter": 203.3,
    "time_minute": 3
  },
  {
    "path_id": 11,
    "path": [
      {
        "lat": 37.754623,
        "lng": 127.313049
      },
      {
        "lat": 37.754204,
        "lng": 127.312019
      }
    ],
    "color": "#5bd4fc",
    "start_name": "휴양림관리사무소",
    "length_meter": 101.8,
    "time_minute": 1
  },
  {
    "path_id": 12,
    "path": [
      {
        "lat": 37.754204,
        "lng": 127.312019
      },
      {
        "lat": 37.753773,
        "lng": 127.311348
      }
    ],
    "color": "#a14e73",
    "start_name": "휴양림제2주차장 / 제2주차장 화장실",
    "length_meter": 78.6,
    "time_minute": 1
  },
  {
    "path_id": 13,
    "path": [
      {
        "lat": 37.753773,
        "lng": 127.311348
      },
      {
        "lat": 37.754715,
        "lng": 127.313721
      }
    ],
    "color": "#8dcaa6",
    "start_name": "버스전용조차장 / 축령산휴양림 검문소 / 휴양림주차장 / 갈림길",
    "length_meter": 296.1,
    "time_minute": 4
  },
  {
    "path_id": 14,
    "path": [
      {
        "lat": 37.754715,
        "lng": 127.313721
      },
      {
        "lat": 37.755405,
        "lng": 127.314461
      }
    ],
    "color": "#ad05a1",
    "start_name": "휴양림 숲속의집",
    "length_meter": 100.6,
    "time_minute": 1
  }
]