{
    "max_ele": 1044.946,
    "track": [
        {
            "path_id": 1,
            "name": "주차장",
            "lat": 37.111843,
            "lon": 128.464584,
            "ele": 582.688
        },
        {
            "path_id": 2,
            "name": "화장실",
            "lat": 37.111912,
            "lon": 128.464401,
            "ele": 582.853
        },
        {
            "path_id": 3,
            "name": "등산로안내도",
            "lat": 37.111843,
            "lon": 128.4646,
            "ele": 583.353
        },
        {
            "path_id": 4,
            "name": "전망대",
            "lat": 37.12524,
            "lon": 128.4953,
            "ele": 1044.946
        },
        {
            "path_id": 5,
            "name": "갈림길 9",
            "lat": 37.130585,
            "lon": 128.503769,
            "ele": 953.982
        },
        {
            "path_id": 6,
            "name": "포토존",
            "lat": 37.129898,
            "lon": 128.532242,
            "ele": 342.777
        },
        {
            "path_id": 7,
            "name": "고씨굴",
            "lat": 37.12965,
            "lon": 128.533112,
            "ele": 284.603
        }
    ]
}