{
    "max_ele": 311.816,
    "track": [
        {
            "path_id": 1,
            "name": "개암사주차장",
            "lat": 35.660118,
            "lon": 126.652946,
            "ele": 80.331
        },
        {
            "path_id": 2,
            "name": "개암사입구",
            "lat": 35.660549,
            "lon": 126.653107,
            "ele": 83.012
        },
        {
            "path_id": 3,
            "name": "주차장옆",
            "lat": 35.660534,
            "lon": 126.653198,
            "ele": 76.66
        },
        {
            "path_id": 4,
            "name": "개암사입구",
            "lat": 35.660576,
            "lon": 126.652611,
            "ele": 76.046
        },
        {
            "path_id": 5,
            "name": "전나무숲",
            "lat": 35.660713,
            "lon": 126.651817,
            "ele": 82.887
        },
        {
            "path_id": 6,
            "name": "전나무숲내",
            "lat": 35.660954,
            "lon": 126.651497,
            "ele": 84.281
        },
        {
            "path_id": 7,
            "name": "전나무숲2",
            "lat": 35.661118,
            "lon": 126.651093,
            "ele": 77.867
        },
        {
            "path_id": 8,
            "name": "갈림길",
            "lat": 35.661469,
            "lon": 126.650146,
            "ele": 84.628
        },
        {
            "path_id": 9,
            "name": "우금산 배경",
            "lat": 35.662357,
            "lon": 126.64991,
            "ele": 93.36
        },
        {
            "path_id": 10,
            "name": "개암사",
            "lat": 35.662331,
            "lon": 126.64994,
            "ele": 90.432
        },
        {
            "path_id": 11,
            "name": "산행들머리",
            "lat": 35.663128,
            "lon": 126.650169,
            "ele": 106.335
        },
        {
            "path_id": 12,
            "name": "우금산성",
            "lat": 35.667267,
            "lon": 126.648903,
            "ele": 311.816
        },
        {
            "path_id": 13,
            "name": "우금산성",
            "lat": 35.667267,
            "lon": 126.648804,
            "ele": 311.465
        },
        {
            "path_id": 14,
            "name": "조망점 출입금지",
            "lat": 35.665314,
            "lon": 126.643166,
            "ele": 275.374
        },
        {
            "path_id": 15,
            "name": "내변산조망",
            "lat": 35.665058,
            "lon": 126.641502,
            "ele": 298.218
        },
        {
            "path_id": 16,
            "name": "갈림길",
            "lat": 35.660988,
            "lon": 126.64209,
            "ele": 287.391
        },
        {
            "path_id": 17,
            "name": "갈림길",
            "lat": 35.659447,
            "lon": 126.64653,
            "ele": 240.284
        },
        {
            "path_id": 19,
            "name": "돌쉼터",
            "lat": 35.656647,
            "lon": 126.648018,
            "ele": 217.112
        },
        {
            "path_id": 20,
            "name": "돌쉄터2",
            "lat": 35.656281,
            "lon": 126.648407,
            "ele": 208.674
        },
        {
            "path_id": 21,
            "name": "돌쉄터3",
            "lat": 35.654072,
            "lon": 126.650551,
            "ele": 168.074
        },
        {
            "path_id": 22,
            "name": "갈림길",
            "lat": 35.65427,
            "lon": 126.651268,
            "ele": 170.602
        },
        {
            "path_id": 23,
            "name": "돌쉄터4",
            "lat": 35.652615,
            "lon": 126.651764,
            "ele": 196.013
        },
        {
            "path_id": 24,
            "name": "만석동방향",
            "lat": 35.652596,
            "lon": 126.651932,
            "ele": 187.87
        },
        {
            "path_id": 25,
            "name": "만서동재",
            "lat": 35.650352,
            "lon": 126.655899,
            "ele": 243.791
        },
        {
            "path_id": 26,
            "name": "쉄터",
            "lat": 35.647942,
            "lon": 126.652573,
            "ele": 222.376
        },
        {
            "path_id": 27,
            "name": "쉄터",
            "lat": 35.644619,
            "lon": 126.650864,
            "ele": 192.221
        },
        {
            "path_id": 28,
            "name": "만석동",
            "lat": 35.644482,
            "lon": 126.654564,
            "ele": 115.301
        },
        {
            "path_id": 29,
            "name": "감불마을입구",
            "lat": 35.643192,
            "lon": 126.657486,
            "ele": 93.206
        },
        {
            "path_id": 30,
            "name": "감불쉄터1",
            "lat": 35.639751,
            "lon": 126.65834,
            "ele": 111.244
        },
        {
            "path_id": 31,
            "name": "시내뷰",
            "lat": 35.637218,
            "lon": 126.657791,
            "ele": 129.006
        },
        {
            "path_id": 32,
            "name": "전망대",
            "lat": 35.635708,
            "lon": 126.65625,
            "ele": 138.759
        },
        {
            "path_id": 33,
            "name": "쉄터2",
            "lat": 35.635105,
            "lon": 126.655144,
            "ele": 152.175
        },
        {
            "path_id": 34,
            "name": "쉄터4",
            "lat": 35.631676,
            "lon": 126.654678,
            "ele": 195.317
        },
        {
            "path_id": 35,
            "name": "쉄터5",
            "lat": 35.630478,
            "lon": 126.651863,
            "ele": 173.261
        },
        {
            "path_id": 36,
            "name": "쉄터6",
            "lat": 35.629055,
            "lon": 126.652161,
            "ele": 163.745
        },
        {
            "path_id": 37,
            "name": "쉄터6",
            "lat": 35.622261,
            "lon": 126.649612,
            "ele": 91.816
        },
        {
            "path_id": 38,
            "name": "감불마을",
            "lat": 35.620865,
            "lon": 126.64772,
            "ele": 77.385
        }
    ]
}