[
    {
        "path_id": 1,
        "name": "내변산주차장",
        "lat": 35.641109,
        "lon": 126.580353
    },
    {
        "path_id": 2,
        "name": "사자동편의점",
        "lat": 35.64098,
        "lon": 126.580414
    },
    {
        "path_id": 3,
        "name": "갈림길",
        "lat": 35.639881,
        "lon": 126.580437
    },
    {
        "path_id": 4,
        "name": "갈림길",
        "lat": 35.636272,
        "lon": 126.587875
    },
    {
        "path_id": 5,
        "name": "세봉삼거리전",
        "lat": 35.634544,
        "lon": 126.587135
    },
    {
        "path_id": 6,
        "name": "세봉삼거리전 바위",
        "lat": 35.632008,
        "lon": 126.587372
    },
    {
        "path_id": 7,
        "name": "세봉삼거리전",
        "lat": 35.629597,
        "lon": 126.588837
    },
    {
        "path_id": 8,
        "name": "인장바위",
        "lat": 35.628883,
        "lon": 126.5896
    },
    {
        "path_id": 9,
        "name": "갈림길",
        "lat": 35.626774,
        "lon": 126.589806
    },
    {
        "path_id": 10,
        "name": "세봉삼거리",
        "lat": 35.626751,
        "lon": 126.589821
    },
    {
        "path_id": 11,
        "name": "세봉",
        "lat": 35.626507,
        "lon": 126.586334
    },
    {
        "path_id": 12,
        "name": "세봉50미터",
        "lat": 35.626144,
        "lon": 126.586243
    },
    {
        "path_id": 13,
        "name": "관음봉20m전",
        "lat": 35.623531,
        "lon": 126.582993
    },
    {
        "path_id": 14,
        "name": "변산관음봉",
        "lat": 35.623219,
        "lon": 126.582512
    },
    {
        "path_id": 15,
        "name": "갈림길",
        "lat": 35.621662,
        "lon": 126.5802
    },
    {
        "path_id": 16,
        "name": "관음봉삼거리50m전",
        "lat": 35.620964,
        "lon": 126.581284
    },
    {
        "path_id": 17,
        "name": "곰소배경",
        "lat": 35.620686,
        "lon": 126.581528
    },
    {
        "path_id": 18,
        "name": "관음봉배경",
        "lat": 35.620087,
        "lon": 126.582085
    },
    {
        "path_id": 19,
        "name": "내소쉄터",
        "lat": 35.617027,
        "lon": 126.58371
    },
    {
        "path_id": 20,
        "name": "전나무숲",
        "lat": 35.615101,
        "lon": 126.588028
    },
    {
        "path_id": 21,
        "name": "갈림길",
        "lat": 35.614918,
        "lon": 126.588455
    },
    {
        "path_id": 22,
        "name": "내소사",
        "lat": 35.616875,
        "lon": 126.587738
    },
    {
        "path_id": 23,
        "name": "전나무숲",
        "lat": 35.613548,
        "lon": 126.589134
    },
    {
        "path_id": 24,
        "name": "일주문",
        "lat": 35.61274,
        "lon": 126.589432
    },
    {
        "path_id": 25,
        "name": "입주문앞",
        "lat": 35.611755,
        "lon": 126.589096
    }
]