[
  {
    "path_id": 0,
    "path": [
      {
        "lat": 37.718884,
        "lng": 126.975357
      },
      {
        "lat": 37.717312,
        "lng": 126.97686
      }
    ],
    "color": "#dd8c8b",
    "start_name": "북한산국립공원송추계곡 / 부일부대찌개",
    "length_meter": 249.4,
    "time_minute": 4
  },
  {
    "path_id": 1,
    "path": [
      {
        "lat": 37.717312,
        "lng": 126.97686
      },
      {
        "lat": 37.715012,
        "lng": 126.980515
      }
    ],
    "color": "#814d20",
    "start_name": "커피 차",
    "length_meter": 410.8,
    "time_minute": 6
  },
  {
    "path_id": 2,
    "path": [
      {
        "lat": 37.715012,
        "lng": 126.980515
      },
      {
        "lat": 37.714336,
        "lng": 126.98156
      }
    ],
    "color": "#a88bd7",
    "start_name": "매점",
    "length_meter": 118.7,
    "time_minute": 1
  },
  {
    "path_id": 3,
    "path": [
      {
        "lat": 37.714336,
        "lng": 126.98156
      },
      {
        "lat": 37.71339,
        "lng": 126.983238
      }
    ],
    "color": "#52184a",
    "start_name": "편의점 / 매점",
    "length_meter": 182.4,
    "time_minute": 3
  },
  {
    "path_id": 4,
    "path": [
      {
        "lat": 37.71339,
        "lng": 126.983238
      },
      {
        "lat": 37.713326,
        "lng": 126.982445
      }
    ],
    "color": "#b9c4af",
    "start_name": "차량통제소 / 화장실",
    "length_meter": 103.5,
    "time_minute": 1
  },
  {
    "path_id": 5,
    "path": [
      {
        "lat": 37.713326,
        "lng": 126.982445
      },
      {
        "lat": 37.712509,
        "lng": 126.982033
      }
    ],
    "color": "#a6b1ec",
    "start_name": "북한산 국립공원 도봉사무소 송추분소",
    "length_meter": 97.8,
    "time_minute": 1
  },
  {
    "path_id": 6,
    "path": [
      {
        "lat": 37.712509,
        "lng": 126.982033
      },
      {
        "lat": 37.710777,
        "lng": 126.982285
      }
    ],
    "color": "#0ba19e",
    "start_name": "들머리 / 갈림길 / 화장실",
    "length_meter": 197.0,
    "time_minute": 3
  },
  {
    "path_id": 7,
    "path": [
      {
        "lat": 37.710777,
        "lng": 126.982285
      },
      {
        "lat": 37.705811,
        "lng": 126.988503
      }
    ],
    "color": "#05dea6",
    "start_name": "갈림길",
    "length_meter": 777.3,
    "time_minute": 12
  },
  {
    "path_id": 8,
    "path": [
      {
        "lat": 37.705811,
        "lng": 126.988503
      },
      {
        "lat": 37.705219,
        "lng": 126.990456
      }
    ],
    "color": "#99a4cb",
    "start_name": "조망터",
    "length_meter": 184.0,
    "time_minute": 3
  },
  {
    "path_id": 9,
    "path": [
      {
        "lat": 37.705219,
        "lng": 126.990456
      },
      {
        "lat": 37.704132,
        "lng": 126.992126
      }
    ],
    "color": "#5a4c10",
    "start_name": "산불진화장비 보관함",
    "length_meter": 190.2,
    "time_minute": 3
  },
  {
    "path_id": 10,
    "path": [
      {
        "lat": 37.704132,
        "lng": 126.992126
      },
      {
        "lat": 37.703423,
        "lng": 126.992569
      }
    ],
    "color": "#37ebf5",
    "start_name": "조망터",
    "length_meter": 87.9,
    "time_minute": 1
  },
  {
    "path_id": 11,
    "path": [
      {
        "lat": 37.703423,
        "lng": 126.992569
      },
      {
        "lat": 37.702259,
        "lng": 126.992752
      }
    ],
    "color": "#b484ff",
    "start_name": "추락 위험",
    "length_meter": 130.4,
    "time_minute": 2
  },
  {
    "path_id": 12,
    "path": [
      {
        "lat": 37.702259,
        "lng": 126.992752
      },
      {
        "lat": 37.698639,
        "lng": 127.000755
      }
    ],
    "color": "#9a1f19",
    "start_name": "여성봉 위 / 여성봉 정상 / 추락 위험 / 119 구급함 / 갈림길",
    "length_meter": 814.8,
    "time_minute": 13
  },
  {
    "path_id": 13,
    "path": [
      {
        "lat": 37.698639,
        "lng": 127.000755
      },
      {
        "lat": 37.698135,
        "lng": 127.001167
      }
    ],
    "color": "#617789",
    "start_name": "조망터",
    "length_meter": 66.7,
    "time_minute": 1
  },
  {
    "path_id": 14,
    "path": [
      {
        "lat": 37.698135,
        "lng": 127.001167
      },
      {
        "lat": 37.697067,
        "lng": 127.001465
      }
    ],
    "color": "#ddfe12",
    "start_name": "전망대 / 추락 위험",
    "length_meter": 122.2,
    "time_minute": 2
  },
  {
    "path_id": 15,
    "path": [
      {
        "lat": 37.697067,
        "lng": 127.001465
      },
      {
        "lat": 37.696815,
        "lng": 127.001793
      }
    ],
    "color": "#14aee1",
    "start_name": "국립공원 안전구급함 / 오봉초소 / 낙뢰위험지역 / 갈림길 / 오봉정상 / 오봉",
    "length_meter": 100.4,
    "time_minute": 1
  },
  {
    "path_id": 16,
    "path": [
      {
        "lat": 37.696815,
        "lng": 127.001793
      },
      {
        "lat": 37.696102,
        "lng": 127.001984
      }
    ],
    "color": "#5ad5d7",
    "start_name": "갈림길",
    "length_meter": 81.0,
    "time_minute": 1
  },
  {
    "path_id": 17,
    "path": [
      {
        "lat": 37.696102,
        "lng": 127.001984
      },
      {
        "lat": 37.694839,
        "lng": 127.003464
      }
    ],
    "color": "#8d365d",
    "start_name": "멋진 바위 / 조망터",
    "length_meter": 200.7,
    "time_minute": 3
  },
  {
    "path_id": 18,
    "path": [
      {
        "lat": 37.694839,
        "lng": 127.003464
      },
      {
        "lat": 37.688168,
        "lng": 127.008759
      }
    ],
    "color": "#74e210",
    "start_name": "오봉샘터",
    "length_meter": 876.0,
    "time_minute": 14
  }
]