{
  "max_ele": 1092.802,
  "track": [
    {
      "path_id": 1,
      "name": "덕주사 입구 주차장",
      "lat": 36.864655,
      "lon": 128.088074,
      "ele": 232.591
    },
    {
      "path_id": 2,
      "name": "덕주골화장실",
      "lat": 36.864738,
      "lon": 128.088028,
      "ele": 237.533
    },
    {
      "path_id": 3,
      "name": "야영장",
      "lat": 36.864719,
      "lon": 128.08815,
      "ele": 237.759
    },
    {
      "path_id": 4,
      "name": "덕주골 정류소",
      "lat": 36.864544,
      "lon": 128.087753,
      "ele": 238.915
    },
    {
      "path_id": 5,
      "name": "교통",
      "lat": 36.864349,
      "lon": 128.087662,
      "ele": 238.977
    },
    {
      "path_id": 6,
      "name": "버스시간표",
      "lat": 36.864368,
      "lon": 128.087677,
      "ele": 239.624
    },
    {
      "path_id": 7,
      "name": "안내소",
      "lat": 36.864594,
      "lon": 128.088196,
      "ele": 237.855
    },
    {
      "path_id": 8,
      "name": "웨이포인트 8",
      "lat": 36.864601,
      "lon": 128.088272,
      "ele": 237.613
    },
    {
      "path_id": 9,
      "name": "식당",
      "lat": 36.864388,
      "lon": 128.087875,
      "ele": 238.515
    },
    {
      "path_id": 10,
      "name": "갈림길",
      "lat": 36.863995,
      "lon": 128.087692,
      "ele": 236.544
    },
    {
      "path_id": 11,
      "name": "입구 이정표",
      "lat": 36.863819,
      "lon": 128.087662,
      "ele": 238.289
    },
    {
      "path_id": 12,
      "name": "웨이포인트 12",
      "lat": 36.863617,
      "lon": 128.087601,
      "ele": 239.506
    },
    {
      "path_id": 13,
      "name": "월악산장 식당",
      "lat": 36.862877,
      "lon": 128.088943,
      "ele": 248.023
    },
    {
      "path_id": 14,
      "name": "안내도",
      "lat": 36.862202,
      "lon": 128.089981,
      "ele": 254.13
    },
    {
      "path_id": 15,
      "name": "계곡",
      "lat": 36.862087,
      "lon": 128.090546,
      "ele": 255.63
    },
    {
      "path_id": 16,
      "name": "수경대",
      "lat": 36.861893,
      "lon": 128.091675,
      "ele": 263.409
    },
    {
      "path_id": 17,
      "name": "숲속 벤치",
      "lat": 36.861774,
      "lon": 128.093704,
      "ele": 279.33
    },
    {
      "path_id": 18,
      "name": "월악산의 유래",
      "lat": 36.861801,
      "lon": 128.094284,
      "ele": 281.392
    },
    {
      "path_id": 19,
      "name": "덕주산성 설명",
      "lat": 36.861774,
      "lon": 128.095108,
      "ele": 286.297
    },
    {
      "path_id": 20,
      "name": "덕주루",
      "lat": 36.861755,
      "lon": 128.095169,
      "ele": 288.327
    },
    {
      "path_id": 21,
      "name": "학소대",
      "lat": 36.861809,
      "lon": 128.095062,
      "ele": 288.506
    },
    {
      "path_id": 22,
      "name": "계곡",
      "lat": 36.86179,
      "lon": 128.095474,
      "ele": 288.785
    },
    {
      "path_id": 23,
      "name": "덕주사 주차장",
      "lat": 36.861584,
      "lon": 128.096344,
      "ele": 295.969
    },
    {
      "path_id": 24,
      "name": "덕주사",
      "lat": 36.861588,
      "lon": 128.096909,
      "ele": 301.064
    },
    {
      "path_id": 25,
      "name": "입구 이정표",
      "lat": 36.861561,
      "lon": 128.097351,
      "ele": 307.849
    },
    {
      "path_id": 26,
      "name": "매점",
      "lat": 36.861702,
      "lon": 128.097778,
      "ele": 313.551
    },
    {
      "path_id": 27,
      "name": "관광자원",
      "lat": 36.861626,
      "lon": 128.098007,
      "ele": 313.882
    },
    {
      "path_id": 28,
      "name": "덕주탐방지원센터",
      "lat": 36.861645,
      "lon": 128.098053,
      "ele": 313.835
    },
    {
      "path_id": 29,
      "name": "갈림길",
      "lat": 36.861622,
      "lon": 128.098145,
      "ele": 313.715
    },
    {
      "path_id": 30,
      "name": "영봉입구",
      "lat": 36.861614,
      "lon": 128.098145,
      "ele": 313.811
    },
    {
      "path_id": 31,
      "name": "이정표",
      "lat": 36.862282,
      "lon": 128.102936,
      "ele": 368.272
    },
    {
      "path_id": 32,
      "name": "산성",
      "lat": 36.864426,
      "lon": 128.104004,
      "ele": 424.362
    },
    {
      "path_id": 33,
      "name": "산성",
      "lat": 36.864658,
      "lon": 128.104172,
      "ele": 428.468
    },
    {
      "path_id": 34,
      "name": "웨이포인트 36",
      "lat": 36.865479,
      "lon": 128.104446,
      "ele": 443.221
    },
    {
      "path_id": 35,
      "name": "웨이포인트 37",
      "lat": 36.868435,
      "lon": 128.105209,
      "ele": 517.57
    },
    {
      "path_id": 36,
      "name": "갈림길",
      "lat": 36.868725,
      "lon": 128.105103,
      "ele": 522.956
    },
    {
      "path_id": 37,
      "name": "마애불",
      "lat": 36.869072,
      "lon": 128.105194,
      "ele": 532.962
    },
    {
      "path_id": 38,
      "name": "갈림길",
      "lat": 36.86927,
      "lon": 128.10466,
      "ele": 538.051
    },
    {
      "path_id": 39,
      "name": "마애불의 역사",
      "lat": 36.869278,
      "lon": 128.10466,
      "ele": 544.406
    },
    {
      "path_id": 40,
      "name": "낙석주의구간",
      "lat": 36.8703,
      "lon": 128.103348,
      "ele": 639.439
    },
    {
      "path_id": 41,
      "name": "자연경관",
      "lat": 36.871975,
      "lon": 128.103531,
      "ele": 722.439
    },
    {
      "path_id": 42,
      "name": "자연경관",
      "lat": 36.872528,
      "lon": 128.103561,
      "ele": 769.543
    },
    {
      "path_id": 43,
      "name": "자연경관",
      "lat": 36.872532,
      "lon": 128.103577,
      "ele": 770.89
    },
    {
      "path_id": 44,
      "name": "쉼터,조망터",
      "lat": 36.873299,
      "lon": 128.103394,
      "ele": 849.977
    },
    {
      "path_id": 45,
      "name": "월악의 능선",
      "lat": 36.873276,
      "lon": 128.103424,
      "ele": 855.736
    },
    {
      "path_id": 46,
      "name": "자연경관",
      "lat": 36.873394,
      "lon": 128.103577,
      "ele": 860.992
    },
    {
      "path_id": 47,
      "name": "쉼터",
      "lat": 36.874378,
      "lon": 128.103821,
      "ele": 909.55
    },
    {
      "path_id": 48,
      "name": "자연경관",
      "lat": 36.874477,
      "lon": 128.103943,
      "ele": 912.439
    },
    {
      "path_id": 49,
      "name": "월악산의 암릉",
      "lat": 36.874527,
      "lon": 128.104111,
      "ele": 918.018
    },
    {
      "path_id": 50,
      "name": "구름다리",
      "lat": 36.874546,
      "lon": 128.104492,
      "ele": 922.856
    },
    {
      "path_id": 51,
      "name": "웨이포인트 52",
      "lat": 36.874561,
      "lon": 128.104752,
      "ele": 926.776
    },
    {
      "path_id": 52,
      "name": "마애봉",
      "lat": 36.875248,
      "lon": 128.10611,
      "ele": 948.907
    },
    {
      "path_id": 53,
      "name": "능선길",
      "lat": 36.877121,
      "lon": 128.106354,
      "ele": 933.229
    },
    {
      "path_id": 54,
      "name": "웨이포인트 55",
      "lat": 36.877853,
      "lon": 128.106094,
      "ele": 930.17
    },
    {
      "path_id": 55,
      "name": "헬기장",
      "lat": 36.880508,
      "lon": 128.105072,
      "ele": 938.083
    },
    {
      "path_id": 56,
      "name": "갈림길",
      "lat": 36.881325,
      "lon": 128.10495,
      "ele": 934.853
    },
    {
      "path_id": 57,
      "name": "이정표",
      "lat": 36.881569,
      "lon": 128.104874,
      "ele": 922.073
    },
    {
      "path_id": 58,
      "name": "산양",
      "lat": 36.881584,
      "lon": 128.104874,
      "ele": 920.416
    },
    {
      "path_id": 59,
      "name": "송계삼거리 안전쉼터",
      "lat": 36.881588,
      "lon": 128.104874,
      "ele": 920.33
    },
    {
      "path_id": 60,
      "name": "산행리본게시대",
      "lat": 36.881592,
      "lon": 128.104858,
      "ele": 919.528
    },
    {
      "path_id": 61,
      "name": "탐방로안내",
      "lat": 36.881599,
      "lon": 128.104858,
      "ele": 922.007
    },
    {
      "path_id": 62,
      "name": "웨이포인트 63",
      "lat": 36.884953,
      "lon": 128.106384,
      "ele": 979.13
    },
    {
      "path_id": 63,
      "name": "낙석 주의",
      "lat": 36.885117,
      "lon": 128.106445,
      "ele": 981.902
    },
    {
      "path_id": 64,
      "name": "갈림길",
      "lat": 36.886463,
      "lon": 128.108307,
      "ele": 947.509
    },
    {
      "path_id": 65,
      "name": "철계단 구간,정상까지 800m구간",
      "lat": 36.88673,
      "lon": 128.108444,
      "ele": 940.31
    },
    {
      "path_id": 66,
      "name": "철계단구간",
      "lat": 36.886967,
      "lon": 128.108582,
      "ele": 937.17
    },
    {
      "path_id": 67,
      "name": "자연경관",
      "lat": 36.88681,
      "lon": 128.107925,
      "ele": 992.976
    },
    {
      "path_id": 68,
      "name": "자연경관",
      "lat": 36.886726,
      "lon": 128.107758,
      "ele": 1006.439
    },
    {
      "path_id": 69,
      "name": "웨이포인트 70",
      "lat": 36.886639,
      "lon": 128.107422,
      "ele": 1040.22
    },
    {
      "path_id": 70,
      "name": "낙석주의",
      "lat": 36.88662,
      "lon": 128.107346,
      "ele": 1042.625
    },
    {
      "path_id": 71,
      "name": "정상 쉼터",
      "lat": 36.886112,
      "lon": 128.105942,
      "ele": 1092.802
    },
    {
      "path_id": 72,
      "name": "월악산 영봉",
      "lat": 36.886124,
      "lon": 128.105896,
      "ele": 1087.837
    },
    {
      "path_id": 73,
      "name": "추락,낙석",
      "lat": 36.886097,
      "lon": 128.105972,
      "ele": 1090.371
    },
    {
      "path_id": 74,
      "name": "영봉안내",
      "lat": 36.886066,
      "lon": 128.106003,
      "ele": 1090.44
    },
    {
      "path_id": 75,
      "name": "영봉",
      "lat": 36.874557,
      "lon": 128.104401,
      "ele": 920.198
    },
    {
      "path_id": 76,
      "name": "충주호",
      "lat": 36.874535,
      "lon": 128.104218,
      "ele": 919.251
    },
    {
      "path_id": 77,
      "name": "자연경관",
      "lat": 36.873863,
      "lon": 128.103699,
      "ele": 898.257
    },
    {
      "path_id": 78,
      "name": "자연경관",
      "lat": 36.873772,
      "lon": 128.103638,
      "ele": 896.29
    },
    {
      "path_id": 79,
      "name": "웨이포인트 43",
      "lat": 36.871902,
      "lon": 128.103531,
      "ele": 716.359
    },
    {
      "path_id": 80,
      "name": "덕주사 화장실",
      "lat": 36.861462,
      "lon": 128.09726,
      "ele": 312.084
    },
    {
      "path_id": 81,
      "name": "송계계곡",
      "lat": 36.861794,
      "lon": 128.09552,
      "ele": 304.063
    }
  ]
}
