[
  {
    "path_id": 0,
    "path": [
      {
        "lat": 35.504105,
        "lng": 126.585999
      },
      {
        "lat": 35.504623,
        "lng": 126.584335
      }
    ],
    "color": "#9008fd",
    "start_name": "소형주차장 / 갈림길",
    "length_meter": 162.0,
    "time_minute": 2
  },
  {
    "path_id": 1,
    "path": [
      {
        "lat": 35.504623,
        "lng": 126.584335
      },
      {
        "lat": 35.505623,
        "lng": 126.583664
      }
    ],
    "color": "#2db90e",
    "start_name": "선운산수련원 / 경수산(경수봉) 들머리",
    "length_meter": 126.7,
    "time_minute": 2
  },
  {
    "path_id": 2,
    "path": [
      {
        "lat": 35.505623,
        "lng": 126.583664
      },
      {
        "lat": 35.506443,
        "lng": 126.58358
      }
    ],
    "color": "#0ccffd",
    "start_name": "갈림길",
    "length_meter": 91.5,
    "time_minute": 1
  },
  {
    "path_id": 3,
    "path": [
      {
        "lat": 35.506443,
        "lng": 126.58358
      },
      {
        "lat": 35.508423,
        "lng": 126.584175
      }
    ],
    "color": "#81d8f4",
    "start_name": "이정표 / 등산시 유의사항",
    "length_meter": 228.8,
    "time_minute": 3
  },
  {
    "path_id": 4,
    "path": [
      {
        "lat": 35.508423,
        "lng": 126.584175
      },
      {
        "lat": 35.510941,
        "lng": 126.585442
      }
    ],
    "color": "#84ddcb",
    "start_name": "국가지점번호",
    "length_meter": 302.6,
    "time_minute": 5
  },
  {
    "path_id": 5,
    "path": [
      {
        "lat": 35.510941,
        "lng": 126.585442
      },
      {
        "lat": 35.513367,
        "lng": 126.585129
      }
    ],
    "color": "#2d829d",
    "start_name": "야생꽃",
    "length_meter": 271.2,
    "time_minute": 4
  },
  {
    "path_id": 6,
    "path": [
      {
        "lat": 35.513367,
        "lng": 126.585129
      },
      {
        "lat": 35.515278,
        "lng": 126.584076
      }
    ],
    "color": "#a4457e",
    "start_name": "국가지점번호",
    "length_meter": 232.9,
    "time_minute": 3
  },
  {
    "path_id": 7,
    "path": [
      {
        "lat": 35.515278,
        "lng": 126.584076
      },
      {
        "lat": 35.51722,
        "lng": 126.583527
      }
    ],
    "color": "#7287f8",
    "start_name": "등산위치도",
    "length_meter": 221.6,
    "time_minute": 3
  },
  {
    "path_id": 8,
    "path": [
      {
        "lat": 35.51722,
        "lng": 126.583527
      },
      {
        "lat": 35.517475,
        "lng": 126.581467
      }
    ],
    "color": "#c1c8f4",
    "start_name": "갈림길 / 국가지점번호",
    "length_meter": 189.6,
    "time_minute": 3
  },
  {
    "path_id": 9,
    "path": [
      {
        "lat": 35.517475,
        "lng": 126.581467
      },
      {
        "lat": 35.517891,
        "lng": 126.579948
      }
    ],
    "color": "#caa311",
    "start_name": "조릿대 사이길",
    "length_meter": 145.1,
    "time_minute": 2
  },
  {
    "path_id": 10,
    "path": [
      {
        "lat": 35.517891,
        "lng": 126.579948
      },
      {
        "lat": 35.518021,
        "lng": 126.579269
      }
    ],
    "color": "#54116f",
    "start_name": "해운 / 닭의장풀-야생꽃",
    "length_meter": 63.4,
    "time_minute": 1
  },
  {
    "path_id": 11,
    "path": [
      {
        "lat": 35.518021,
        "lng": 126.579269
      },
      {
        "lat": 35.518124,
        "lng": 126.577095
      }
    ],
    "color": "#1d9db4",
    "start_name": "야생꽃 / 아침 운해 / 선운산 주변능선들의 운해맞이 / 도",
    "length_meter": 206.0,
    "time_minute": 3
  },
  {
    "path_id": 12,
    "path": [
      {
        "lat": 35.518124,
        "lng": 126.577095
      },
      {
        "lat": 35.51675,
        "lng": 126.57663
      }
    ],
    "color": "#8ced34",
    "start_name": "국가지점번호 / 경수산 경수봉 / 갈림길 / 정상석2 / 우천시 계단미끄럼주의",
    "length_meter": 188.8,
    "time_minute": 3
  },
  {
    "path_id": 13,
    "path": [
      {
        "lat": 35.51675,
        "lng": 126.57663
      },
      {
        "lat": 35.516205,
        "lng": 126.576645
      }
    ],
    "color": "#65a8d1",
    "start_name": "국가지점번호 / 산모초",
    "length_meter": 60.6,
    "time_minute": 1
  },
  {
    "path_id": 14,
    "path": [
      {
        "lat": 35.516205,
        "lng": 126.576645
      },
      {
        "lat": 35.515625,
        "lng": 126.576584
      }
    ],
    "color": "#3c61b8",
    "start_name": "야생꽃",
    "length_meter": 64.7,
    "time_minute": 1
  },
  {
    "path_id": 15,
    "path": [
      {
        "lat": 35.515625,
        "lng": 126.576584
      },
      {
        "lat": 35.513466,
        "lng": 126.574402
      }
    ],
    "color": "#530909",
    "start_name": "운해",
    "length_meter": 310.9,
    "time_minute": 5
  },
  {
    "path_id": 16,
    "path": [
      {
        "lat": 35.513466,
        "lng": 126.574402
      },
      {
        "lat": 35.490501,
        "lng": 126.557541
      }
    ],
    "color": "#60e238",
    "start_name": "국가지점번호",
    "length_meter": 2975.0,
    "time_minute": 49
  },
  {
    "path_id": 17,
    "path": [
      {
        "lat": 35.490501,
        "lng": 126.557541
      },
      {
        "lat": 35.490681,
        "lng": 126.556908
      }
    ],
    "color": "#e3c00b",
    "start_name": "이정표",
    "length_meter": 60.7,
    "time_minute": 1
  },
  {
    "path_id": 18,
    "path": [
      {
        "lat": 35.490681,
        "lng": 126.556908
      },
      {
        "lat": 35.49028,
        "lng": 126.556473
      }
    ],
    "color": "#55727b",
    "start_name": "개이빨산 / 해리면의 궁산저수지 / 변산 곰소항 방면",
    "length_meter": 70.6,
    "time_minute": 1
  },
  {
    "path_id": 19,
    "path": [
      {
        "lat": 35.49028,
        "lng": 126.556473
      },
      {
        "lat": 35.489811,
        "lng": 126.556183
      }
    ],
    "color": "#3f9fff",
    "start_name": "갈림길 / 국가지점번호",
    "length_meter": 62.3,
    "time_minute": 1
  },
  {
    "path_id": 20,
    "path": [
      {
        "lat": 35.489811,
        "lng": 126.556183
      },
      {
        "lat": 35.488251,
        "lng": 126.556541
      }
    ],
    "color": "#7c11e0",
    "start_name": "견치산 / 테이블",
    "length_meter": 177.0,
    "time_minute": 2
  },
  {
    "path_id": 21,
    "path": [
      {
        "lat": 35.488251,
        "lng": 126.556541
      },
      {
        "lat": 35.48698,
        "lng": 126.556564
      }
    ],
    "color": "#3b56bf",
    "start_name": "테이블벤치 / 국가지점번호 / 이정표",
    "length_meter": 141.7,
    "time_minute": 2
  },
  {
    "path_id": 22,
    "path": [
      {
        "lat": 35.48698,
        "lng": 126.556564
      },
      {
        "lat": 35.48542,
        "lng": 126.558586
      }
    ],
    "color": "#3ab571",
    "start_name": "대숲길",
    "length_meter": 252.2,
    "time_minute": 4
  },
  {
    "path_id": 23,
    "path": [
      {
        "lat": 35.48542,
        "lng": 126.558586
      },
      {
        "lat": 35.481674,
        "lng": 126.559441
      }
    ],
    "color": "#22616e",
    "start_name": "갈림길 / 국가지점번호",
    "length_meter": 428.2,
    "time_minute": 7
  },
  {
    "path_id": 24,
    "path": [
      {
        "lat": 35.481674,
        "lng": 126.559441
      },
      {
        "lat": 35.479549,
        "lng": 126.559402
      }
    ],
    "color": "#41aa83",
    "start_name": "갈림길 / 국가지점번호",
    "length_meter": 236.3,
    "time_minute": 3
  },
  {
    "path_id": 25,
    "path": [
      {
        "lat": 35.479549,
        "lng": 126.559402
      },
      {
        "lat": 35.478172,
        "lng": 126.560127
      }
    ],
    "color": "#124efe",
    "start_name": "통나무테이블",
    "length_meter": 166.6,
    "time_minute": 2
  },
  {
    "path_id": 26,
    "path": [
      {
        "lat": 35.478172,
        "lng": 126.560127
      },
      {
        "lat": 35.478138,
        "lng": 126.561394
      }
    ],
    "color": "#cb181f",
    "start_name": "낙조대 / 선운산 지질명소 -낙조대 / 이정표 / 테이블 / 갈림길",
    "length_meter": 137.0,
    "time_minute": 2
  },
  {
    "path_id": 27,
    "path": [
      {
        "lat": 35.478138,
        "lng": 126.561394
      },
      {
        "lat": 35.478348,
        "lng": 126.561958
      }
    ],
    "color": "#a475cd",
    "start_name": "내원궁과 마애불좌상 / 천마봉",
    "length_meter": 72.3,
    "time_minute": 1
  },
  {
    "path_id": 28,
    "path": [
      {
        "lat": 35.478348,
        "lng": 126.561958
      },
      {
        "lat": 35.47805,
        "lng": 126.560173
      }
    ],
    "color": "#6af94c",
    "start_name": "내원궁과 동불암지 마애불 / 도솔계곡일대 / 천마봉",
    "length_meter": 186.4,
    "time_minute": 3
  },
  {
    "path_id": 29,
    "path": [
      {
        "lat": 35.47805,
        "lng": 126.560173
      },
      {
        "lat": 35.47707,
        "lng": 126.559555
      }
    ],
    "color": "#3b37b0",
    "start_name": "국가지점번호",
    "length_meter": 122.5,
    "time_minute": 2
  },
  {
    "path_id": 30,
    "path": [
      {
        "lat": 35.47707,
        "lng": 126.559555
      },
      {
        "lat": 35.470261,
        "lng": 126.555428
      }
    ],
    "color": "#a0f222",
    "start_name": "계단 미끄럼주의 / 낙조대 / 이정표 / 국가지점번호",
    "length_meter": 856.2,
    "time_minute": 14
  },
  {
    "path_id": 31,
    "path": [
      {
        "lat": 35.470261,
        "lng": 126.555428
      },
      {
        "lat": 35.46756,
        "lng": 126.555786
      }
    ],
    "color": "#788ffd",
    "start_name": "이정표 / 국가지점번호",
    "length_meter": 304.6,
    "time_minute": 5
  },
  {
    "path_id": 32,
    "path": [
      {
        "lat": 35.46756,
        "lng": 126.555786
      },
      {
        "lat": 35.466122,
        "lng": 126.555733
      }
    ],
    "color": "#371471",
    "start_name": "해리면의 평야",
    "length_meter": 160.0,
    "time_minute": 2
  },
  {
    "path_id": 33,
    "path": [
      {
        "lat": 35.466122,
        "lng": 126.555733
      },
      {
        "lat": 35.465729,
        "lng": 126.556099
      }
    ],
    "color": "#13e04f",
    "start_name": "배맨바위 / 갈림길 / 국가지점번호 / 청룡산",
    "length_meter": 66.6,
    "time_minute": 1
  },
  {
    "path_id": 34,
    "path": [
      {
        "lat": 35.465729,
        "lng": 126.556099
      },
      {
        "lat": 35.465393,
        "lng": 126.556961
      }
    ],
    "color": "#5f6221",
    "start_name": "해리면 하련의 농경지 / 오이풀-야생화",
    "length_meter": 86.6,
    "time_minute": 1
  },
  {
    "path_id": 35,
    "path": [
      {
        "lat": 35.465393,
        "lng": 126.556961
      },
      {
        "lat": 35.463993,
        "lng": 126.56041
      }
    ],
    "color": "#e63c23",
    "start_name": "층꽃나무",
    "length_meter": 349.0,
    "time_minute": 5
  },
  {
    "path_id": 36,
    "path": [
      {
        "lat": 35.463993,
        "lng": 126.56041
      },
      {
        "lat": 35.464645,
        "lng": 126.562386
      }
    ],
    "color": "#4e1eb8",
    "start_name": "국가지점번호",
    "length_meter": 193.1,
    "time_minute": 3
  },
  {
    "path_id": 37,
    "path": [
      {
        "lat": 35.464645,
        "lng": 126.562386
      },
      {
        "lat": 35.465805,
        "lng": 126.562698
      }
    ],
    "color": "#d88416",
    "start_name": "웨이포인트 116 / 웨이포인트 117 / 웨이포인트 118 / 청룡산과배맨바위",
    "length_meter": 132.3,
    "time_minute": 2
  },
  {
    "path_id": 38,
    "path": [
      {
        "lat": 35.465805,
        "lng": 126.562698
      },
      {
        "lat": 35.466461,
        "lng": 126.563293
      }
    ],
    "color": "#558cf9",
    "start_name": "갈림길 / 국가지점번호 / 쥐바위봉 클라이밍 / 배맨바위와 천마봉",
    "length_meter": 96.9,
    "time_minute": 1
  },
  {
    "path_id": 39,
    "path": [
      {
        "lat": 35.466461,
        "lng": 126.563293
      },
      {
        "lat": 35.465324,
        "lng": 126.566902
      }
    ],
    "color": "#8bac5b",
    "start_name": "층꽃나무 군락 / 갈림길",
    "length_meter": 371.9,
    "time_minute": 6
  },
  {
    "path_id": 40,
    "path": [
      {
        "lat": 35.465324,
        "lng": 126.566902
      },
      {
        "lat": 35.465004,
        "lng": 126.567459
      }
    ],
    "color": "#d36b38",
    "start_name": "국가지점번호 / 도솔제 / 평지리 평지저수지",
    "length_meter": 69.0,
    "time_minute": 1
  },
  {
    "path_id": 41,
    "path": [
      {
        "lat": 35.465004,
        "lng": 126.567459
      },
      {
        "lat": 35.463833,
        "lng": 126.57296
      }
    ],
    "color": "#028553",
    "start_name": "바위",
    "length_meter": 514.9,
    "time_minute": 8
  },
  {
    "path_id": 42,
    "path": [
      {
        "lat": 35.463833,
        "lng": 126.57296
      },
      {
        "lat": 35.477509,
        "lng": 126.573906
      }
    ],
    "color": "#cd3bd9",
    "start_name": "국가지점번호 / 갈림길",
    "length_meter": 1534.0,
    "time_minute": 25
  },
  {
    "path_id": 43,
    "path": [
      {
        "lat": 35.477509,
        "lng": 126.573906
      },
      {
        "lat": 35.479527,
        "lng": 126.575287
      }
    ],
    "color": "#86f294",
    "start_name": "희여계곡",
    "length_meter": 256.9,
    "time_minute": 4
  },
  {
    "path_id": 44,
    "path": [
      {
        "lat": 35.479527,
        "lng": 126.575287
      },
      {
        "lat": 35.48399,
        "lng": 126.577614
      }
    ],
    "color": "#30b5e7",
    "start_name": "이정표 / 갈림길",
    "length_meter": 539.7,
    "time_minute": 8
  },
  {
    "path_id": 45,
    "path": [
      {
        "lat": 35.48399,
        "lng": 126.577614
      },
      {
        "lat": 35.48634,
        "lng": 126.577789
      }
    ],
    "color": "#964dd1",
    "start_name": "국기봉능선의 사자바위",
    "length_meter": 261.8,
    "time_minute": 4
  },
  {
    "path_id": 46,
    "path": [
      {
        "lat": 35.48634,
        "lng": 126.577789
      },
      {
        "lat": 35.487869,
        "lng": 126.576889
      }
    ],
    "color": "#4a78c6",
    "start_name": "갈림길",
    "length_meter": 188.5,
    "time_minute": 3
  },
  {
    "path_id": 47,
    "path": [
      {
        "lat": 35.487869,
        "lng": 126.576889
      },
      {
        "lat": 35.502331,
        "lng": 126.583221
      }
    ],
    "color": "#b4d27e",
    "start_name": "도솔제 / 국가지점번호 / 갈림길 / 투구바위 능선",
    "length_meter": 1734.9,
    "time_minute": 28
  },
  {
    "path_id": 48,
    "path": [
      {
        "lat": 35.502331,
        "lng": 126.583221
      },
      {
        "lat": 35.502903,
        "lng": 126.584473
      }
    ],
    "color": "#379a7c",
    "start_name": "국민여가캠핑장",
    "length_meter": 130.0,
    "time_minute": 2
  },
  {
    "path_id": 49,
    "path": [
      {
        "lat": 35.502903,
        "lng": 126.584473
      },
      {
        "lat": 35.503529,
        "lng": 126.585373
      }
    ],
    "color": "#d09722",
    "start_name": "선운사 유스호스텔",
    "length_meter": 107.2,
    "time_minute": 1
  },
  {
    "path_id": 50,
    "path": [
      {
        "lat": 35.503529,
        "lng": 126.585373
      },
      {
        "lat": 35.504108,
        "lng": 126.585976
      }
    ],
    "color": "#71a6e4",
    "start_name": "고향식당",
    "length_meter": 84.4,
    "time_minute": 1
  }
]