[
  {
    "path_id": 0,
    "path": [
      {
        "lat": 37.655445,
        "lng": 127.26532
      },
      {
        "lat": 37.659657,
        "lng": 127.265083
      }
    ],
    "color": "#1bb67c",
    "start_name": "갈림길",
    "length_meter": 468.8,
    "time_minute": 7
  },
  {
    "path_id": 1,
    "path": [
      {
        "lat": 37.659657,
        "lng": 127.265083
      },
      {
        "lat": 37.660835,
        "lng": 127.263344
      }
    ],
    "color": "#b70ef5",
    "start_name": "삼각점",
    "length_meter": 201.5,
    "time_minute": 3
  },
  {
    "path_id": 2,
    "path": [
      {
        "lat": 37.660835,
        "lng": 127.263344
      },
      {
        "lat": 37.661388,
        "lng": 127.262779
      }
    ],
    "color": "#1c7092",
    "start_name": "자연쉼터 / 스카장 상단부",
    "length_meter": 80.6,
    "time_minute": 1
  },
  {
    "path_id": 3,
    "path": [
      {
        "lat": 37.661388,
        "lng": 127.262779
      },
      {
        "lat": 37.661789,
        "lng": 127.261536
      }
    ],
    "color": "#914d29",
    "start_name": "스키장 상단조망3 / 스키장 상단 쉼터",
    "length_meter": 120.5,
    "time_minute": 2
  },
  {
    "path_id": 4,
    "path": [
      {
        "lat": 37.661789,
        "lng": 127.261536
      },
      {
        "lat": 37.669182,
        "lng": 127.26329
      }
    ],
    "color": "#4065c9",
    "start_name": "능선위 조망터 / 능선위 쉼터",
    "length_meter": 843.7,
    "time_minute": 14
  },
  {
    "path_id": 5,
    "path": [
      {
        "lat": 37.669182,
        "lng": 127.26329
      },
      {
        "lat": 37.67081,
        "lng": 127.263398
      }
    ],
    "color": "#84e8e3",
    "start_name": "갈림길 / 안부 쉼터",
    "length_meter": 181.9,
    "time_minute": 3
  },
  {
    "path_id": 6,
    "path": [
      {
        "lat": 37.67081,
        "lng": 127.263398
      },
      {
        "lat": 37.67313,
        "lng": 127.264709
      }
    ],
    "color": "#72187e",
    "start_name": "웨이포인트 17 / 위치안내판",
    "length_meter": 291.8,
    "time_minute": 4
  },
  {
    "path_id": 7,
    "path": [
      {
        "lat": 37.67313,
        "lng": 127.264709
      },
      {
        "lat": 37.674007,
        "lng": 127.264824
      }
    ],
    "color": "#125bf7",
    "start_name": "암릉",
    "length_meter": 98.0,
    "time_minute": 1
  },
  {
    "path_id": 8,
    "path": [
      {
        "lat": 37.674007,
        "lng": 127.264824
      },
      {
        "lat": 37.674751,
        "lng": 127.265533
      }
    ],
    "color": "#71079c",
    "start_name": "정상 오름길 전 쉼터",
    "length_meter": 103.6,
    "time_minute": 1
  },
  {
    "path_id": 9,
    "path": [
      {
        "lat": 37.674751,
        "lng": 127.265533
      },
      {
        "lat": 37.677353,
        "lng": 127.267776
      }
    ],
    "color": "#90fa86",
    "start_name": "위치번호",
    "length_meter": 350.3,
    "time_minute": 5
  },
  {
    "path_id": 10,
    "path": [
      {
        "lat": 37.677353,
        "lng": 127.267776
      },
      {
        "lat": 37.6777,
        "lng": 127.26825
      }
    ],
    "color": "#77324b",
    "start_name": "정상 급경사 / 위치번호 / 정상전 암릉",
    "length_meter": 61.3,
    "time_minute": 1
  },
  {
    "path_id": 11,
    "path": [
      {
        "lat": 37.6777,
        "lng": 127.26825
      },
      {
        "lat": 37.678478,
        "lng": 127.271065
      }
    ],
    "color": "#72c62c",
    "start_name": "암릉위 조망 / 노송",
    "length_meter": 313.2,
    "time_minute": 5
  },
  {
    "path_id": 12,
    "path": [
      {
        "lat": 37.678478,
        "lng": 127.271065
      },
      {
        "lat": 37.678947,
        "lng": 127.271873
      }
    ],
    "color": "#4542da",
    "start_name": "위치번호",
    "length_meter": 88.2,
    "time_minute": 1
  },
  {
    "path_id": 13,
    "path": [
      {
        "lat": 37.678947,
        "lng": 127.271873
      },
      {
        "lat": 37.681595,
        "lng": 127.271576
      }
    ],
    "color": "#df92ac",
    "start_name": "정상직전 암릉 / 갈림길",
    "length_meter": 299.4,
    "time_minute": 4
  },
  {
    "path_id": 14,
    "path": [
      {
        "lat": 37.681595,
        "lng": 127.271576
      },
      {
        "lat": 37.682487,
        "lng": 127.2705
      }
    ],
    "color": "#3cc397",
    "start_name": "중간 쉼터",
    "length_meter": 137.1,
    "time_minute": 2
  },
  {
    "path_id": 15,
    "path": [
      {
        "lat": 37.682487,
        "lng": 127.2705
      },
      {
        "lat": 37.683598,
        "lng": 127.256538
      }
    ],
    "color": "#9538c1",
    "start_name": "옹달샘 쉼터",
    "length_meter": 1234.9,
    "time_minute": 20
  },
  {
    "path_id": 16,
    "path": [
      {
        "lat": 37.683598,
        "lng": 127.256538
      },
      {
        "lat": 37.685719,
        "lng": 127.250107
      }
    ],
    "color": "#031d44",
    "start_name": "청정계곡",
    "length_meter": 613.1,
    "time_minute": 10
  },
  {
    "path_id": 17,
    "path": [
      {
        "lat": 37.685719,
        "lng": 127.250107
      },
      {
        "lat": 37.693348,
        "lng": 127.230415
      }
    ],
    "color": "#df2854",
    "start_name": "무명소",
    "length_meter": 1929.3,
    "time_minute": 32
  },
  {
    "path_id": 18,
    "path": [
      {
        "lat": 37.693348,
        "lng": 127.230415
      },
      {
        "lat": 37.695778,
        "lng": 127.225098
      }
    ],
    "color": "#0b6427",
    "start_name": "오남호수공원 체육시설및 쉼터",
    "length_meter": 540.2,
    "time_minute": 9
  },
  {
    "path_id": 19,
    "path": [
      {
        "lat": 37.695778,
        "lng": 127.225098
      },
      {
        "lat": 37.69688,
        "lng": 127.223549
      }
    ],
    "color": "#1f53fa",
    "start_name": "오남호수공원",
    "length_meter": 183.3,
    "time_minute": 3
  },
  {
    "path_id": 20,
    "path": [
      {
        "lat": 37.69688,
        "lng": 127.223549
      },
      {
        "lat": 37.697109,
        "lng": 127.222649
      }
    ],
    "color": "#9a1847",
    "start_name": "오남호수공원 쉼터 / 오남호수공원 화장실",
    "length_meter": 87.7,
    "time_minute": 1
  },
  {
    "path_id": 21,
    "path": [
      {
        "lat": 37.697109,
        "lng": 127.222649
      },
      {
        "lat": 37.697613,
        "lng": 127.221275
      }
    ],
    "color": "#b04338",
    "start_name": "다송 한식 카페 브레드포레",
    "length_meter": 133.2,
    "time_minute": 2
  },
  {
    "path_id": 22,
    "path": [
      {
        "lat": 37.697613,
        "lng": 127.221275
      },
      {
        "lat": 37.696495,
        "lng": 127.218575
      }
    ],
    "color": "#927714",
    "start_name": "시골청국장 / 오남호수공원 / 공원 중간 쉼터",
    "length_meter": 282.2,
    "time_minute": 4
  },
  {
    "path_id": 23,
    "path": [
      {
        "lat": 37.696495,
        "lng": 127.218575
      },
      {
        "lat": 37.696228,
        "lng": 127.217865
      }
    ],
    "color": "#064d49",
    "start_name": "오남호수공원",
    "length_meter": 69.2,
    "time_minute": 1
  },
  {
    "path_id": 24,
    "path": [
      {
        "lat": 37.696228,
        "lng": 127.217865
      },
      {
        "lat": 37.69566,
        "lng": 127.217178
      }
    ],
    "color": "#1ff392",
    "start_name": "오남호수공원 화장실 / 오남호수공원 공연장",
    "length_meter": 87.4,
    "time_minute": 1
  }
]