{
    "max_ele": 1304.171,
    "track": [
        {
            "path_id": 1,
            "name": "치악산국립공원황골탐방지원센터",
            "lat": 37.360477,
            "lon": 128.022171,
            "ele": 451.91
        },
        {
            "path_id": 2,
            "name": "황골지구 주차장",
            "lat": 37.360249,
            "lon": 128.022217,
            "ele": 452.337
        },
        {
            "path_id": 11,
            "name": "입석사 대웅전",
            "lat": 37.360046,
            "lon": 128.035858,
            "ele": 699.183
        },
        {
            "path_id": 12,
            "name": "입석사 삼성각",
            "lat": 37.360279,
            "lon": 128.036255,
            "ele": 711.427
        },
        {
            "path_id": 13,
            "name": "탐방로",
            "lat": 37.360439,
            "lon": 128.036484,
            "ele": 715.63
        },
        {
            "path_id": 15,
            "name": "데크마루",
            "lat": 37.361572,
            "lon": 128.040726,
            "ele": 920.313
        },
        {
            "path_id": 18,
            "name": "황골삼거리",
            "lat": 37.362377,
            "lon": 128.046448,
            "ele": 1124.443
        },
        {
            "path_id": 20,
            "name": "쥐넘이재 전망대",
            "lat": 37.365135,
            "lon": 128.047974,
            "ele": 1179.762
        },
        {
            "path_id": 21,
            "name": "쥐넘이재 전망대",
            "lat": 37.365173,
            "lon": 128.048019,
            "ele": 1183.013
        },
        {
            "path_id": 23,
            "name": "헬기장처럼 보이나 표시없는 빈공터",
            "lat": 37.366127,
            "lon": 128.051819,
            "ele": 1207.67
        },
        {
            "path_id": 24,
            "name": "황장금표",
            "lat": 37.365948,
            "lon": 128.052597,
            "ele": 1217.969
        },
        {
            "path_id": 28,
            "name": "비로봉입구 쉼터",
            "lat": 37.365742,
            "lon": 128.053757,
            "ele": 1221.583
        },
        {
            "path_id": 30,
            "name": "치악산비로봉",
            "lat": 37.365051,
            "lon": 128.055481,
            "ele": 1264.653
        },
        {
            "path_id": 31,
            "name": "비로봉 미륵불탑",
            "lat": 37.365009,
            "lon": 128.055527,
            "ele": 1302.365
        },
        {
            "path_id": 32,
            "name": "비로봉 바로밑",
            "lat": 37.365295,
            "lon": 128.055435,
            "ele": 1304.171
        },
        {
            "path_id": 34,
            "name": "쉼터",
            "lat": 37.371685,
            "lon": 128.057846,
            "ele": 1018.981
        },
        {
            "path_id": 36,
            "name": "쉼터",
            "lat": 37.372372,
            "lon": 128.058289,
            "ele": 963.736
        },
        {
            "path_id": 39,
            "name": "말등바위 전망대",
            "lat": 37.37315,
            "lon": 128.058533,
            "ele": 929.229
        },
        {
            "path_id": 40,
            "name": "말동바위 전망대 부근",
            "lat": 37.373199,
            "lon": 128.058563,
            "ele": 929.218
        },
        {
            "path_id": 41,
            "name": "간이 쉼터",
            "lat": 37.374432,
            "lon": 128.058777,
            "ele": 874.018
        },
        {
            "path_id": 42,
            "name": "간이 쉼터",
            "lat": 37.375225,
            "lon": 128.058975,
            "ele": 867.81
        },
        {
            "path_id": 43,
            "name": "간이 쉼터",
            "lat": 37.375664,
            "lon": 128.059006,
            "ele": 863.049
        },
        {
            "path_id": 44,
            "name": "표지목",
            "lat": 37.376045,
            "lon": 128.058975,
            "ele": 860.646
        },
        {
            "path_id": 49,
            "name": "초간이 쉼터",
            "lat": 37.378723,
            "lon": 128.058578,
            "ele": 835.727
        },
        {
            "path_id": 53,
            "name": "세렴폭포 옆 다리",
            "lat": 37.383465,
            "lon": 128.059296,
            "ele": 600.685
        },
        {
            "path_id": 54,
            "name": "세럼폭포 입구 쉼터",
            "lat": 37.383801,
            "lon": 128.059387,
            "ele": 572.787
        },
        {
            "path_id": 57,
            "name": "황장금표",
            "lat": 37.383774,
            "lon": 128.059372,
            "ele": 553.372
        },
        {
            "path_id": 59,
            "name": "간이쉼터",
            "lat": 37.388229,
            "lon": 128.056885,
            "ele": 514.264
        },
        {
            "path_id": 61,
            "name": "비로봉 시작졈",
            "lat": 37.394272,
            "lon": 128.053635,
            "ele": 455.292
        },
        {
            "path_id": 62,
            "name": "대곡안전센터",
            "lat": 37.394321,
            "lon": 128.053406,
            "ele": 450.396
        },
        {
            "path_id": 63,
            "name": "생태학습원",
            "lat": 37.394917,
            "lon": 128.05307,
            "ele": 438.759
        },
        {
            "path_id": 64,
            "name": "대곡공중화장실",
            "lat": 37.394939,
            "lon": 128.05307,
            "ele": 437.669
        },
        {
            "path_id": 66,
            "name": "갈림길",
            "lat": 37.39502,
            "lon": 128.052933,
            "ele": 435.667
        },
        {
            "path_id": 67,
            "name": "황장금 소나무",
            "lat": 37.395653,
            "lon": 128.051834,
            "ele": 429.137
        },
        {
            "path_id": 69,
            "name": "갈림길",
            "lat": 37.398239,
            "lon": 128.051239,
            "ele": 422.482
        },
        {
            "path_id": 70,
            "name": "구룡사",
            "lat": 37.399017,
            "lon": 128.050522,
            "ele": 413.704
        },
        {
            "path_id": 71,
            "name": "구룡사 화장실",
            "lat": 37.400009,
            "lon": 128.050323,
            "ele": 400.049
        },
        {
            "path_id": 73,
            "name": "갈림길",
            "lat": 37.400639,
            "lon": 128.050461,
            "ele": 395.256
        },
        {
            "path_id": 74,
            "name": "갈림길",
            "lat": 37.402901,
            "lon": 128.049225,
            "ele": 388.349
        },
        {
            "path_id": 75,
            "name": "폭포",
            "lat": 37.403236,
            "lon": 128.048874,
            "ele": 386.016
        },
        {
            "path_id": 76,
            "name": "황장목숲길 시작점",
            "lat": 37.405014,
            "lon": 128.048782,
            "ele": 381.519
        },
        {
            "path_id": 77,
            "name": "구룡사 매표소",
            "lat": 37.404438,
            "lon": 128.047241,
            "ele": 334.511
        },
        {
            "path_id": 78,
            "name": "산장",
            "lat": 37.40456,
            "lon": 128.047073,
            "ele": 358.368
        }
    ]
}