{
    "max_ele": 865.439,
    "min_ele": 322.82,
    "track": [
        {
            "path_id": 1,
            "name": "공작교",
            "lat": 37.685078,
            "lon": 128.02623,
            "ele": 322.82
        },
        {
            "path_id": 2,
            "name": "정자 쉼터",
            "lat": 37.697605,
            "lon": 128.023834,
            "ele": 354.473
        },
        {
            "path_id": 3,
            "name": "갈림길",
            "lat": 37.698345,
            "lon": 128.023499,
            "ele": 357.939
        },
        {
            "path_id": 4,
            "name": "갈림길",
            "lat": 37.701843,
            "lon": 128.022629,
            "ele": 376.268
        },
        {
            "path_id": 5,
            "name": "노송군락지",
            "lat": 37.708534,
            "lon": 128.024292,
            "ele": 476.485
        },
        {
            "path_id": 6,
            "name": "갈림길",
            "lat": 37.710758,
            "lon": 128.024124,
            "ele": 600.748
        },
        {
            "path_id": 7,
            "name": "노송군락지 끝",
            "lat": 37.711166,
            "lon": 128.023788,
            "ele": 651.981
        },
        {
            "path_id": 8,
            "name": "낙엽송식재지역",
            "lat": 37.714119,
            "lon": 128.016541,
            "ele": 760.372
        },
        {
            "path_id": 9,
            "name": "갈림길",
            "lat": 37.715527,
            "lon": 128.010406,
            "ele": 865.439
        }
    ]
}