[
    {
        "path_id": 1,
        "name": "청량동탐방안내소",
        "lat": 35.769905,
        "lon": 128.114075
    },
    {
        "path_id": 2,
        "name": "청량사입구에서 바라본 모습",
        "lat": 35.771469,
        "lon": 128.110565
    },
    {
        "path_id": 3,
        "name": "갈림길",
        "lat": 35.77182,
        "lon": 128.10994
    },
    {
        "path_id": 4,
        "name": "청량동 탐방로",
        "lat": 35.771698,
        "lon": 128.10965
    },
    {
        "path_id": 5,
        "name": "전망대",
        "lat": 35.774258,
        "lon": 128.103287
    },
    {
        "path_id": 6,
        "name": "자연경관",
        "lat": 35.774151,
        "lon": 128.103256
    },
    {
        "path_id": 8,
        "name": "가위바위보 바위 뒷모습",
        "lat": 35.773418,
        "lon": 128.100555
    },
    {
        "path_id": 9,
        "name": "가위바위보 바위",
        "lat": 35.77335,
        "lon": 128.100266
    },
    {
        "path_id": 10,
        "name": "매화산방향",
        "lat": 35.773563,
        "lon": 128.09935
    },
    {
        "path_id": 11,
        "name": "자연경관",
        "lat": 35.7738,
        "lon": 128.098938
    },
    {
        "path_id": 12,
        "name": "낙석주의",
        "lat": 35.773689,
        "lon": 128.098602
    },
    {
        "path_id": 15,
        "name": "남산제일봉",
        "lat": 35.77282,
        "lon": 128.095734
    },
    {
        "path_id": 16,
        "name": "정상부 철계단 조망",
        "lat": 35.773979,
        "lon": 128.097275
    },
    {
        "path_id": 17,
        "name": "전망대",
        "lat": 35.774223,
        "lon": 128.103256
    },
    {
        "path_id": 18,
        "name": "청량동 탐방안내소와 화장실",
        "lat": 35.771614,
        "lon": 128.10965
    },
    {
        "path_id": 19,
        "name": "청량사 석등",
        "lat": 35.772488,
        "lon": 128.109436
    },
    {
        "path_id": 20,
        "name": "청량사 삼층석탑",
        "lat": 35.772488,
        "lon": 128.109436
    },
    {
        "path_id": 21,
        "name": "청량사 석조석가여래좌상",
        "lat": 35.772327,
        "lon": 128.109665
    },
    {
        "path_id": 22,
        "name": "청량사",
        "lat": 35.772491,
        "lon": 128.109467
    }
]