[
  {
    "path_id": 0,
    "path": [
      {
        "lat": 37.072033,
        "lng": 128.970291
      },
      {
        "lat": 37.072048,
        "lng": 128.969635
      }
    ],
    "color": "#312581",
    "start_name": "태백산 백천탐방지원센터 주차장 / 주차장화장실 / 백천탐방지원센터 / 안내도",
    "length_meter": 70.3,
    "time_minute": 1
  },
  {
    "path_id": 1,
    "path": [
      {
        "lat": 37.072048,
        "lng": 128.969635
      },
      {
        "lat": 37.069263,
        "lng": 128.965134
      }
    ],
    "color": "#8badaf",
    "start_name": "계곡 / 갈림길",
    "length_meter": 505.5,
    "time_minute": 8
  },
  {
    "path_id": 2,
    "path": [
      {
        "lat": 37.069263,
        "lng": 128.965134
      },
      {
        "lat": 37.070427,
        "lng": 128.959503
      }
    ],
    "color": "#089dca",
    "start_name": "낙석위험",
    "length_meter": 516.1,
    "time_minute": 8
  },
  {
    "path_id": 3,
    "path": [
      {
        "lat": 37.070427,
        "lng": 128.959503
      },
      {
        "lat": 37.071705,
        "lng": 128.955048
      }
    ],
    "color": "#2a31e6",
    "start_name": "갈림길",
    "length_meter": 420.0,
    "time_minute": 7
  },
  {
    "path_id": 4,
    "path": [
      {
        "lat": 37.071705,
        "lng": 128.955048
      },
      {
        "lat": 37.071575,
        "lng": 128.954193
      }
    ],
    "color": "#3013de",
    "start_name": "낙석위험",
    "length_meter": 77.2,
    "time_minute": 1
  },
  {
    "path_id": 5,
    "path": [
      {
        "lat": 37.071575,
        "lng": 128.954193
      },
      {
        "lat": 37.070492,
        "lng": 128.946777
      }
    ],
    "color": "#caec05",
    "start_name": "갈림길",
    "length_meter": 668.9,
    "time_minute": 11
  },
  {
    "path_id": 6,
    "path": [
      {
        "lat": 37.070492,
        "lng": 128.946777
      },
      {
        "lat": 37.070328,
        "lng": 128.946091
      }
    ],
    "color": "#2b9ac1",
    "start_name": "안내",
    "length_meter": 63.5,
    "time_minute": 1
  },
  {
    "path_id": 7,
    "path": [
      {
        "lat": 37.070328,
        "lng": 128.946091
      },
      {
        "lat": 37.073296,
        "lng": 128.943069
      }
    ],
    "color": "#bddd49",
    "start_name": "갈림길 / 출입금지",
    "length_meter": 440.0,
    "time_minute": 7
  },
  {
    "path_id": 8,
    "path": [
      {
        "lat": 37.073296,
        "lng": 128.943069
      },
      {
        "lat": 37.073418,
        "lng": 128.942398
      }
    ],
    "color": "#032edd",
    "start_name": "포토 / 보호수",
    "length_meter": 65.8,
    "time_minute": 1
  },
  {
    "path_id": 9,
    "path": [
      {
        "lat": 37.073418,
        "lng": 128.942398
      },
      {
        "lat": 37.075455,
        "lng": 128.937714
      }
    ],
    "color": "#99521b",
    "start_name": "갈림길",
    "length_meter": 473.3,
    "time_minute": 7
  },
  {
    "path_id": 10,
    "path": [
      {
        "lat": 37.075455,
        "lng": 128.937714
      },
      {
        "lat": 37.078857,
        "lng": 128.930191
      }
    ],
    "color": "#fc895e",
    "start_name": "간이쉼터",
    "length_meter": 767.1,
    "time_minute": 12
  },
  {
    "path_id": 11,
    "path": [
      {
        "lat": 37.078857,
        "lng": 128.930191
      },
      {
        "lat": 37.086327,
        "lng": 128.924835
      }
    ],
    "color": "#c4bc2e",
    "start_name": "갈림길",
    "length_meter": 956.9,
    "time_minute": 15
  },
  {
    "path_id": 12,
    "path": [
      {
        "lat": 37.086327,
        "lng": 128.924835
      },
      {
        "lat": 37.089134,
        "lng": 128.922501
      }
    ],
    "color": "#5a6710",
    "start_name": "멧돼지흔적",
    "length_meter": 374.5,
    "time_minute": 6
  },
  {
    "path_id": 13,
    "path": [
      {
        "lat": 37.089134,
        "lng": 128.922501
      },
      {
        "lat": 37.09079,
        "lng": 128.921188
      }
    ],
    "color": "#8f6ff6",
    "start_name": "갈림길",
    "length_meter": 217.9,
    "time_minute": 3
  },
  {
    "path_id": 14,
    "path": [
      {
        "lat": 37.09079,
        "lng": 128.921188
      },
      {
        "lat": 37.091629,
        "lng": 128.921722
      }
    ],
    "color": "#174699",
    "start_name": "부쇠봉에서 바라본 전경",
    "length_meter": 104.6,
    "time_minute": 1
  },
  {
    "path_id": 15,
    "path": [
      {
        "lat": 37.091629,
        "lng": 128.921722
      },
      {
        "lat": 37.092384,
        "lng": 128.922287
      }
    ],
    "color": "#a804b1",
    "start_name": "부쇠봉정상석 / 부쇠봉에서 바라본 하늘 / 경관",
    "length_meter": 101.0,
    "time_minute": 1
  },
  {
    "path_id": 16,
    "path": [
      {
        "lat": 37.092384,
        "lng": 128.922287
      },
      {
        "lat": 37.093109,
        "lng": 128.933182
      }
    ],
    "color": "#42cfeb",
    "start_name": "갈림길",
    "length_meter": 969.7,
    "time_minute": 16
  },
  {
    "path_id": 17,
    "path": [
      {
        "lat": 37.093109,
        "lng": 128.933182
      },
      {
        "lat": 37.092796,
        "lng": 128.939087
      }
    ],
    "color": "#f0e200",
    "start_name": "문수봉등산로",
    "length_meter": 524.9,
    "time_minute": 8
  },
  {
    "path_id": 18,
    "path": [
      {
        "lat": 37.092796,
        "lng": 128.939087
      },
      {
        "lat": 37.077061,
        "lng": 128.953796
      }
    ],
    "color": "#e03d4f",
    "start_name": "갈림길",
    "length_meter": 2182.6,
    "time_minute": 36
  }
]