[
  {
    "path_id": 0,
    "path": [
      {
        "lat": 37.072033,
        "lng": 128.970291
      },
      {
        "lat": 37.072048,
        "lng": 128.969635
      }
    ],
    "color": "#08f138",
    "start_name": "태백산 백천탐방지원센터 주차장 / 주차장화장실 / 백천탐방지원센터 / 안내도",
    "length_meter": 70.3,
    "time_minute": 1
  },
  {
    "path_id": 1,
    "path": [
      {
        "lat": 37.072048,
        "lng": 128.969635
      },
      {
        "lat": 37.069263,
        "lng": 128.965134
      }
    ],
    "color": "#1e0130",
    "start_name": "계곡 / 갈림길",
    "length_meter": 505.5,
    "time_minute": 8
  },
  {
    "path_id": 2,
    "path": [
      {
        "lat": 37.069263,
        "lng": 128.965134
      },
      {
        "lat": 37.06987,
        "lng": 128.960037
      }
    ],
    "color": "#06ec30",
    "start_name": "낙석위험",
    "length_meter": 457.2,
    "time_minute": 7
  },
  {
    "path_id": 3,
    "path": [
      {
        "lat": 37.06987,
        "lng": 128.960037
      },
      {
        "lat": 37.070427,
        "lng": 128.959503
      }
    ],
    "color": "#539ebc",
    "start_name": "쉼터",
    "length_meter": 78.0,
    "time_minute": 1
  },
  {
    "path_id": 4,
    "path": [
      {
        "lat": 37.070427,
        "lng": 128.959503
      },
      {
        "lat": 37.071705,
        "lng": 128.955048
      }
    ],
    "color": "#71ab69",
    "start_name": "갈림길",
    "length_meter": 420.0,
    "time_minute": 7
  },
  {
    "path_id": 5,
    "path": [
      {
        "lat": 37.071705,
        "lng": 128.955048
      },
      {
        "lat": 37.071575,
        "lng": 128.954193
      }
    ],
    "color": "#f52a9e",
    "start_name": "낙석위험 / 쉼터",
    "length_meter": 77.5,
    "time_minute": 1
  },
  {
    "path_id": 6,
    "path": [
      {
        "lat": 37.071575,
        "lng": 128.954193
      },
      {
        "lat": 37.069523,
        "lng": 128.948792
      }
    ],
    "color": "#6621ae",
    "start_name": "갈림길",
    "length_meter": 530.7,
    "time_minute": 8
  },
  {
    "path_id": 7,
    "path": [
      {
        "lat": 37.069523,
        "lng": 128.948792
      },
      {
        "lat": 37.070492,
        "lng": 128.946777
      }
    ],
    "color": "#147edb",
    "start_name": "쉼터 / 갈림길",
    "length_meter": 209.4,
    "time_minute": 3
  },
  {
    "path_id": 8,
    "path": [
      {
        "lat": 37.070492,
        "lng": 128.946777
      },
      {
        "lat": 37.070328,
        "lng": 128.946091
      }
    ],
    "color": "#3e2c7d",
    "start_name": "안내",
    "length_meter": 63.5,
    "time_minute": 1
  },
  {
    "path_id": 9,
    "path": [
      {
        "lat": 37.070328,
        "lng": 128.946091
      },
      {
        "lat": 37.073296,
        "lng": 128.943069
      }
    ],
    "color": "#f3165d",
    "start_name": "갈림길 / 출입금지",
    "length_meter": 440.0,
    "time_minute": 7
  },
  {
    "path_id": 10,
    "path": [
      {
        "lat": 37.073296,
        "lng": 128.943069
      },
      {
        "lat": 37.073418,
        "lng": 128.942398
      }
    ],
    "color": "#774a11",
    "start_name": "포토 / 보호수",
    "length_meter": 65.8,
    "time_minute": 1
  },
  {
    "path_id": 11,
    "path": [
      {
        "lat": 37.073418,
        "lng": 128.942398
      },
      {
        "lat": 37.075455,
        "lng": 128.937714
      }
    ],
    "color": "#7552c9",
    "start_name": "갈림길",
    "length_meter": 473.3,
    "time_minute": 7
  },
  {
    "path_id": 12,
    "path": [
      {
        "lat": 37.075455,
        "lng": 128.937714
      },
      {
        "lat": 37.078857,
        "lng": 128.930191
      }
    ],
    "color": "#0fb3d0",
    "start_name": "간이쉼터",
    "length_meter": 767.1,
    "time_minute": 12
  },
  {
    "path_id": 13,
    "path": [
      {
        "lat": 37.078857,
        "lng": 128.930191
      },
      {
        "lat": 37.079754,
        "lng": 128.929626
      }
    ],
    "color": "#91ec7d",
    "start_name": "갈림길",
    "length_meter": 111.6,
    "time_minute": 1
  },
  {
    "path_id": 14,
    "path": [
      {
        "lat": 37.079754,
        "lng": 128.929626
      },
      {
        "lat": 37.086327,
        "lng": 128.924835
      }
    ],
    "color": "#1a92b4",
    "start_name": "갈림길",
    "length_meter": 845.5,
    "time_minute": 14
  },
  {
    "path_id": 15,
    "path": [
      {
        "lat": 37.086327,
        "lng": 128.924835
      },
      {
        "lat": 37.089134,
        "lng": 128.922501
      }
    ],
    "color": "#c7e4a7",
    "start_name": "멧돼지흔적",
    "length_meter": 374.5,
    "time_minute": 6
  },
  {
    "path_id": 16,
    "path": [
      {
        "lat": 37.089134,
        "lng": 128.922501
      },
      {
        "lat": 37.0905,
        "lng": 128.920563
      }
    ],
    "color": "#6843e4",
    "start_name": "갈림길",
    "length_meter": 229.4,
    "time_minute": 3
  },
  {
    "path_id": 17,
    "path": [
      {
        "lat": 37.0905,
        "lng": 128.920563
      },
      {
        "lat": 37.09079,
        "lng": 128.921188
      }
    ],
    "color": "#c89909",
    "start_name": "갈림길 / 쉼터",
    "length_meter": 66.9,
    "time_minute": 1
  },
  {
    "path_id": 18,
    "path": [
      {
        "lat": 37.09079,
        "lng": 128.921188
      },
      {
        "lat": 37.091629,
        "lng": 128.921722
      }
    ],
    "color": "#446d37",
    "start_name": "부쇠봉에서 바라본 전경",
    "length_meter": 104.6,
    "time_minute": 1
  },
  {
    "path_id": 19,
    "path": [
      {
        "lat": 37.091629,
        "lng": 128.921722
      },
      {
        "lat": 37.092384,
        "lng": 128.922287
      }
    ],
    "color": "#a44e55",
    "start_name": "부쇠봉정상석 / 부쇠봉에서 바라본 하늘 / 경관",
    "length_meter": 101.0,
    "time_minute": 1
  },
  {
    "path_id": 20,
    "path": [
      {
        "lat": 37.092384,
        "lng": 128.922287
      },
      {
        "lat": 37.093109,
        "lng": 128.933182
      }
    ],
    "color": "#8d916e",
    "start_name": "갈림길",
    "length_meter": 969.7,
    "time_minute": 16
  },
  {
    "path_id": 21,
    "path": [
      {
        "lat": 37.093109,
        "lng": 128.933182
      },
      {
        "lat": 37.092796,
        "lng": 128.939087
      }
    ],
    "color": "#46194e",
    "start_name": "문수봉등산로",
    "length_meter": 524.9,
    "time_minute": 8
  },
  {
    "path_id": 22,
    "path": [
      {
        "lat": 37.092796,
        "lng": 128.939087
      },
      {
        "lat": 37.090652,
        "lng": 128.939728
      }
    ],
    "color": "#bfc07c",
    "start_name": "갈림길",
    "length_meter": 245.1,
    "time_minute": 4
  },
  {
    "path_id": 23,
    "path": [
      {
        "lat": 37.090652,
        "lng": 128.939728
      },
      {
        "lat": 37.087917,
        "lng": 128.942429
      }
    ],
    "color": "#eeeb69",
    "start_name": "갈림길",
    "length_meter": 387.2,
    "time_minute": 6
  },
  {
    "path_id": 24,
    "path": [
      {
        "lat": 37.087917,
        "lng": 128.942429
      },
      {
        "lat": 37.081074,
        "lng": 128.948196
      }
    ],
    "color": "#d36bab",
    "start_name": "갈림길",
    "length_meter": 916.9,
    "time_minute": 15
  },
  {
    "path_id": 25,
    "path": [
      {
        "lat": 37.081074,
        "lng": 128.948196
      },
      {
        "lat": 37.080204,
        "lng": 128.948761
      }
    ],
    "color": "#d13df1",
    "start_name": "쉼터 / 쉼터 / 갈림길",
    "length_meter": 130.7,
    "time_minute": 2
  },
  {
    "path_id": 26,
    "path": [
      {
        "lat": 37.080204,
        "lng": 128.948761
      },
      {
        "lat": 37.079384,
        "lng": 128.949722
      }
    ],
    "color": "#9425a5",
    "start_name": "갈림길",
    "length_meter": 124.8,
    "time_minute": 2
  },
  {
    "path_id": 27,
    "path": [
      {
        "lat": 37.079384,
        "lng": 128.949722
      },
      {
        "lat": 37.079147,
        "lng": 128.95079
      }
    ],
    "color": "#78a76d",
    "start_name": "쉼터 / 쉼터",
    "length_meter": 98.3,
    "time_minute": 1
  },
  {
    "path_id": 28,
    "path": [
      {
        "lat": 37.079147,
        "lng": 128.95079
      },
      {
        "lat": 37.077061,
        "lng": 128.953796
      }
    ],
    "color": "#04f372",
    "start_name": "쉼터 / 갈림길",
    "length_meter": 353.7,
    "time_minute": 5
  }
]