[
  {
    "path_id": 0,
    "path": [
      {
        "lat": 37.088734,
        "lng": 128.971268
      },
      {
        "lat": 37.088688,
        "lng": 128.970032
      }
    ],
    "color": "#943013",
    "start_name": "금천주차장 / 주차장화장실 / 태백산안내도",
    "length_meter": 119.6,
    "time_minute": 1
  },
  {
    "path_id": 1,
    "path": [
      {
        "lat": 37.088688,
        "lng": 128.970032
      },
      {
        "lat": 37.089149,
        "lng": 128.96907
      }
    ],
    "color": "#9cc6bc",
    "start_name": "갈림길",
    "length_meter": 99.5,
    "time_minute": 1
  },
  {
    "path_id": 2,
    "path": [
      {
        "lat": 37.089149,
        "lng": 128.96907
      },
      {
        "lat": 37.088631,
        "lng": 128.967773
      }
    ],
    "color": "#d35589",
    "start_name": "탐방로안내 / 갈림길 / 입구경관",
    "length_meter": 130.1,
    "time_minute": 2
  },
  {
    "path_id": 3,
    "path": [
      {
        "lat": 37.088631,
        "lng": 128.967773
      },
      {
        "lat": 37.088184,
        "lng": 128.96701
      }
    ],
    "color": "#d59e11",
    "start_name": "간이화장실 / 입구캠핑장",
    "length_meter": 84.1,
    "time_minute": 1
  },
  {
    "path_id": 4,
    "path": [
      {
        "lat": 37.088184,
        "lng": 128.96701
      },
      {
        "lat": 37.08709,
        "lng": 128.963089
      }
    ],
    "color": "#400a82",
    "start_name": "등산로입구쉼터 / 금지안내",
    "length_meter": 393.3,
    "time_minute": 6
  },
  {
    "path_id": 5,
    "path": [
      {
        "lat": 37.08709,
        "lng": 128.963089
      },
      {
        "lat": 37.09277,
        "lng": 128.947037
      }
    ],
    "color": "#270175",
    "start_name": "갈림길",
    "length_meter": 1557.6,
    "time_minute": 25
  },
  {
    "path_id": 6,
    "path": [
      {
        "lat": 37.09277,
        "lng": 128.947037
      },
      {
        "lat": 37.095165,
        "lng": 128.944077
      }
    ],
    "color": "#79f24d",
    "start_name": "간이쉼터",
    "length_meter": 374.0,
    "time_minute": 6
  },
  {
    "path_id": 7,
    "path": [
      {
        "lat": 37.095165,
        "lng": 128.944077
      },
      {
        "lat": 37.094833,
        "lng": 128.943314
      }
    ],
    "color": "#5da6c2",
    "start_name": "갈림길",
    "length_meter": 77.1,
    "time_minute": 1
  },
  {
    "path_id": 8,
    "path": [
      {
        "lat": 37.094833,
        "lng": 128.943314
      },
      {
        "lat": 37.094746,
        "lng": 128.940125
      }
    ],
    "color": "#192c0c",
    "start_name": "경관",
    "length_meter": 283.0,
    "time_minute": 4
  },
  {
    "path_id": 9,
    "path": [
      {
        "lat": 37.094746,
        "lng": 128.940125
      },
      {
        "lat": 37.093544,
        "lng": 128.937622
      }
    ],
    "color": "#31f872",
    "start_name": "갈림길 / 문수봉정상 / 문수봉에서 바라본전경",
    "length_meter": 263.5,
    "time_minute": 4
  },
  {
    "path_id": 10,
    "path": [
      {
        "lat": 37.093544,
        "lng": 128.937622
      },
      {
        "lat": 37.093063,
        "lng": 128.920273
      }
    ],
    "color": "#42a58e",
    "start_name": "갈림길",
    "length_meter": 1539.7,
    "time_minute": 25
  },
  {
    "path_id": 11,
    "path": [
      {
        "lat": 37.093063,
        "lng": 128.920273
      },
      {
        "lat": 37.095306,
        "lng": 128.917877
      }
    ],
    "color": "#3b6887",
    "start_name": "금지안내 / 갈림길",
    "length_meter": 335.2,
    "time_minute": 5
  },
  {
    "path_id": 12,
    "path": [
      {
        "lat": 37.095306,
        "lng": 128.917877
      },
      {
        "lat": 37.095997,
        "lng": 128.917175
      }
    ],
    "color": "#9e1a98",
    "start_name": "천제단",
    "length_meter": 98.9,
    "time_minute": 1
  },
  {
    "path_id": 13,
    "path": [
      {
        "lat": 37.095997,
        "lng": 128.917175
      },
      {
        "lat": 37.096233,
        "lng": 128.916565
      }
    ],
    "color": "#d7762b",
    "start_name": "정상경관",
    "length_meter": 60.1,
    "time_minute": 1
  },
  {
    "path_id": 14,
    "path": [
      {
        "lat": 37.096233,
        "lng": 128.916565
      },
      {
        "lat": 37.094872,
        "lng": 128.940201
      }
    ],
    "color": "#73598f",
    "start_name": "태백산",
    "length_meter": 2101.8,
    "time_minute": 35
  },
  {
    "path_id": 15,
    "path": [
      {
        "lat": 37.094872,
        "lng": 128.940201
      },
      {
        "lat": 37.095169,
        "lng": 128.945404
      }
    ],
    "color": "#214728",
    "start_name": "금지안내",
    "length_meter": 462.7,
    "time_minute": 7
  },
  {
    "path_id": 16,
    "path": [
      {
        "lat": 37.095169,
        "lng": 128.945404
      },
      {
        "lat": 37.088573,
        "lng": 128.970291
      }
    ],
    "color": "#e14a96",
    "start_name": "소문수봉정상 / 갈림길",
    "length_meter": 2336.7,
    "time_minute": 38
  },
  {
    "path_id": 17,
    "path": [
      {
        "lat": 37.088573,
        "lng": 128.970291
      },
      {
        "lat": 37.088776,
        "lng": 128.971069
      }
    ],
    "color": "#6704e4",
    "start_name": "무밭",
    "length_meter": 72.6,
    "time_minute": 1
  }
]