[
    {
        "path_id": 1,
        "name": "산정호수화장실",
        "lat": 38.067619,
        "lon": 127.325066
    },
    {
        "path_id": 2,
        "name": "산정호수식당",
        "lat": 38.067612,
        "lon": 127.32505
    },
    {
        "path_id": 4,
        "name": "산정호수매점",
        "lat": 38.067585,
        "lon": 127.32505
    },
    {
        "path_id": 5,
        "name": "안내소",
        "lat": 38.067574,
        "lon": 127.325058
    },
    {
        "path_id": 6,
        "name": "상동주차장",
        "lat": 38.067581,
        "lon": 127.325066
    },
    {
        "path_id": 7,
        "name": "명성산입구",
        "lat": 38.068504,
        "lon": 127.325447
    },
    {
        "path_id": 8,
        "name": "갈림길",
        "lat": 38.067596,
        "lon": 127.328758
    },
    {
        "path_id": 9,
        "name": "등룡폭포",
        "lat": 38.074516,
        "lon": 127.340317
    },
    {
        "path_id": 11,
        "name": "등룡폭포쉼터",
        "lat": 38.074474,
        "lon": 127.340317
    },
    {
        "path_id": 13,
        "name": "갈림길",
        "lat": 38.080406,
        "lon": 127.341095
    },
    {
        "path_id": 14,
        "name": "억새바람길",
        "lat": 38.080399,
        "lon": 127.341049
    },
    {
        "path_id": 15,
        "name": "억새길포토존",
        "lat": 38.080036,
        "lon": 127.340523
    },
    {
        "path_id": 16,
        "name": "명성산억새길경관",
        "lat": 38.080032,
        "lon": 127.340508
    },
    {
        "path_id": 17,
        "name": "갈림길",
        "lat": 38.07991,
        "lon": 127.339485
    },
    {
        "path_id": 20,
        "name": "팔각정",
        "lat": 38.081181,
        "lon": 127.336884
    },
    {
        "path_id": 21,
        "name": "명성산",
        "lat": 38.081516,
        "lon": 127.336212
    },
    {
        "path_id": 22,
        "name": "우체통",
        "lat": 38.081509,
        "lon": 127.336212
    },
    {
        "path_id": 23,
        "name": "삼각봉",
        "lat": 38.09166,
        "lon": 127.338776
    },
    {
        "path_id": 24,
        "name": "쉬는곳",
        "lat": 38.080379,
        "lon": 127.33577
    },
    {
        "path_id": 25,
        "name": "갈림길",
        "lat": 38.078056,
        "lon": 127.333939
    },
    {
        "path_id": 28,
        "name": "비선폭포",
        "lat": 38.073051,
        "lon": 127.333488
    }
]