[
    {
        "name": "운악산휴게소정류장",
        "lat": 37.88308,
        "lon": 127.302254
    },
    {
        "name": "운악산캠핑장",
        "lat": 37.882729,
        "lon": 127.302338
    },
    {
        "name": "운악산주차장",
        "lat": 37.883331,
        "lon": 127.302582
    },
    {
        "name": "운악산휴게소",
        "lat": 37.883743,
        "lon": 127.302765
    },
    {
        "name": "등산안내도",
        "lat": 37.883991,
        "lon": 127.302612
    },
    {
        "name": "모범화장실",
        "lat": 37.884193,
        "lon": 127.302635
    },
    {
        "name": "등산로입구",
        "lat": 37.884491,
        "lon": 127.302742
    },
    {
        "name": "커피및 식당",
        "lat": 37.884464,
        "lon": 127.304626
    },
    {
        "name": "갈림길",
        "lat": 37.884476,
        "lon": 127.304619
    },
    {
        "name": "운악산휴양림",
        "lat": 37.883663,
        "lon": 127.30574
    },
    {
        "name": "커피숍.",
        "lat": 37.883419,
        "lon": 127.306213
    },
    {
        "name": "국가지점번호",
        "lat": 37.882267,
        "lon": 127.313156
    },
    {
        "name": "해우소",
        "lat": 37.882153,
        "lon": 127.313255
    },
    {
        "name": "운악사",
        "lat": 37.881958,
        "lon": 127.313385
    },
    {
        "name": "갈림길",
        "lat": 37.881912,
        "lon": 127.313339
    },
    {
        "name": "암릉구간",
        "lat": 37.880634,
        "lon": 127.313873
    },
    {
        "name": "국가지정번호",
        "lat": 37.880634,
        "lon": 127.313927
    },
    {
        "name": "암벽",
        "lat": 37.879646,
        "lon": 127.314819
    },
    {
        "name": "능선조망",
        "lat": 37.879475,
        "lon": 127.315369
    },
    {
        "name": "안부쉼터",
        "lat": 37.879444,
        "lon": 127.315521
    },
    {
        "name": "궁예성터",
        "lat": 37.879372,
        "lon": 127.315544
    },
    {
        "name": "국가지점번호",
        "lat": 37.878929,
        "lon": 127.316154
    },
    {
        "name": "암릉",
        "lat": 37.878609,
        "lon": 127.316505
    },
    {
        "name": "갈림길",
        "lat": 37.878315,
        "lon": 127.317223
    },
    {
        "name": "바위와 소나무",
        "lat": 37.878181,
        "lon": 127.317108
    },
    {
        "name": "애기봉",
        "lat": 37.87822,
        "lon": 127.317039
    },
    {
        "name": "철사다리",
        "lat": 37.878368,
        "lon": 127.317596
    },
    {
        "name": "자연은 위대",
        "lat": 37.878357,
        "lon": 127.317818
    },
    {
        "name": "멋진풍광",
        "lat": 37.878361,
        "lon": 127.317818
    },
    {
        "name": "웨이포인트 30",
        "lat": 37.878109,
        "lon": 127.318686
    },
    {
        "name": "웨이포인트 31",
        "lat": 37.878109,
        "lon": 127.318686
    },
    {
        "name": "자연풍경",
        "lat": 37.878109,
        "lon": 127.31868
    },
    {
        "name": "국가지정번호",
        "lat": 37.878078,
        "lon": 127.31881
    },
    {
        "name": "웨이포인트 34",
        "lat": 37.878353,
        "lon": 127.319584
    },
    {
        "name": "웨이포인트 35",
        "lat": 37.878401,
        "lon": 127.319885
    },
    {
        "name": "암릉",
        "lat": 37.87841,
        "lon": 127.319946
    },
    {
        "name": "자연쉼터",
        "lat": 37.878418,
        "lon": 127.320175
    },
    {
        "name": "갈림길",
        "lat": 37.878628,
        "lon": 127.321846
    },
    {
        "name": "철계단",
        "lat": 37.878628,
        "lon": 127.321877
    },
    {
        "name": "국가지점번호",
        "lat": 37.878494,
        "lon": 127.32206
    },
    {
        "name": "쉼터",
        "lat": 37.878502,
        "lon": 127.322357
    },
    {
        "name": "119 구급표지",
        "lat": 37.878654,
        "lon": 127.322609
    },
    {
        "name": "쉼터",
        "lat": 37.878719,
        "lon": 127.322754
    },
    {
        "name": "서봉",
        "lat": 37.878674,
        "lon": 127.32299
    },
    {
        "name": "한북정맥 안내도",
        "lat": 37.878689,
        "lon": 127.323082
    },
    {
        "name": "쉼터",
        "lat": 37.875996,
        "lon": 127.32399
    },
    {
        "name": "갈림길",
        "lat": 37.875931,
        "lon": 127.323944
    },
    {
        "name": "갈림길",
        "lat": 37.871658,
        "lon": 127.32235
    },
    {
        "name": "바람통로",
        "lat": 37.871677,
        "lon": 127.319901
    },
    {
        "name": "갈림길",
        "lat": 37.868389,
        "lon": 127.31665
    },
    {
        "name": "모시대",
        "lat": 37.87067,
        "lon": 127.313972
    },
    {
        "name": "단풍취",
        "lat": 37.871059,
        "lon": 127.313766
    },
    {
        "name": "대원사계곡",
        "lat": 37.874687,
        "lon": 127.308731
    },
    {
        "name": "쉼터",
        "lat": 37.874851,
        "lon": 127.308205
    },
    {
        "name": "참취",
        "lat": 37.875019,
        "lon": 127.307907
    },
    {
        "name": "국가지점번호",
        "lat": 37.875187,
        "lon": 127.307716
    },
    {
        "name": "산사태취약지구",
        "lat": 37.877239,
        "lon": 127.303848
    },
    {
        "name": "대원사",
        "lat": 37.877522,
        "lon": 127.303604
    },
    {
        "name": "대원사 입구계곡",
        "lat": 37.877819,
        "lon": 127.302719
    },
    {
        "name": "대원사외부 화장실",
        "lat": 37.878017,
        "lon": 127.302643
    }
]