{
  "max_ele": 824.0,
  "track": [
    {
      "path_id": 0,
      "path": [
        {
          "lat": 35.281986,
          "lng": 129.072952
        },
        {
          "lat": 35.282555,
          "lng": 129.07283
        }
      ],
      "color": "#29bf74",
      "start_name": "범어사 주차장",
      "length_meter": 64.2,
      "time_minute": 1
    },
    {
      "path_id": 1,
      "path": [
        {
          "lat": 35.282555,
          "lng": 129.07283
        },
        {
          "lat": 35.281723,
          "lng": 129.073486
        }
      ],
      "color": "#005f17",
      "start_name": "금정산성",
      "length_meter": 110.0,
      "time_minute": 1
    },
    {
      "path_id": 2,
      "path": [
        {
          "lat": 35.281723,
          "lng": 129.073486
        },
        {
          "lat": 35.283894,
          "lng": 129.071762
        }
      ],
      "color": "#ae0100",
      "start_name": "범어사 선문화교육관",
      "length_meter": 287.7,
      "time_minute": 4
    },
    {
      "path_id": 3,
      "path": [
        {
          "lat": 35.283894,
          "lng": 129.071762
        },
        {
          "lat": 35.283684,
          "lng": 129.070572
        }
      ],
      "color": "#3997a9",
      "start_name": "경비실 / 갈림길",
      "length_meter": 112.8,
      "time_minute": 1
    },
    {
      "path_id": 4,
      "path": [
        {
          "lat": 35.283684,
          "lng": 129.070572
        },
        {
          "lat": 35.283859,
          "lng": 129.070328
        }
      ],
      "color": "#34b818",
      "start_name": "당간지주",
      "length_meter": 29.5,
      "time_minute": 0
    },
    {
      "path_id": 5,
      "path": [
        {
          "lat": 35.283859,
          "lng": 129.070328
        },
        {
          "lat": 35.280888,
          "lng": 129.065796
        }
      ],
      "color": "#60be29",
      "start_name": "주차장 2곳 80대수용 / 갈림길",
      "length_meter": 528.2,
      "time_minute": 8
    },
    {
      "path_id": 6,
      "path": [
        {
          "lat": 35.280888,
          "lng": 129.065796
        },
        {
          "lat": 35.27866,
          "lng": 129.063049
        }
      ],
      "color": "#b92e7d",
      "start_name": "단풍나무",
      "length_meter": 351.5,
      "time_minute": 5
    },
    {
      "path_id": 7,
      "path": [
        {
          "lat": 35.27866,
          "lng": 129.063049
        },
        {
          "lat": 35.277515,
          "lng": 129.062683
        }
      ],
      "color": "#ae4638",
      "start_name": "이동통신탑",
      "length_meter": 131.6,
      "time_minute": 2
    },
    {
      "path_id": 8,
      "path": [
        {
          "lat": 35.277515,
          "lng": 129.062683
        },
        {
          "lat": 35.276264,
          "lng": 129.059189
        }
      ],
      "color": "#1f67bf",
      "start_name": "구조목",
      "length_meter": 346.3,
      "time_minute": 5
    },
    {
      "path_id": 9,
      "path": [
        {
          "lat": 35.276264,
          "lng": 129.059189
        },
        {
          "lat": 35.275543,
          "lng": 129.056381
        }
      ],
      "color": "#5b466b",
      "start_name": "이동통신 탑",
      "length_meter": 267.2,
      "time_minute": 4
    },
    {
      "path_id": 10,
      "path": [
        {
          "lat": 35.275543,
          "lng": 129.056381
        },
        {
          "lat": 35.275658,
          "lng": 129.056335
        }
      ],
      "color": "#16405d",
      "start_name": "등산문화탐방지원센터 / 세심정",
      "length_meter": 39.8,
      "time_minute": 0
    },
    {
      "path_id": 11,
      "path": [
        {
          "lat": 35.275658,
          "lng": 129.056335
        },
        {
          "lat": 35.279224,
          "lng": 129.051514
        }
      ],
      "color": "#1c7cc4",
      "start_name": "고당봉 낙뢰표석비 / 갈림길",
      "length_meter": 590.6,
      "time_minute": 9
    },
    {
      "path_id": 12,
      "path": [
        {
          "lat": 35.279224,
          "lng": 129.051514
        },
        {
          "lat": 35.280174,
          "lng": 129.050659
        }
      ],
      "color": "#456374",
      "start_name": "고당샘",
      "length_meter": 131.1,
      "time_minute": 2
    },
    {
      "path_id": 13,
      "path": [
        {
          "lat": 35.280174,
          "lng": 129.050659
        },
        {
          "lat": 35.280411,
          "lng": 129.05101
        }
      ],
      "color": "#4b0441",
      "start_name": "고당봉 / 갈림길",
      "length_meter": 41.4,
      "time_minute": 0
    },
    {
      "path_id": 14,
      "path": [
        {
          "lat": 35.280411,
          "lng": 129.05101
        },
        {
          "lat": 35.2812,
          "lng": 129.051071
        }
      ],
      "color": "#b29178",
      "start_name": "철계단",
      "length_meter": 87.9,
      "time_minute": 1
    },
    {
      "path_id": 15,
      "path": [
        {
          "lat": 35.2812,
          "lng": 129.051071
        },
        {
          "lat": 35.281357,
          "lng": 129.050903
        }
      ],
      "color": "#587265",
      "start_name": "갈림길",
      "length_meter": 23.2,
      "time_minute": 0
    },
    {
      "path_id": 16,
      "path": [
        {
          "lat": 35.281357,
          "lng": 129.050903
        },
        {
          "lat": 35.280174,
          "lng": 129.050659
        }
      ],
      "color": "#308927",
      "start_name": "안내도.이정표 / 갈림길",
      "length_meter": 242.2,
      "time_minute": 4
    },
    {
      "path_id": 17,
      "path": [
        {
          "lat": 35.280174,
          "lng": 129.050659
        },
        {
          "lat": 35.290047,
          "lng": 129.073639
        }
      ],
      "color": "#977427",
      "start_name": "고당봉",
      "length_meter": 2357.1,
      "time_minute": 39
    },
    {
      "path_id": 18,
      "path": [
        {
          "lat": 35.290047,
          "lng": 129.073639
        },
        {
          "lat": 35.288677,
          "lng": 129.07457
        }
      ],
      "color": "#73aa25",
      "start_name": "계명봉",
      "length_meter": 174.2,
      "time_minute": 2
    },
    {
      "path_id": 19,
      "path": [
        {
          "lat": 35.288677,
          "lng": 129.07457
        },
        {
          "lat": 35.282654,
          "lng": 129.08548
        }
      ],
      "color": "#602582",
      "start_name": "계명봉 중봉 / 갈림길",
      "length_meter": 1196.0,
      "time_minute": 19
    },
    {
      "path_id": 20,
      "path": [
        {
          "lat": 35.282654,
          "lng": 129.08548
        },
        {
          "lat": 35.282661,
          "lng": 129.08551
        }
      ],
      "color": "#7289ae",
      "start_name": "표시목",
      "length_meter": 2.8,
      "time_minute": 0
    }
  ]
}