[
  {
    "path_id": 0,
    "path": [
      {
        "lat": 35.332615,
        "lng": 129.039841
      },
      {
        "lat": 35.331146,
        "lng": 129.039932
      }
    ],
    "color": "#365653",
    "start_name": "다방삼거리",
    "length_meter": 163.6,
    "time_minute": 2
  },
  {
    "path_id": 1,
    "path": [
      {
        "lat": 35.331146,
        "lng": 129.039932
      },
      {
        "lat": 35.330173,
        "lng": 129.039246
      }
    ],
    "color": "#65480f",
    "start_name": "다방천 안내도",
    "length_meter": 124.8,
    "time_minute": 2
  },
  {
    "path_id": 2,
    "path": [
      {
        "lat": 35.330173,
        "lng": 129.039246
      },
      {
        "lat": 35.328411,
        "lng": 129.039383
      }
    ],
    "color": "#08f44f",
    "start_name": "계석마을 정류장 / 표지석 계석마을 / 갈림길 5",
    "length_meter": 199.1,
    "time_minute": 3
  },
  {
    "path_id": 3,
    "path": [
      {
        "lat": 35.328411,
        "lng": 129.039383
      },
      {
        "lat": 35.328091,
        "lng": 129.038849
      }
    ],
    "color": "#79329d",
    "start_name": "극동반점 / 갈림길 7",
    "length_meter": 61.3,
    "time_minute": 1
  },
  {
    "path_id": 4,
    "path": [
      {
        "lat": 35.328091,
        "lng": 129.038849
      },
      {
        "lat": 35.327286,
        "lng": 129.038528
      }
    ],
    "color": "#f5370b",
    "start_name": "대정아파트 우측길",
    "length_meter": 94.1,
    "time_minute": 1
  },
  {
    "path_id": 5,
    "path": [
      {
        "lat": 35.327286,
        "lng": 129.038528
      },
      {
        "lat": 35.326466,
        "lng": 129.038696
      }
    ],
    "color": "#4090c4",
    "start_name": "갈림길 9 / 이정표 / 철탑",
    "length_meter": 92.9,
    "time_minute": 1
  },
  {
    "path_id": 6,
    "path": [
      {
        "lat": 35.326466,
        "lng": 129.038696
      },
      {
        "lat": 35.323055,
        "lng": 129.04007
      }
    ],
    "color": "#6c4d3d",
    "start_name": "평상 / 갈림길 13",
    "length_meter": 399.2,
    "time_minute": 6
  },
  {
    "path_id": 7,
    "path": [
      {
        "lat": 35.323055,
        "lng": 129.04007
      },
      {
        "lat": 35.32164,
        "lng": 129.041351
      }
    ],
    "color": "#3af73e",
    "start_name": "묏돼지 / 산불지역",
    "length_meter": 210.2,
    "time_minute": 3
  },
  {
    "path_id": 8,
    "path": [
      {
        "lat": 35.32164,
        "lng": 129.041351
      },
      {
        "lat": 35.320843,
        "lng": 129.042694
      }
    ],
    "color": "#39096a",
    "start_name": "갈림길 16",
    "length_meter": 150.7,
    "time_minute": 2
  },
  {
    "path_id": 9,
    "path": [
      {
        "lat": 35.320843,
        "lng": 129.042694
      },
      {
        "lat": 35.317791,
        "lng": 129.045135
      }
    ],
    "color": "#ad20cf",
    "start_name": "묏돼지",
    "length_meter": 405.2,
    "time_minute": 6
  },
  {
    "path_id": 10,
    "path": [
      {
        "lat": 35.317791,
        "lng": 129.045135
      },
      {
        "lat": 35.316837,
        "lng": 129.046097
      }
    ],
    "color": "#bf182f",
    "start_name": "벤치 / 조난신고 표시목",
    "length_meter": 137.4,
    "time_minute": 2
  },
  {
    "path_id": 11,
    "path": [
      {
        "lat": 35.316837,
        "lng": 129.046097
      },
      {
        "lat": 35.315739,
        "lng": 129.04689
      }
    ],
    "color": "#753b84",
    "start_name": "평상.벤치",
    "length_meter": 141.7,
    "time_minute": 2
  },
  {
    "path_id": 12,
    "path": [
      {
        "lat": 35.315739,
        "lng": 129.04689
      },
      {
        "lat": 35.31514,
        "lng": 129.047424
      }
    ],
    "color": "#0996bc",
    "start_name": "구조목 / 벤치",
    "length_meter": 85.6,
    "time_minute": 1
  },
  {
    "path_id": 13,
    "path": [
      {
        "lat": 35.31514,
        "lng": 129.047424
      },
      {
        "lat": 35.314342,
        "lng": 129.048111
      }
    ],
    "color": "#030b6e",
    "start_name": "구조목 / 조망데크",
    "length_meter": 118.4,
    "time_minute": 1
  },
  {
    "path_id": 14,
    "path": [
      {
        "lat": 35.314342,
        "lng": 129.048111
      },
      {
        "lat": 35.313442,
        "lng": 129.048355
      }
    ],
    "color": "#9d3eb4",
    "start_name": "구조목 / 로프없음",
    "length_meter": 204.7,
    "time_minute": 3
  },
  {
    "path_id": 15,
    "path": [
      {
        "lat": 35.313442,
        "lng": 129.048355
      },
      {
        "lat": 35.312897,
        "lng": 129.048431
      }
    ],
    "color": "#cbe33c",
    "start_name": "다방봉",
    "length_meter": 61.0,
    "time_minute": 1
  },
  {
    "path_id": 16,
    "path": [
      {
        "lat": 35.312897,
        "lng": 129.048431
      },
      {
        "lat": 35.312202,
        "lng": 129.048401
      }
    ],
    "color": "#d8cfc9",
    "start_name": "구조목",
    "length_meter": 77.3,
    "time_minute": 1
  },
  {
    "path_id": 17,
    "path": [
      {
        "lat": 35.312202,
        "lng": 129.048401
      },
      {
        "lat": 35.310047,
        "lng": 129.049789
      }
    ],
    "color": "#9a9988",
    "start_name": "갈림길 36 / 구조목",
    "length_meter": 276.4,
    "time_minute": 4
  },
  {
    "path_id": 18,
    "path": [
      {
        "lat": 35.310047,
        "lng": 129.049789
      },
      {
        "lat": 35.309155,
        "lng": 129.050171
      }
    ],
    "color": "#d2b290",
    "start_name": "구조목",
    "length_meter": 105.1,
    "time_minute": 1
  },
  {
    "path_id": 19,
    "path": [
      {
        "lat": 35.309155,
        "lng": 129.050171
      },
      {
        "lat": 35.308281,
        "lng": 129.051224
      }
    ],
    "color": "#8b5554",
    "start_name": "구조목",
    "length_meter": 136.3,
    "time_minute": 2
  },
  {
    "path_id": 20,
    "path": [
      {
        "lat": 35.308281,
        "lng": 129.051224
      },
      {
        "lat": 35.307442,
        "lng": 129.05217
      }
    ],
    "color": "#14c5a1",
    "start_name": "구조목",
    "length_meter": 126.8,
    "time_minute": 2
  },
  {
    "path_id": 21,
    "path": [
      {
        "lat": 35.307442,
        "lng": 129.05217
      },
      {
        "lat": 35.306107,
        "lng": 129.052536
      }
    ],
    "color": "#0a7f99",
    "start_name": "구조목",
    "length_meter": 152.1,
    "time_minute": 2
  },
  {
    "path_id": 22,
    "path": [
      {
        "lat": 35.306107,
        "lng": 129.052536
      },
      {
        "lat": 35.305321,
        "lng": 129.05307
      }
    ],
    "color": "#f78209",
    "start_name": "구조목",
    "length_meter": 99.9,
    "time_minute": 1
  },
  {
    "path_id": 23,
    "path": [
      {
        "lat": 35.305321,
        "lng": 129.05307
      },
      {
        "lat": 35.304169,
        "lng": 129.053131
      }
    ],
    "color": "#418281",
    "start_name": "갈림길 43",
    "length_meter": 128.2,
    "time_minute": 2
  },
  {
    "path_id": 24,
    "path": [
      {
        "lat": 35.304169,
        "lng": 129.053131
      },
      {
        "lat": 35.303165,
        "lng": 129.053482
      }
    ],
    "color": "#369d5a",
    "start_name": "구조목",
    "length_meter": 116.1,
    "time_minute": 1
  },
  {
    "path_id": 25,
    "path": [
      {
        "lat": 35.303165,
        "lng": 129.053482
      },
      {
        "lat": 35.301914,
        "lng": 129.053635
      }
    ],
    "color": "#2b98d7",
    "start_name": "구조목 금정산 4-28",
    "length_meter": 139.8,
    "time_minute": 2
  },
  {
    "path_id": 26,
    "path": [
      {
        "lat": 35.301914,
        "lng": 129.053635
      },
      {
        "lat": 35.300716,
        "lng": 129.054398
      }
    ],
    "color": "#78c6ba",
    "start_name": "구조목 / 갈림길 47 / 철계다봉",
    "length_meter": 150.1,
    "time_minute": 2
  },
  {
    "path_id": 27,
    "path": [
      {
        "lat": 35.300716,
        "lng": 129.054398
      },
      {
        "lat": 35.300125,
        "lng": 129.055313
      }
    ],
    "color": "#d80109",
    "start_name": "구조목",
    "length_meter": 105.9,
    "time_minute": 1
  },
  {
    "path_id": 28,
    "path": [
      {
        "lat": 35.300125,
        "lng": 129.055313
      },
      {
        "lat": 35.297256,
        "lng": 129.057709
      }
    ],
    "color": "#9b9977",
    "start_name": "구조목",
    "length_meter": 386.1,
    "time_minute": 6
  },
  {
    "path_id": 29,
    "path": [
      {
        "lat": 35.297256,
        "lng": 129.057709
      },
      {
        "lat": 35.297039,
        "lng": 129.058456
      }
    ],
    "color": "#d5dc29",
    "start_name": "갈림길 52",
    "length_meter": 72.0,
    "time_minute": 1
  },
  {
    "path_id": 30,
    "path": [
      {
        "lat": 35.297039,
        "lng": 129.058456
      },
      {
        "lat": 35.29171,
        "lng": 129.064102
      }
    ],
    "color": "#832d4d",
    "start_name": "갈림길 53 / 구조목",
    "length_meter": 783.9,
    "time_minute": 13
  },
  {
    "path_id": 31,
    "path": [
      {
        "lat": 35.29171,
        "lng": 129.064102
      },
      {
        "lat": 35.291431,
        "lng": 129.069351
      }
    ],
    "color": "#7d86ad",
    "start_name": "구조목",
    "length_meter": 477.4,
    "time_minute": 7
  },
  {
    "path_id": 32,
    "path": [
      {
        "lat": 35.291431,
        "lng": 129.069351
      },
      {
        "lat": 35.294205,
        "lng": 129.070496
      }
    ],
    "color": "#791fe6",
    "start_name": "거북약수터",
    "length_meter": 325.5,
    "time_minute": 5
  },
  {
    "path_id": 33,
    "path": [
      {
        "lat": 35.294205,
        "lng": 129.070496
      },
      {
        "lat": 35.295139,
        "lng": 129.070831
      }
    ],
    "color": "#45fc35",
    "start_name": "이정표",
    "length_meter": 108.2,
    "time_minute": 1
  },
  {
    "path_id": 34,
    "path": [
      {
        "lat": 35.295139,
        "lng": 129.070831
      },
      {
        "lat": 35.295826,
        "lng": 129.074463
      }
    ],
    "color": "#659488",
    "start_name": "이정표",
    "length_meter": 338.4,
    "time_minute": 5
  },
  {
    "path_id": 35,
    "path": [
      {
        "lat": 35.295826,
        "lng": 129.074463
      },
      {
        "lat": 35.294308,
        "lng": 129.079041
      }
    ],
    "color": "#042985",
    "start_name": "갈림길 66",
    "length_meter": 448.5,
    "time_minute": 7
  },
  {
    "path_id": 36,
    "path": [
      {
        "lat": 35.294308,
        "lng": 129.079041
      },
      {
        "lat": 35.293179,
        "lng": 129.080719
      }
    ],
    "color": "#55fc41",
    "start_name": "금정산 둘레길",
    "length_meter": 197.4,
    "time_minute": 3
  },
  {
    "path_id": 37,
    "path": [
      {
        "lat": 35.293179,
        "lng": 129.080719
      },
      {
        "lat": 35.290367,
        "lng": 129.083679
      }
    ],
    "color": "#f69579",
    "start_name": "국가지점번호",
    "length_meter": 412.2,
    "time_minute": 6
  },
  {
    "path_id": 38,
    "path": [
      {
        "lat": 35.290367,
        "lng": 129.083679
      },
      {
        "lat": 35.288742,
        "lng": 129.08432
      }
    ],
    "color": "#1e9a72",
    "start_name": "갈림길 71 / 갈림길 72",
    "length_meter": 190.1,
    "time_minute": 3
  },
  {
    "path_id": 39,
    "path": [
      {
        "lat": 35.288742,
        "lng": 129.08432
      },
      {
        "lat": 35.286308,
        "lng": 129.085007
      }
    ],
    "color": "#2704a9",
    "start_name": "돌탑",
    "length_meter": 277.7,
    "time_minute": 4
  },
  {
    "path_id": 40,
    "path": [
      {
        "lat": 35.286308,
        "lng": 129.085007
      },
      {
        "lat": 35.283112,
        "lng": 129.08609
      }
    ],
    "color": "#b0baea",
    "start_name": "국가지점번호",
    "length_meter": 368.7,
    "time_minute": 6
  },
  {
    "path_id": 41,
    "path": [
      {
        "lat": 35.283112,
        "lng": 129.08609
      },
      {
        "lat": 35.282372,
        "lng": 129.086105
      }
    ],
    "color": "#b2a32c",
    "start_name": "갈림길 76",
    "length_meter": 82.3,
    "time_minute": 1
  },
  {
    "path_id": 42,
    "path": [
      {
        "lat": 35.282372,
        "lng": 129.086105
      },
      {
        "lat": 35.281441,
        "lng": 129.086441
      }
    ],
    "color": "#1820f3",
    "start_name": "갈림길 77 / 갈림길 78",
    "length_meter": 109.0,
    "time_minute": 1
  },
  {
    "path_id": 43,
    "path": [
      {
        "lat": 35.281441,
        "lng": 129.086441
      },
      {
        "lat": 35.273891,
        "lng": 129.092438
      }
    ],
    "color": "#50099d",
    "start_name": "정자 / 이정표 / 경동아파트버스정류장",
    "length_meter": 1009.0,
    "time_minute": 16
  },
  {
    "path_id": 44,
    "path": [
      {
        "lat": 35.273891,
        "lng": 129.092438
      },
      {
        "lat": 35.301567,
        "lng": 129.053848
      }
    ],
    "color": "#7b3ca0",
    "start_name": "지하철 범어사역",
    "length_meter": 4662.5,
    "time_minute": 77
  },
  {
    "path_id": 45,
    "path": [
      {
        "lat": 35.301567,
        "lng": 129.053848
      },
      {
        "lat": 35.317707,
        "lng": 129.045212
      }
    ],
    "color": "#71f4a9",
    "start_name": "철계단봉",
    "length_meter": 1958.3,
    "time_minute": 32
  }
]