{
  "max_ele": 824.0,
  "total_length_km": "7.1km",
  "total_time": "1시간 28분",
  "start_name": "범어사 주차장",
  "end_name": "갈림길",
  "track": [
    {
      "path_id": 0,
      "path": [
        {
          "lat": 35.281986,
          "lng": 129.072952
        },
        {
          "lat": 35.281723,
          "lng": 129.073486
        }
      ],
      "color": "#0a4d83",
      "start_name": "범어사 주차장 / 금정산성",
      "length_meter": 174.3,
      "time_minute": 2
    },
    {
      "path_id": 1,
      "path": [
        {
          "lat": 35.281723,
          "lng": 129.073486
        },
        {
          "lat": 35.283894,
          "lng": 129.071762
        }
      ],
      "color": "#032339",
      "start_name": "범어사 선문화교육관",
      "length_meter": 287.7,
      "time_minute": 3
    },
    {
      "path_id": 2,
      "path": [
        {
          "lat": 35.283894,
          "lng": 129.071762
        },
        {
          "lat": 35.283684,
          "lng": 129.070572
        }
      ],
      "color": "#745124",
      "start_name": "경비실 / 갈림길",
      "length_meter": 112.8,
      "time_minute": 1
    },
    {
      "path_id": 3,
      "path": [
        {
          "lat": 35.283684,
          "lng": 129.070572
        },
        {
          "lat": 35.283859,
          "lng": 129.070328
        }
      ],
      "color": "#531abb",
      "start_name": "당간지주",
      "length_meter": 29.5,
      "time_minute": 0
    },
    {
      "path_id": 4,
      "path": [
        {
          "lat": 35.283859,
          "lng": 129.070328
        },
        {
          "lat": 35.280888,
          "lng": 129.065796
        }
      ],
      "color": "#105509",
      "start_name": "주차장 2곳 80대수용 / 갈림길",
      "length_meter": 528.2,
      "time_minute": 8
    },
    {
      "path_id": 5,
      "path": [
        {
          "lat": 35.280888,
          "lng": 129.065796
        },
        {
          "lat": 35.27866,
          "lng": 129.063049
        }
      ],
      "color": "#b8758d",
      "start_name": "단풍나무",
      "length_meter": 351.5,
      "time_minute": 4
    },
    {
      "path_id": 6,
      "path": [
        {
          "lat": 35.27866,
          "lng": 129.063049
        },
        {
          "lat": 35.277515,
          "lng": 129.062683
        }
      ],
      "color": "#bc9c34",
      "start_name": "이동통신탑",
      "length_meter": 131.6,
      "time_minute": 1
    },
    {
      "path_id": 7,
      "path": [
        {
          "lat": 35.277515,
          "lng": 129.062683
        },
        {
          "lat": 35.276264,
          "lng": 129.059189
        }
      ],
      "color": "#132ec7",
      "start_name": "구조목",
      "length_meter": 346.3,
      "time_minute": 4
    },
    {
      "path_id": 8,
      "path": [
        {
          "lat": 35.276264,
          "lng": 129.059189
        },
        {
          "lat": 35.275543,
          "lng": 129.056381
        }
      ],
      "color": "#651c02",
      "start_name": "이동통신 탑",
      "length_meter": 267.2,
      "time_minute": 3
    },
    {
      "path_id": 9,
      "path": [
        {
          "lat": 35.275543,
          "lng": 129.056381
        },
        {
          "lat": 35.275658,
          "lng": 129.056335
        }
      ],
      "color": "#836901",
      "start_name": "등산문화탐방지원센터 / 세심정",
      "length_meter": 39.8,
      "time_minute": 0
    },
    {
      "path_id": 10,
      "path": [
        {
          "lat": 35.275658,
          "lng": 129.056335
        },
        {
          "lat": 35.279224,
          "lng": 129.051514
        }
      ],
      "color": "#600da9",
      "start_name": "고당봉 낙뢰표석비 / 갈림길",
      "length_meter": 590.6,
      "time_minute": 9
    },
    {
      "path_id": 11,
      "path": [
        {
          "lat": 35.279224,
          "lng": 129.051514
        },
        {
          "lat": 35.280174,
          "lng": 129.050659
        }
      ],
      "color": "#296438",
      "start_name": "고당샘",
      "length_meter": 131.1,
      "time_minute": 1
    },
    {
      "path_id": 12,
      "path": [
        {
          "lat": 35.280174,
          "lng": 129.050659
        },
        {
          "lat": 35.280411,
          "lng": 129.05101
        }
      ],
      "color": "#b77ac4",
      "start_name": "고당봉 / 갈림길",
      "length_meter": 41.4,
      "time_minute": 0
    },
    {
      "path_id": 13,
      "path": [
        {
          "lat": 35.280411,
          "lng": 129.05101
        },
        {
          "lat": 35.2812,
          "lng": 129.051071
        }
      ],
      "color": "#a6ae07",
      "start_name": "철계단",
      "length_meter": 87.9,
      "time_minute": 1
    },
    {
      "path_id": 14,
      "path": [
        {
          "lat": 35.2812,
          "lng": 129.051071
        },
        {
          "lat": 35.281357,
          "lng": 129.050903
        }
      ],
      "color": "#af7814",
      "start_name": "갈림길",
      "length_meter": 23.2,
      "time_minute": 0
    },
    {
      "path_id": 15,
      "path": [
        {
          "lat": 35.281357,
          "lng": 129.050903
        },
        {
          "lat": 35.280174,
          "lng": 129.050659
        }
      ],
      "color": "#423962",
      "start_name": "안내도.이정표 / 갈림길",
      "length_meter": 242.2,
      "time_minute": 3
    },
    {
      "path_id": 16,
      "path": [
        {
          "lat": 35.280174,
          "lng": 129.050659
        },
        {
          "lat": 35.290047,
          "lng": 129.073639
        }
      ],
      "color": "#8e1ea2",
      "start_name": "고당봉",
      "length_meter": 2357.1,
      "time_minute": 29
    },
    {
      "path_id": 17,
      "path": [
        {
          "lat": 35.290047,
          "lng": 129.073639
        },
        {
          "lat": 35.288677,
          "lng": 129.07457
        }
      ],
      "color": "#2097a7",
      "start_name": "계명봉",
      "length_meter": 174.2,
      "time_minute": 2
    },
    {
      "path_id": 18,
      "path": [
        {
          "lat": 35.288677,
          "lng": 129.07457
        },
        {
          "lat": 35.282654,
          "lng": 129.08548
        }
      ],
      "color": "#733aad",
      "start_name": "계명봉 중봉 / 갈림길",
      "length_meter": 1196.0,
      "time_minute": 19
    },
    {
      "path_id": 19,
      "path": [
        {
          "lat": 35.282654,
          "lng": 129.08548
        },
        {
          "lat": 35.282661,
          "lng": 129.08551
        }
      ],
      "color": "#47a335",
      "start_name": "표시목",
      "length_meter": 2.8,
      "time_minute": 0
    }
  ]
}