[
    {
        "path_id": 1,
        "name": "갈림길",
        "lat": 37.655445,
        "lon": 127.26532
    },
    {
        "path_id": 2,
        "name": "삼각점",
        "lat": 37.659657,
        "lon": 127.265083
    },
    {
        "path_id": 3,
        "name": "자연쉼터",
        "lat": 37.660835,
        "lon": 127.263344
    },
    {
        "path_id": 4,
        "name": "스카장 상단부",
        "lat": 37.661232,
        "lon": 127.263046
    },
    {
        "path_id": 5,
        "name": "스키장 상단조망3",
        "lat": 37.661388,
        "lon": 127.262779
    },
    {
        "path_id": 6,
        "name": "스키장 상단 쉼터",
        "lat": 37.661369,
        "lon": 127.262611
    },
    {
        "path_id": 7,
        "name": "능선위 조망터",
        "lat": 37.661789,
        "lon": 127.261536
    },
    {
        "path_id": 8,
        "name": "능선위 쉼터",
        "lat": 37.661789,
        "lon": 127.261467
    },
    {
        "path_id": 9,
        "name": "갈림길",
        "lat": 37.669182,
        "lon": 127.26329
    },
    {
        "path_id": 10,
        "name": "안부 쉼터",
        "lat": 37.669273,
        "lon": 127.263336
    },
    {
        "path_id": 11,
        "name": "웨이포인트 17",
        "lat": 37.67081,
        "lon": 127.263398
    },
    {
        "path_id": 12,
        "name": "위치안내판",
        "lat": 37.671066,
        "lon": 127.263878
    },
    {
        "path_id": 13,
        "name": "암릉",
        "lat": 37.67313,
        "lon": 127.264709
    },
    {
        "path_id": 14,
        "name": "정상 오름길 전 쉼터",
        "lat": 37.674007,
        "lon": 127.264824
    },
    {
        "path_id": 15,
        "name": "위치번호",
        "lat": 37.674751,
        "lon": 127.265533
    },
    {
        "path_id": 17,
        "name": "정상 급경사",
        "lat": 37.677353,
        "lon": 127.267776
    },
    {
        "path_id": 18,
        "name": "위치번호",
        "lat": 37.677631,
        "lon": 127.268059
    },
    {
        "path_id": 19,
        "name": "정상전 암릉",
        "lat": 37.677711,
        "lon": 127.268127
    },
    {
        "path_id": 20,
        "name": "암릉위 조망",
        "lat": 37.6777,
        "lon": 127.26825
    },
    {
        "path_id": 21,
        "name": "노송",
        "lat": 37.677414,
        "lon": 127.268173
    },
    {
        "path_id": 22,
        "name": "위치번호",
        "lat": 37.678478,
        "lon": 127.271065
    },
    {
        "path_id": 24,
        "name": "정상직전 암릉",
        "lat": 37.678947,
        "lon": 127.271873
    },
    {
        "path_id": 25,
        "name": "갈림길",
        "lat": 37.679035,
        "lon": 127.271965
    },
    {
        "path_id": 26,
        "name": "중간 쉼터",
        "lat": 37.681595,
        "lon": 127.271576
    },
    {
        "path_id": 27,
        "name": "옹달샘 쉼터",
        "lat": 37.682487,
        "lon": 127.2705
    },
    {
        "path_id": 28,
        "name": "청정계곡",
        "lat": 37.683598,
        "lon": 127.256538
    },
    {
        "path_id": 29,
        "name": "무명소",
        "lat": 37.685719,
        "lon": 127.250107
    },
    {
        "path_id": 30,
        "name": "오남호수공원 체육시설및 쉼터",
        "lat": 37.693348,
        "lon": 127.230415
    },
    {
        "path_id": 31,
        "name": "오남호수공원",
        "lat": 37.695778,
        "lon": 127.225098
    },
    {
        "path_id": 32,
        "name": "오남호수공원 쉼터",
        "lat": 37.69688,
        "lon": 127.223549
    },
    {
        "path_id": 33,
        "name": "오남호수공원 화장실",
        "lat": 37.696918,
        "lon": 127.223564
    },
    {
        "path_id": 34,
        "name": "다송 한식 카페 브레드포레",
        "lat": 37.697109,
        "lon": 127.222649
    },
    {
        "path_id": 35,
        "name": "시골청국장",
        "lat": 37.697613,
        "lon": 127.221275
    },
    {
        "path_id": 36,
        "name": "오남호수공원",
        "lat": 37.697456,
        "lon": 127.221306
    },
    {
        "path_id": 37,
        "name": "공원 중간 쉼터",
        "lat": 37.697445,
        "lon": 127.221054
    },
    {
        "path_id": 38,
        "name": "오남호수공원",
        "lat": 37.696495,
        "lon": 127.218575
    },
    {
        "path_id": 39,
        "name": "오남호수공원 화장실",
        "lat": 37.696228,
        "lon": 127.217865
    },
    {
        "path_id": 40,
        "name": "오남호수공원 공연장",
        "lat": 37.695892,
        "lon": 127.217468
    },
    {
        "path_id": 41,
        "name": "오남호수공원 과 천마산",
        "lat": 37.69566,
        "lon": 127.217178
    }
]