[
    {
        "path_id": 1,
        "name": "북한산국립공원송추계곡",
        "lat": 37.718884,
        "lon": 126.975357
    },
    {
        "path_id": 2,
        "name": "부일부대찌개",
        "lat": 37.71904,
        "lon": 126.975601
    },
    {
        "path_id": 3,
        "name": "커피 차",
        "lat": 37.717312,
        "lon": 126.97686
    },
    {
        "path_id": 4,
        "name": "매점",
        "lat": 37.715012,
        "lon": 126.980515
    },
    {
        "path_id": 5,
        "name": "편의점",
        "lat": 37.714336,
        "lon": 126.98156
    },
    {
        "path_id": 6,
        "name": "매점",
        "lat": 37.71418,
        "lon": 126.98201
    },
    {
        "path_id": 7,
        "name": "차량통제소",
        "lat": 37.71339,
        "lon": 126.983238
    },
    {
        "path_id": 9,
        "name": "북한산 국립공원 도봉사무소 송추분소",
        "lat": 37.713326,
        "lon": 126.982445
    },
    {
        "path_id": 10,
        "name": "들머리",
        "lat": 37.712509,
        "lon": 126.982033
    },
    {
        "path_id": 11,
        "name": "갈림길",
        "lat": 37.712372,
        "lon": 126.982048
    },
    {
        "path_id": 13,
        "name": "갈림길",
        "lat": 37.710777,
        "lon": 126.982285
    },
    {
        "path_id": 15,
        "name": "조망터",
        "lat": 37.705811,
        "lon": 126.988503
    },
    {
        "path_id": 16,
        "name": "조망터",
        "lat": 37.705135,
        "lon": 126.990158
    },
    {
        "path_id": 17,
        "name": "산불진화장비 보관함",
        "lat": 37.705219,
        "lon": 126.990456
    },
    {
        "path_id": 18,
        "name": "조망터",
        "lat": 37.704132,
        "lon": 126.992126
    },
    {
        "path_id": 19,
        "name": "추락 위험",
        "lat": 37.703423,
        "lon": 126.992569
    },
    {
        "path_id": 20,
        "name": "여성봉 위",
        "lat": 37.702259,
        "lon": 126.992752
    },
    {
        "path_id": 21,
        "name": "여성봉 정상",
        "lat": 37.702217,
        "lon": 126.993019
    },
    {
        "path_id": 22,
        "name": "추락 위험",
        "lat": 37.70219,
        "lon": 126.993149
    },
    {
        "path_id": 23,
        "name": "119 구급함",
        "lat": 37.702206,
        "lon": 126.993195
    },
    {
        "path_id": 24,
        "name": "갈림길",
        "lat": 37.702206,
        "lon": 126.99321
    },
    {
        "path_id": 26,
        "name": "조망터",
        "lat": 37.698639,
        "lon": 127.000755
    },
    {
        "path_id": 27,
        "name": "전망대",
        "lat": 37.698135,
        "lon": 127.001167
    },
    {
        "path_id": 28,
        "name": "추락 위험",
        "lat": 37.698135,
        "lon": 127.001175
    },
    {
        "path_id": 29,
        "name": "국립공원 안전구급함",
        "lat": 37.697067,
        "lon": 127.001465
    },
    {
        "path_id": 30,
        "name": "오봉초소",
        "lat": 37.696999,
        "lon": 127.00148
    },
    {
        "path_id": 31,
        "name": "낙뢰위험지역",
        "lat": 37.697071,
        "lon": 127.001472
    },
    {
        "path_id": 32,
        "name": "갈림길",
        "lat": 37.697067,
        "lon": 127.001488
    },
    {
        "path_id": 33,
        "name": "오봉정상",
        "lat": 37.696796,
        "lon": 127.001282
    },
    {
        "path_id": 34,
        "name": "오봉",
        "lat": 37.696777,
        "lon": 127.001274
    },
    {
        "path_id": 35,
        "name": "갈림길",
        "lat": 37.696815,
        "lon": 127.001793
    },
    {
        "path_id": 36,
        "name": "멋진 바위",
        "lat": 37.696102,
        "lon": 127.001984
    },
    {
        "path_id": 37,
        "name": "조망터",
        "lat": 37.695923,
        "lon": 127.001938
    },
    {
        "path_id": 38,
        "name": "오봉샘터",
        "lat": 37.694839,
        "lon": 127.003464
    },
    {
        "path_id": 40,
        "name": "국립공원 안전구급함",
        "lat": 37.688168,
        "lon": 127.008759
    }
]