[
    {
        "path_id": 1,
        "name": "괘방령표지석",
        "lat": 36.151463,
        "lon": 127.99115
    },
    {
        "path_id": 2,
        "name": "괘방령백두대간보호지역안내판",
        "lat": 36.151432,
        "lon": 127.991127
    },
    {
        "path_id": 4,
        "name": "가성산조망점",
        "lat": 36.148445,
        "lon": 127.988579
    },
    {
        "path_id": 5,
        "name": "이정표",
        "lat": 36.145912,
        "lon": 127.987785
    },
    {
        "path_id": 6,
        "name": "수원함양보안림",
        "lat": 36.145367,
        "lon": 127.987892
    },
    {
        "path_id": 7,
        "name": "백두대간보호지역",
        "lat": 36.14497,
        "lon": 127.988213
    },
    {
        "path_id": 8,
        "name": "백두대간보호지역판",
        "lat": 36.143978,
        "lon": 127.989067
    },
    {
        "path_id": 9,
        "name": "여시골산정상쉼터",
        "lat": 36.140919,
        "lon": 127.98735
    },
    {
        "path_id": 10,
        "name": "이정표",
        "lat": 36.140915,
        "lon": 127.987373
    },
    {
        "path_id": 11,
        "name": "여시골산",
        "lat": 36.140915,
        "lon": 127.987373
    },
    {
        "path_id": 12,
        "name": "여시굴",
        "lat": 36.135429,
        "lon": 127.987984
    },
    {
        "path_id": 14,
        "name": "능선쉼터",
        "lat": 36.134201,
        "lon": 127.988304
    },
    {
        "path_id": 16,
        "name": "태봉산갈림길쉼터",
        "lat": 36.123955,
        "lon": 127.998276
    },
    {
        "path_id": 17,
        "name": "갈림길",
        "lat": 36.123955,
        "lon": 127.998322
    },
    {
        "path_id": 18,
        "name": "웨이포인트 33",
        "lat": 36.118721,
        "lon": 128.003418
    },
    {
        "path_id": 19,
        "name": "웨이포인트 34",
        "lat": 36.118675,
        "lon": 128.003448
    },
    {
        "path_id": 20,
        "name": "태봉산쉼터",
        "lat": 36.118622,
        "lon": 128.004196
    },
    {
        "path_id": 21,
        "name": "태봉산",
        "lat": 36.118549,
        "lon": 128.004379
    },
    {
        "path_id": 23,
        "name": "공원내 고려~조선시대기와가마유적",
        "lat": 36.117607,
        "lon": 128.007294
    },
    {
        "path_id": 25,
        "name": "김천시립박물관",
        "lat": 36.116669,
        "lon": 128.00827
    },
    {
        "path_id": 27,
        "name": "사명대사공원주차장",
        "lat": 36.117146,
        "lon": 128.009186
    },
    {
        "path_id": 28,
        "name": "평화의 탑",
        "lat": 36.118282,
        "lon": 128.009201
    },
    {
        "path_id": 29,
        "name": "평화의탑",
        "lat": 36.118935,
        "lon": 128.008804
    },
    {
        "path_id": 30,
        "name": "공원내쉼터",
        "lat": 36.119331,
        "lon": 128.00824
    },
    {
        "path_id": 31,
        "name": "공원내마을이정표",
        "lat": 36.119606,
        "lon": 128.007538
    },
    {
        "path_id": 32,
        "name": "건강문화원주차장",
        "lat": 36.119858,
        "lon": 128.007095
    },
    {
        "path_id": 33,
        "name": "건강문화원",
        "lat": 36.120434,
        "lon": 128.006119
    },
    {
        "path_id": 35,
        "name": "직지사노인요양원",
        "lat": 36.122364,
        "lon": 128.003662
    },
    {
        "path_id": 36,
        "name": "직지사북암",
        "lat": 36.122284,
        "lon": 128.00325
    },
    {
        "path_id": 37,
        "name": "직지사북암주차장",
        "lat": 36.122814,
        "lon": 128.003265
    },
    {
        "path_id": 38,
        "name": "이정표",
        "lat": 36.125748,
        "lon": 128.008682
    },
    {
        "path_id": 39,
        "name": "기날쉼터",
        "lat": 36.131878,
        "lon": 128.011047
    },
    {
        "path_id": 40,
        "name": "이정표와 안내판",
        "lat": 36.131702,
        "lon": 128.011276
    }
]