[
  {
    "path_id": 0,
    "path": [
      {
        "lat": 36.409214,
        "lng": 126.849251
      },
      {
        "lat": 36.40971,
        "lng": 126.849998
      }
    ],
    "color": "#40455d",
    "start_name": "장곡사 시내버스 종점 / 버스시간표 / 장곡사 2 주차장",
    "length_meter": 92.4,
    "time_minute": 1
  },
  {
    "path_id": 1,
    "path": [
      {
        "lat": 36.40971,
        "lng": 126.849998
      },
      {
        "lat": 36.409298,
        "lng": 126.850166
      }
    ],
    "color": "#17648c",
    "start_name": "공중 화장실 / 청양군종합관광안내도 / 파고라 및 벤취",
    "length_meter": 61.2,
    "time_minute": 1
  },
  {
    "path_id": 2,
    "path": [
      {
        "lat": 36.409298,
        "lng": 126.850166
      },
      {
        "lat": 36.40947,
        "lng": 126.85125
      }
    ],
    "color": "#9341a1",
    "start_name": "이정표",
    "length_meter": 98.9,
    "time_minute": 1
  },
  {
    "path_id": 3,
    "path": [
      {
        "lat": 36.40947,
        "lng": 126.85125
      },
      {
        "lat": 36.409775,
        "lng": 126.85218
      }
    ],
    "color": "#96ad9a",
    "start_name": "갈림길",
    "length_meter": 89.9,
    "time_minute": 1
  },
  {
    "path_id": 4,
    "path": [
      {
        "lat": 36.409775,
        "lng": 126.85218
      },
      {
        "lat": 36.410446,
        "lng": 126.852303
      }
    ],
    "color": "#5b6969",
    "start_name": "팔각정 / 장곡1 주차장 / 장곡사 산행입구",
    "length_meter": 77.7,
    "time_minute": 1
  },
  {
    "path_id": 5,
    "path": [
      {
        "lat": 36.410446,
        "lng": 126.852303
      },
      {
        "lat": 36.411186,
        "lng": 126.852989
      }
    ],
    "color": "#46861e",
    "start_name": "칠갑산맛집 / 칠갑산골",
    "length_meter": 102.7,
    "time_minute": 1
  },
  {
    "path_id": 6,
    "path": [
      {
        "lat": 36.411186,
        "lng": 126.852989
      },
      {
        "lat": 36.411079,
        "lng": 126.853859
      }
    ],
    "color": "#3a2264",
    "start_name": "물총칼국수. 마실식당. 마실쉼터 / 산골짜기",
    "length_meter": 79.0,
    "time_minute": 1
  },
  {
    "path_id": 7,
    "path": [
      {
        "lat": 36.411079,
        "lng": 126.853859
      },
      {
        "lat": 36.414261,
        "lng": 126.856827
      }
    ],
    "color": "#141868",
    "start_name": "장곡사 일주문",
    "length_meter": 442.4,
    "time_minute": 7
  },
  {
    "path_id": 8,
    "path": [
      {
        "lat": 36.414261,
        "lng": 126.856827
      },
      {
        "lat": 36.414539,
        "lng": 126.857536
      }
    ],
    "color": "#27513f",
    "start_name": "공중화장실",
    "length_meter": 70.6,
    "time_minute": 1
  },
  {
    "path_id": 9,
    "path": [
      {
        "lat": 36.414539,
        "lng": 126.857536
      },
      {
        "lat": 36.417107,
        "lng": 126.858688
      }
    ],
    "color": "#300884",
    "start_name": "칠갑산 꽃피는산골",
    "length_meter": 303.6,
    "time_minute": 5
  },
  {
    "path_id": 10,
    "path": [
      {
        "lat": 36.417107,
        "lng": 126.858688
      },
      {
        "lat": 36.417027,
        "lng": 126.859688
      }
    ],
    "color": "#6a82b1",
    "start_name": "장곡사해우소 / 장곡사 주차장",
    "length_meter": 92.3,
    "time_minute": 1
  },
  {
    "path_id": 11,
    "path": [
      {
        "lat": 36.417027,
        "lng": 126.859688
      },
      {
        "lat": 36.417431,
        "lng": 126.860657
      }
    ],
    "color": "#950682",
    "start_name": "문화재 지킴이 / 갈림길 / 장곡사",
    "length_meter": 129.9,
    "time_minute": 2
  },
  {
    "path_id": 12,
    "path": [
      {
        "lat": 36.417431,
        "lng": 126.860657
      },
      {
        "lat": 36.41647,
        "lng": 126.862366
      }
    ],
    "color": "#2bb903",
    "start_name": "이정표",
    "length_meter": 186.6,
    "time_minute": 3
  },
  {
    "path_id": 13,
    "path": [
      {
        "lat": 36.41647,
        "lng": 126.862366
      },
      {
        "lat": 36.416325,
        "lng": 126.86631
      }
    ],
    "color": "#7ea77b",
    "start_name": "칠갑산 거북바위 / 통나무 벤취 / 소나무 군락",
    "length_meter": 353.4,
    "time_minute": 5
  },
  {
    "path_id": 14,
    "path": [
      {
        "lat": 36.416325,
        "lng": 126.86631
      },
      {
        "lat": 36.415302,
        "lng": 126.867249
      }
    ],
    "color": "#c69e82",
    "start_name": "나무둘레에 의자",
    "length_meter": 141.4,
    "time_minute": 2
  },
  {
    "path_id": 15,
    "path": [
      {
        "lat": 36.415302,
        "lng": 126.867249
      },
      {
        "lat": 36.415485,
        "lng": 126.870239
      }
    ],
    "color": "#955f92",
    "start_name": "이정표",
    "length_meter": 268.3,
    "time_minute": 4
  },
  {
    "path_id": 16,
    "path": [
      {
        "lat": 36.415485,
        "lng": 126.870239
      },
      {
        "lat": 36.413059,
        "lng": 126.872543
      }
    ],
    "color": "#3b557e",
    "start_name": "통나무 벤취",
    "length_meter": 339.5,
    "time_minute": 5
  },
  {
    "path_id": 17,
    "path": [
      {
        "lat": 36.413059,
        "lng": 126.872543
      },
      {
        "lat": 36.413155,
        "lng": 126.87899
      }
    ],
    "color": "#95a20f",
    "start_name": "이정표",
    "length_meter": 577.0,
    "time_minute": 9
  },
  {
    "path_id": 18,
    "path": [
      {
        "lat": 36.413155,
        "lng": 126.87899
      },
      {
        "lat": 36.411564,
        "lng": 126.882477
      }
    ],
    "color": "#4b9110",
    "start_name": "평상",
    "length_meter": 358.7,
    "time_minute": 5
  },
  {
    "path_id": 19,
    "path": [
      {
        "lat": 36.411564,
        "lng": 126.882477
      },
      {
        "lat": 36.411655,
        "lng": 126.883003
      }
    ],
    "color": "#4c166e",
    "start_name": "갈림길",
    "length_meter": 48.1,
    "time_minute": 0
  },
  {
    "path_id": 20,
    "path": [
      {
        "lat": 36.411655,
        "lng": 126.883003
      },
      {
        "lat": 36.411819,
        "lng": 126.88372
      }
    ],
    "color": "#b00798",
    "start_name": "이정표 / 갈림길",
    "length_meter": 67.7,
    "time_minute": 1
  },
  {
    "path_id": 21,
    "path": [
      {
        "lat": 36.411819,
        "lng": 126.88372
      },
      {
        "lat": 36.412663,
        "lng": 126.884544
      }
    ],
    "color": "#3573a9",
    "start_name": "평상",
    "length_meter": 119.4,
    "time_minute": 1
  },
  {
    "path_id": 22,
    "path": [
      {
        "lat": 36.412663,
        "lng": 126.884544
      },
      {
        "lat": 36.409164,
        "lng": 126.882889
      }
    ],
    "color": "#030ca2",
    "start_name": "평상 6개",
    "length_meter": 416.3,
    "time_minute": 6
  },
  {
    "path_id": 23,
    "path": [
      {
        "lat": 36.409164,
        "lng": 126.882889
      },
      {
        "lat": 36.405926,
        "lng": 126.881821
      }
    ],
    "color": "#435e76",
    "start_name": "이정표",
    "length_meter": 372.5,
    "time_minute": 6
  },
  {
    "path_id": 24,
    "path": [
      {
        "lat": 36.405926,
        "lng": 126.881821
      },
      {
        "lat": 36.404404,
        "lng": 126.88063
      }
    ],
    "color": "#8653ba",
    "start_name": "벤취",
    "length_meter": 200.0,
    "time_minute": 3
  },
  {
    "path_id": 25,
    "path": [
      {
        "lat": 36.404404,
        "lng": 126.88063
      },
      {
        "lat": 36.402721,
        "lng": 126.881042
      }
    ],
    "color": "#9e2c0c",
    "start_name": "119 구급함",
    "length_meter": 190.7,
    "time_minute": 3
  },
  {
    "path_id": 26,
    "path": [
      {
        "lat": 36.402721,
        "lng": 126.881042
      },
      {
        "lat": 36.402706,
        "lng": 126.880707
      }
    ],
    "color": "#395538",
    "start_name": "이정표 / 칠갑산 삼형제봉 표지석 / 평상",
    "length_meter": 83.2,
    "time_minute": 1
  },
  {
    "path_id": 27,
    "path": [
      {
        "lat": 36.402706,
        "lng": 126.880707
      },
      {
        "lat": 36.402584,
        "lng": 126.875969
      }
    ],
    "color": "#6b6b1b",
    "start_name": "평상 1개소 벤취 1개소 / 평상",
    "length_meter": 424.3,
    "time_minute": 7
  },
  {
    "path_id": 28,
    "path": [
      {
        "lat": 36.402584,
        "lng": 126.875969
      },
      {
        "lat": 36.403847,
        "lng": 126.870552
      }
    ],
    "color": "#24436f",
    "start_name": "이정표",
    "length_meter": 504.7,
    "time_minute": 8
  },
  {
    "path_id": 29,
    "path": [
      {
        "lat": 36.403847,
        "lng": 126.870552
      },
      {
        "lat": 36.404499,
        "lng": 126.865196
      }
    ],
    "color": "#619e09",
    "start_name": "평상",
    "length_meter": 484.8,
    "time_minute": 8
  },
  {
    "path_id": 30,
    "path": [
      {
        "lat": 36.404499,
        "lng": 126.865196
      },
      {
        "lat": 36.404564,
        "lng": 126.862022
      }
    ],
    "color": "#322a3f",
    "start_name": "벤취",
    "length_meter": 284.1,
    "time_minute": 4
  },
  {
    "path_id": 31,
    "path": [
      {
        "lat": 36.404564,
        "lng": 126.862022
      },
      {
        "lat": 36.404003,
        "lng": 126.860405
      }
    ],
    "color": "#29a816",
    "start_name": "평상",
    "length_meter": 157.6,
    "time_minute": 2
  },
  {
    "path_id": 32,
    "path": [
      {
        "lat": 36.404003,
        "lng": 126.860405
      },
      {
        "lat": 36.404228,
        "lng": 126.857796
      }
    ],
    "color": "#9a8629",
    "start_name": "벤취",
    "length_meter": 234.8,
    "time_minute": 3
  },
  {
    "path_id": 33,
    "path": [
      {
        "lat": 36.404228,
        "lng": 126.857796
      },
      {
        "lat": 36.406574,
        "lng": 126.851746
      }
    ],
    "color": "#b901c5",
    "start_name": "평상",
    "length_meter": 601.0,
    "time_minute": 10
  },
  {
    "path_id": 34,
    "path": [
      {
        "lat": 36.406574,
        "lng": 126.851746
      },
      {
        "lat": 36.406464,
        "lng": 126.851059
      }
    ],
    "color": "#414b45",
    "start_name": "벤취",
    "length_meter": 62.7,
    "time_minute": 1
  },
  {
    "path_id": 35,
    "path": [
      {
        "lat": 36.406464,
        "lng": 126.851059
      },
      {
        "lat": 36.408459,
        "lng": 126.851158
      }
    ],
    "color": "#711180",
    "start_name": "이정표",
    "length_meter": 222.0,
    "time_minute": 3
  },
  {
    "path_id": 36,
    "path": [
      {
        "lat": 36.408459,
        "lng": 126.851158
      },
      {
        "lat": 36.408791,
        "lng": 126.851776
      }
    ],
    "color": "#6b7288",
    "start_name": "삼형제봉~칠갑산정상 등산로 입구",
    "length_meter": 66.5,
    "time_minute": 1
  },
  {
    "path_id": 37,
    "path": [
      {
        "lat": 36.408791,
        "lng": 126.851776
      },
      {
        "lat": 36.409363,
        "lng": 126.850594
      }
    ],
    "color": "#c31563",
    "start_name": "장곡사 3 주차장 / 간이화장실",
    "length_meter": 183.0,
    "time_minute": 3
  }
]