[
    {
        "name": "갈림길",
        "lat": 38.051804,
        "lon": 127.78759
    },
    {
        "name": "산촌생태단지(수불무산 입구)",
        "lat": 38.052364,
        "lon": 127.780136
    },
    {
        "name": "쉼터",
        "lat": 38.048912,
        "lon": 127.780739
    },
    {
        "name": "국가지점번호",
        "lat": 38.041157,
        "lon": 127.775894
    },
    {
        "name": "조망점",
        "lat": 38.040981,
        "lon": 127.775787
    },
    {
        "name": "수불무산 정상",
        "lat": 38.03495,
        "lon": 127.777168
    },
    {
        "name": "수불무산 정상 바위 조망점",
        "lat": 38.034565,
        "lon": 127.777161
    },
    {
        "name": "수불무산 정상바위",
        "lat": 38.034523,
        "lon": 127.777138
    },
    {
        "name": "갈림길",
        "lat": 38.034416,
        "lon": 127.777107
    },
    {
        "name": "조망점",
        "lat": 38.027931,
        "lon": 127.773186
    },
    {
        "name": "갈림길",
        "lat": 38.026825,
        "lon": 127.770836
    },
    {
        "name": "조망점",
        "lat": 38.037968,
        "lon": 127.779709
    },
    {
        "name": "포토존",
        "lat": 38.038395,
        "lon": 127.779846
    },
    {
        "name": "자연경관",
        "lat": 38.038391,
        "lon": 127.779823
    },
    {
        "name": "수불무산 전위봉",
        "lat": 38.03952,
        "lon": 127.780937
    },
    {
        "name": "포토존",
        "lat": 38.040199,
        "lon": 127.780136
    },
    {
        "name": "갈림길",
        "lat": 38.04232,
        "lon": 127.78006
    },
    {
        "name": "갈림길",
        "lat": 38.043453,
        "lon": 127.779137
    }
]