[
  {
    "path_id": 0,
    "path": [
      {
        "lat": 34.473724,
        "lng": 126.918381
      },
      {
        "lat": 34.475193,
        "lng": 126.919662
      }
    ],
    "color": "#97887c",
    "start_name": "갈림길",
    "length_meter": 201.2,
    "time_minute": 3
  },
  {
    "path_id": 1,
    "path": [
      {
        "lat": 34.475193,
        "lng": 126.919662
      },
      {
        "lat": 34.476048,
        "lng": 126.918839
      }
    ],
    "color": "#125e1b",
    "start_name": "웨이포인트 13",
    "length_meter": 121.4,
    "time_minute": 2
  },
  {
    "path_id": 2,
    "path": [
      {
        "lat": 34.476048,
        "lng": 126.918839
      },
      {
        "lat": 34.478268,
        "lng": 126.918716
      }
    ],
    "color": "#eae51a",
    "start_name": "갈림길",
    "length_meter": 247.1,
    "time_minute": 4
  },
  {
    "path_id": 3,
    "path": [
      {
        "lat": 34.478268,
        "lng": 126.918716
      },
      {
        "lat": 34.482601,
        "lng": 126.916122
      }
    ],
    "color": "#3d7f20",
    "start_name": "화장실 / 갈림길",
    "length_meter": 578.8,
    "time_minute": 9
  },
  {
    "path_id": 4,
    "path": [
      {
        "lat": 34.482601,
        "lng": 126.916122
      },
      {
        "lat": 34.486362,
        "lng": 126.911995
      }
    ],
    "color": "#ff1791",
    "start_name": "아들바위",
    "length_meter": 563.9,
    "time_minute": 9
  },
  {
    "path_id": 5,
    "path": [
      {
        "lat": 34.486362,
        "lng": 126.911995
      },
      {
        "lat": 34.487259,
        "lng": 126.911156
      }
    ],
    "color": "#d6f4bb",
    "start_name": "질깔끄막",
    "length_meter": 125.9,
    "time_minute": 2
  },
  {
    "path_id": 6,
    "path": [
      {
        "lat": 34.487259,
        "lng": 126.911156
      },
      {
        "lat": 34.488312,
        "lng": 126.910324
      }
    ],
    "color": "#22403e",
    "start_name": "포토존",
    "length_meter": 139.7,
    "time_minute": 2
  },
  {
    "path_id": 7,
    "path": [
      {
        "lat": 34.488312,
        "lng": 126.910324
      },
      {
        "lat": 34.489105,
        "lng": 126.908356
      }
    ],
    "color": "#cce946",
    "start_name": "갈림길",
    "length_meter": 200.8,
    "time_minute": 3
  },
  {
    "path_id": 8,
    "path": [
      {
        "lat": 34.489105,
        "lng": 126.908356
      },
      {
        "lat": 34.490501,
        "lng": 126.906914
      }
    ],
    "color": "#24ed5e",
    "start_name": "책상바위",
    "length_meter": 203.9,
    "time_minute": 3
  },
  {
    "path_id": 9,
    "path": [
      {
        "lat": 34.490501,
        "lng": 126.906914
      },
      {
        "lat": 34.498756,
        "lng": 126.898705
      }
    ],
    "color": "#f1951a",
    "start_name": "갈림길",
    "length_meter": 1186.8,
    "time_minute": 19
  },
  {
    "path_id": 10,
    "path": [
      {
        "lat": 34.498756,
        "lng": 126.898705
      },
      {
        "lat": 34.506096,
        "lng": 126.901825
      }
    ],
    "color": "#511604",
    "start_name": "버스 / 갈림길",
    "length_meter": 865.6,
    "time_minute": 14
  },
  {
    "path_id": 11,
    "path": [
      {
        "lat": 34.506096,
        "lng": 126.901825
      },
      {
        "lat": 34.506645,
        "lng": 126.901978
      }
    ],
    "color": "#9e9e5a",
    "start_name": "버스",
    "length_meter": 62.6,
    "time_minute": 1
  },
  {
    "path_id": 12,
    "path": [
      {
        "lat": 34.506645,
        "lng": 126.901978
      },
      {
        "lat": 34.513927,
        "lng": 126.902184
      }
    ],
    "color": "#530a5c",
    "start_name": "갈림길",
    "length_meter": 809.9,
    "time_minute": 13
  },
  {
    "path_id": 13,
    "path": [
      {
        "lat": 34.513927,
        "lng": 126.902184
      },
      {
        "lat": 34.516136,
        "lng": 126.902611
      }
    ],
    "color": "#ece2bb",
    "start_name": "관광안내소",
    "length_meter": 248.7,
    "time_minute": 4
  },
  {
    "path_id": 14,
    "path": [
      {
        "lat": 34.516136,
        "lng": 126.902611
      },
      {
        "lat": 34.523952,
        "lng": 126.908424
      }
    ],
    "color": "#e93375",
    "start_name": "갈림길",
    "length_meter": 1019.3,
    "time_minute": 16
  },
  {
    "path_id": 15,
    "path": [
      {
        "lat": 34.523952,
        "lng": 126.908424
      },
      {
        "lat": 34.523819,
        "lng": 126.908424
      }
    ],
    "color": "#49322f",
    "start_name": "화장실",
    "length_meter": 14.8,
    "time_minute": 0
  }
]