[
  {
    "path_id": 0,
    "path": [
      {
        "lat": 34.540127,
        "lng": 126.913895
      },
      {
        "lat": 34.535591,
        "lng": 126.911819
      }
    ],
    "color": "#590d5e",
    "start_name": "금강굴 / 석선",
    "length_meter": 578.5,
    "time_minute": 9
  },
  {
    "path_id": 1,
    "path": [
      {
        "lat": 34.535591,
        "lng": 126.911819
      },
      {
        "lat": 34.531826,
        "lng": 126.91951
      }
    ],
    "color": "#3a343f",
    "start_name": "갈림길 16 / 환희대",
    "length_meter": 819.5,
    "time_minute": 13
  },
  {
    "path_id": 2,
    "path": [
      {
        "lat": 34.531826,
        "lng": 126.91951
      },
      {
        "lat": 34.536087,
        "lng": 126.925873
      }
    ],
    "color": "#c4712a",
    "start_name": "천관산 연대봉 / 갈림길 19",
    "length_meter": 753.6,
    "time_minute": 12
  },
  {
    "path_id": 3,
    "path": [
      {
        "lat": 34.536087,
        "lng": 126.925873
      },
      {
        "lat": 34.537449,
        "lng": 126.926849
      }
    ],
    "color": "#cdf378",
    "start_name": "정원암",
    "length_meter": 175.9,
    "time_minute": 2
  },
  {
    "path_id": 4,
    "path": [
      {
        "lat": 34.537449,
        "lng": 126.926849
      },
      {
        "lat": 34.546654,
        "lng": 126.930435
      }
    ],
    "color": "#0df3c0",
    "start_name": "양근암",
    "length_meter": 1075.0,
    "time_minute": 17
  }
]