[
  {
    "path_id": 0,
    "path": [
      {
        "lat": 34.540127,
        "lng": 126.913895
      },
      {
        "lat": 34.540108,
        "lng": 126.913246
      }
    ],
    "color": "#c09022",
    "start_point_name": "금강굴",
    "length": 59,
    "time": "0"
  },
  {
    "path_id": 1,
    "path": [
      {
        "lat": 34.540108,
        "lng": 126.913246
      },
      {
        "lat": 34.535591,
        "lng": 126.911819
      }
    ],
    "color": "#2174cb",
    "start_point_name": "석선",
    "length": 518,
    "time": "8"
  },
  {
    "path_id": 2,
    "path": [
      {
        "lat": 34.535591,
        "lng": 126.911819
      },
      {
        "lat": 34.535576,
        "lng": 126.91185
      }
    ],
    "color": "#f374f1",
    "start_point_name": "갈림길 16",
    "length": 3,
    "time": "0"
  },
  {
    "path_id": 3,
    "path": [
      {
        "lat": 34.535576,
        "lng": 126.91185
      },
      {
        "lat": 34.531826,
        "lng": 126.91951
      }
    ],
    "color": "#2e33c3",
    "start_point_name": "환희대",
    "length": 816,
    "time": "13"
  },
  {
    "path_id": 4,
    "path": [
      {
        "lat": 34.531826,
        "lng": 126.91951
      },
      {
        "lat": 34.531811,
        "lng": 126.919563
      }
    ],
    "color": "#9fe9a9",
    "start_point_name": "천관산 연대봉",
    "length": 5,
    "time": "0"
  },
  {
    "path_id": 5,
    "path": [
      {
        "lat": 34.531811,
        "lng": 126.919563
      },
      {
        "lat": 34.536087,
        "lng": 126.925873
      }
    ],
    "color": "#21c40b",
    "start_point_name": "갈림길 19",
    "length": 748,
    "time": "12"
  },
  {
    "path_id": 6,
    "path": [
      {
        "lat": 34.536087,
        "lng": 126.925873
      },
      {
        "lat": 34.537449,
        "lng": 126.926849
      }
    ],
    "color": "#1c1362",
    "start_point_name": "정원암",
    "length": 175,
    "time": "2"
  },
  {
    "path_id": 7,
    "path": [
      {
        "lat": 34.537449,
        "lng": 126.926849
      },
      {
        "lat": 34.546654,
        "lng": 126.930435
      }
    ],
    "color": "#8005ae",
    "start_point_name": "양근암",
    "length": 1074,
    "time": "17"
  }
]