[
    {
        "name": "의암매표소",
        "lat": 37.841179,
        "lon": 127.674217
    },
    {
        "name": "매표소 화장실",
        "lat": 37.841259,
        "lon": 127.674225
    },
    {
        "name": "삼악산삼악산장매표소등산로입구",
        "lat": 37.841198,
        "lon": 127.674202
    },
    {
        "name": "의암매표소 유료주차장",
        "lat": 37.84129,
        "lon": 127.674309
    },
    {
        "name": "상원사 정류장 (ID2156)",
        "lat": 37.841263,
        "lon": 127.674202
    },
    {
        "name": "붕어섬",
        "lat": 37.841908,
        "lon": 127.673637
    },
    {
        "name": "작은폭포",
        "lat": 37.841381,
        "lon": 127.670349
    },
    {
        "name": "상원사",
        "lat": 37.841152,
        "lon": 127.669884
    },
    {
        "name": "상원사 약수",
        "lat": 37.841183,
        "lon": 127.669777
    },
    {
        "name": "갈림길 10",
        "lat": 37.841019,
        "lon": 127.669731
    },
    {
        "name": "갈림길 11",
        "lat": 37.839737,
        "lon": 127.668106
    },
    {
        "name": "실족사고, 낙석주의",
        "lat": 37.83971,
        "lon": 127.668022
    },
    {
        "name": "붕어섬2",
        "lat": 37.839252,
        "lon": 127.665596
    },
    {
        "name": "소양강 조망",
        "lat": 37.839108,
        "lon": 127.665604
    },
    {
        "name": "붕어섬과 함께 포토존",
        "lat": 37.840061,
        "lon": 127.662811
    },
    {
        "name": "삼악산 전망대",
        "lat": 37.840137,
        "lon": 127.662186
    },
    {
        "name": "소양강과 붕어섬",
        "lat": 37.840172,
        "lon": 127.662109
    },
    {
        "name": "실족사고, 낙석주의",
        "lat": 37.840157,
        "lon": 127.661453
    },
    {
        "name": "갈림길 19",
        "lat": 37.839725,
        "lon": 127.660408
    },
    {
        "name": "갈림길 20",
        "lat": 37.840084,
        "lon": 127.654083
    },
    {
        "name": "등산로폐쇄",
        "lat": 37.837795,
        "lon": 127.653175
    },
    {
        "name": "흥국사",
        "lat": 37.837372,
        "lon": 127.653679
    }
]