[
    {
        "name": "삼악산강촌유원지등산로입구",
        "lat": 37.818859,
        "lon": 127.633636
    },
    {
        "name": "강촌유원지 정류장(1464, 삼악산 방면)",
        "lat": 37.81884,
        "lon": 127.633583
    },
    {
        "name": "쉼터",
        "lat": 37.818966,
        "lon": 127.633949
    },
    {
        "name": "쉼터",
        "lat": 37.821606,
        "lon": 127.635895
    },
    {
        "name": "소양강 조망",
        "lat": 37.822315,
        "lon": 127.636604
    },
    {
        "name": "삼악좌봉",
        "lat": 37.823437,
        "lon": 127.636009
    },
    {
        "name": "갈림길 7",
        "lat": 37.823727,
        "lon": 127.635612
    },
    {
        "name": "거대바위",
        "lat": 37.823734,
        "lon": 127.635666
    },
    {
        "name": "소양강 조망2",
        "lat": 37.826385,
        "lon": 127.635712
    },
    {
        "name": "계관산능선",
        "lat": 37.826984,
        "lon": 127.637161
    },
    {
        "name": "추락주의",
        "lat": 37.827015,
        "lon": 127.637543
    },
    {
        "name": "돌탑과 함께",
        "lat": 37.827553,
        "lon": 127.638359
    },
    {
        "name": "조망점",
        "lat": 37.827682,
        "lon": 127.638542
    },
    {
        "name": "소양강조망",
        "lat": 37.827877,
        "lon": 127.638512
    },
    {
        "name": "등선봉 해발632m",
        "lat": 37.830662,
        "lon": 127.643135
    },
    {
        "name": "갈림길 16",
        "lat": 37.832809,
        "lon": 127.64917
    },
    {
        "name": "갈림길 17",
        "lat": 37.83403,
        "lon": 127.649574
    },
    {
        "name": "청운봉 해발527m",
        "lat": 37.839996,
        "lon": 127.649017
    },
    {
        "name": "갈림길 20",
        "lat": 37.840069,
        "lon": 127.64901
    },
    {
        "name": "소양강",
        "lat": 37.840363,
        "lon": 127.652992
    },
    {
        "name": "큰초원 쉼터",
        "lat": 37.837822,
        "lon": 127.660736
    },
    {
        "name": "갈림길 29",
        "lat": 37.837639,
        "lon": 127.660477
    },
    {
        "name": "작은초원 쉼터",
        "lat": 37.83704,
        "lon": 127.656769
    },
    {
        "name": "흥국사 화장실",
        "lat": 37.837139,
        "lon": 127.653183
    },
    {
        "name": "운악산막",
        "lat": 37.836552,
        "lon": 127.653381
    },
    {
        "name": "폭포",
        "lat": 37.83297,
        "lon": 127.655838
    },
    {
        "name": "폭포소",
        "lat": 37.830097,
        "lon": 127.657776
    },
    {
        "name": "주렴폭포",
        "lat": 37.828403,
        "lon": 127.657448
    },
    {
        "name": "백련폭포",
        "lat": 37.827526,
        "lon": 127.658142
    },
    {
        "name": "쉼터",
        "lat": 37.827541,
        "lon": 127.658188
    },
    {
        "name": "승학폭포",
        "lat": 37.827427,
        "lon": 127.658325
    },
    {
        "name": "등선제1폭포",
        "lat": 37.826565,
        "lon": 127.659172
    },
    {
        "name": "등선휴게소식당",
        "lat": 37.825935,
        "lon": 127.659508
    },
    {
        "name": "등선폭포 매표소",
        "lat": 37.825642,
        "lon": 127.659439
    },
    {
        "name": "등선매표소 화장실",
        "lat": 37.825699,
        "lon": 127.659386
    },
    {
        "name": "유료주차장",
        "lat": 37.824883,
        "lon": 127.659355
    },
    {
        "name": "삼악산정류장(1851, 강촌유원지 방면)",
        "lat": 37.824932,
        "lon": 127.660057
    }
]