{
  "max_ele": 1211.976,
  "total_length_km": "5.1km",
  "total_time": "1시간 4분",
  "track": [
    {
      "path_id": 0,
      "path": [
        {
          "lat": 35.59795,
          "lng": 128.955399
        },
        {
          "lat": 35.599434,
          "lng": 128.952866
        }
      ],
      "color": "#b13383",
      "start_name": "갈림길",
      "length_meter": 282.3,
      "time_minute": 3
    },
    {
      "path_id": 1,
      "path": [
        {
          "lat": 35.599434,
          "lng": 128.952866
        },
        {
          "lat": 35.606968,
          "lng": 128.958618
        }
      ],
      "color": "#ae190e",
      "start_name": "포장길  끝.",
      "length_meter": 986.0,
      "time_minute": 12
    },
    {
      "path_id": 2,
      "path": [
        {
          "lat": 35.606968,
          "lng": 128.958618
        },
        {
          "lat": 35.613262,
          "lng": 128.958389
        }
      ],
      "color": "#bab4b4",
      "start_name": "능선 등산로",
      "length_meter": 700.2,
      "time_minute": 8
    },
    {
      "path_id": 3,
      "path": [
        {
          "lat": 35.613262,
          "lng": 128.958389
        },
        {
          "lat": 35.615128,
          "lng": 128.958603
        }
      ],
      "color": "#6c0761",
      "start_name": "대피소겸  쉼터",
      "length_meter": 208.4,
      "time_minute": 2
    },
    {
      "path_id": 4,
      "path": [
        {
          "lat": 35.615128,
          "lng": 128.958603
        },
        {
          "lat": 35.615475,
          "lng": 128.959763
        }
      ],
      "color": "#8e3e27",
      "start_name": "전망대",
      "length_meter": 111.7,
      "time_minute": 1
    },
    {
      "path_id": 5,
      "path": [
        {
          "lat": 35.615475,
          "lng": 128.959763
        },
        {
          "lat": 35.613312,
          "lng": 128.972748
        }
      ],
      "color": "#1b0ebc",
      "start_name": "정상 / 갈림길",
      "length_meter": 1205.2,
      "time_minute": 20
    },
    {
      "path_id": 6,
      "path": [
        {
          "lat": 35.613312,
          "lng": 128.972748
        },
        {
          "lat": 35.599937,
          "lng": 128.965164
        }
      ],
      "color": "#38b33d",
      "start_name": "환경감시초소",
      "length_meter": 1637.7,
      "time_minute": 20
    },
    {
      "path_id": 7,
      "path": [
        {
          "lat": 35.599937,
          "lng": 128.965164
        },
        {
          "lat": 35.599941,
          "lng": 128.965179
        }
      ],
      "color": "#102bc0",
      "start_name": "갈림길",
      "length_meter": 1.4,
      "time_minute": 0
    }
  ]
}