[
  {
    "path_id": 0,
    "path": [
      {
        "lat": 37.658173,
        "lng": 126.946442
      },
      {
        "lat": 37.656425,
        "lng": 126.948273
      }
    ],
    "color": "#eec8ab",
    "start_name": "북한산성입구",
    "length_meter": 252.5,
    "time_minute": 4
  },
  {
    "path_id": 1,
    "path": [
      {
        "lat": 37.656425,
        "lng": 126.948273
      },
      {
        "lat": 37.655254,
        "lng": 126.949341
      }
    ],
    "color": "#70b493",
    "start_name": "북한산성유료주차장",
    "length_meter": 160.6,
    "time_minute": 2
  },
  {
    "path_id": 2,
    "path": [
      {
        "lat": 37.655254,
        "lng": 126.949341
      },
      {
        "lat": 37.654812,
        "lng": 126.950577
      }
    ],
    "color": "#5e506b",
    "start_name": "안내소 / 북한산성화장실",
    "length_meter": 120.3,
    "time_minute": 2
  },
  {
    "path_id": 3,
    "path": [
      {
        "lat": 37.654812,
        "lng": 126.950577
      },
      {
        "lat": 37.654709,
        "lng": 126.953293
      }
    ],
    "color": "#816180",
    "start_name": "갈림길 5",
    "length_meter": 239.4,
    "time_minute": 3
  },
  {
    "path_id": 4,
    "path": [
      {
        "lat": 37.654709,
        "lng": 126.953293
      },
      {
        "lat": 37.656097,
        "lng": 126.955475
      }
    ],
    "color": "#c0984b",
    "start_name": "야생화 / 수구정화장실",
    "length_meter": 250.1,
    "time_minute": 4
  },
  {
    "path_id": 5,
    "path": [
      {
        "lat": 37.656097,
        "lng": 126.955475
      },
      {
        "lat": 37.653194,
        "lng": 126.961342
      }
    ],
    "color": "#d94cdd",
    "start_name": "서암사",
    "length_meter": 609.1,
    "time_minute": 10
  },
  {
    "path_id": 6,
    "path": [
      {
        "lat": 37.653194,
        "lng": 126.961342
      },
      {
        "lat": 37.652672,
        "lng": 126.961952
      }
    ],
    "color": "#28befa",
    "start_name": "갈림길 9",
    "length_meter": 79.1,
    "time_minute": 1
  },
  {
    "path_id": 7,
    "path": [
      {
        "lat": 37.652672,
        "lng": 126.961952
      },
      {
        "lat": 37.652779,
        "lng": 126.962753
      }
    ],
    "color": "#e6c768",
    "start_name": "북한동역사관옆화장실",
    "length_meter": 71.5,
    "time_minute": 1
  },
  {
    "path_id": 8,
    "path": [
      {
        "lat": 37.652779,
        "lng": 126.962753
      },
      {
        "lat": 37.65369,
        "lng": 126.964867
      }
    ],
    "color": "#e35ea5",
    "start_name": "보리사",
    "length_meter": 211.9,
    "time_minute": 3
  },
  {
    "path_id": 9,
    "path": [
      {
        "lat": 37.65369,
        "lng": 126.964867
      },
      {
        "lat": 37.654312,
        "lng": 126.967285
      }
    ],
    "color": "#40a7d8",
    "start_name": "개연폭포",
    "length_meter": 223.8,
    "time_minute": 3
  },
  {
    "path_id": 10,
    "path": [
      {
        "lat": 37.654312,
        "lng": 126.967285
      },
      {
        "lat": 37.655251,
        "lng": 126.970039
      }
    ],
    "color": "#952740",
    "start_name": "갈림길 16",
    "length_meter": 264.0,
    "time_minute": 4
  },
  {
    "path_id": 11,
    "path": [
      {
        "lat": 37.655251,
        "lng": 126.970039
      },
      {
        "lat": 37.65617,
        "lng": 126.975098
      }
    ],
    "color": "#28df8b",
    "start_name": "대동사약수터 / 사찰 대동사",
    "length_meter": 468.1,
    "time_minute": 7
  },
  {
    "path_id": 12,
    "path": [
      {
        "lat": 37.65617,
        "lng": 126.975098
      },
      {
        "lat": 37.656864,
        "lng": 126.975929
      }
    ],
    "color": "#f17ba9",
    "start_name": "백운대중턱쉄터",
    "length_meter": 106.3,
    "time_minute": 1
  },
  {
    "path_id": 13,
    "path": [
      {
        "lat": 37.656864,
        "lng": 126.975929
      },
      {
        "lat": 37.657383,
        "lng": 126.978996
      }
    ],
    "color": "#b12608",
    "start_name": "예전약수암터",
    "length_meter": 276.1,
    "time_minute": 4
  },
  {
    "path_id": 14,
    "path": [
      {
        "lat": 37.657383,
        "lng": 126.978996
      },
      {
        "lat": 37.657803,
        "lng": 126.979469
      }
    ],
    "color": "#5dac41",
    "start_name": "갈림길 22 / 백운동암문 / 갈림길 24",
    "length_meter": 77.5,
    "time_minute": 1
  },
  {
    "path_id": 15,
    "path": [
      {
        "lat": 37.657803,
        "lng": 126.979469
      },
      {
        "lat": 37.658661,
        "lng": 126.978142
      }
    ],
    "color": "#a6252b",
    "start_name": "갈림길 25",
    "length_meter": 150.8,
    "time_minute": 2
  },
  {
    "path_id": 16,
    "path": [
      {
        "lat": 37.658661,
        "lng": 126.978142
      },
      {
        "lat": 37.64909,
        "lng": 126.982399
      }
    ],
    "color": "#a5c33f",
    "start_name": "북한산 백운대 정상 / 북한산백운대",
    "length_meter": 1144.6,
    "time_minute": 19
  },
  {
    "path_id": 17,
    "path": [
      {
        "lat": 37.64909,
        "lng": 126.982399
      },
      {
        "lat": 37.644985,
        "lng": 126.977013
      }
    ],
    "color": "#b80e78",
    "start_name": "북한산대피소 / 북한산대피소화장실",
    "length_meter": 673.2,
    "time_minute": 11
  },
  {
    "path_id": 18,
    "path": [
      {
        "lat": 37.644985,
        "lng": 126.977013
      },
      {
        "lat": 37.645077,
        "lng": 126.975716
      }
    ],
    "color": "#a671bf",
    "start_name": "갈림길 33 / 중흥사옆 화장실 / 중흥사",
    "length_meter": 139.1,
    "time_minute": 2
  },
  {
    "path_id": 19,
    "path": [
      {
        "lat": 37.645077,
        "lng": 126.975716
      },
      {
        "lat": 37.645008,
        "lng": 126.974152
      }
    ],
    "color": "#ad36b0",
    "start_name": "용학사약수터",
    "length_meter": 137.9,
    "time_minute": 2
  },
  {
    "path_id": 20,
    "path": [
      {
        "lat": 37.645008,
        "lng": 126.974152
      },
      {
        "lat": 37.645237,
        "lng": 126.973427
      }
    ],
    "color": "#646f14",
    "start_name": "산영루",
    "length_meter": 68.7,
    "time_minute": 1
  },
  {
    "path_id": 21,
    "path": [
      {
        "lat": 37.645237,
        "lng": 126.973427
      },
      {
        "lat": 37.648247,
        "lng": 126.972931
      }
    ],
    "color": "#856395",
    "start_name": "갈림길 38",
    "length_meter": 337.5,
    "time_minute": 5
  },
  {
    "path_id": 22,
    "path": [
      {
        "lat": 37.648247,
        "lng": 126.972931
      },
      {
        "lat": 37.64843,
        "lng": 126.971489
      }
    ],
    "color": "#8e44bf",
    "start_name": "노적사앞 쉼터",
    "length_meter": 128.6,
    "time_minute": 2
  },
  {
    "path_id": 23,
    "path": [
      {
        "lat": 37.64843,
        "lng": 126.971489
      },
      {
        "lat": 37.648624,
        "lng": 126.97049
      }
    ],
    "color": "#bdff63",
    "start_name": "노적사",
    "length_meter": 90.6,
    "time_minute": 1
  },
  {
    "path_id": 24,
    "path": [
      {
        "lat": 37.648624,
        "lng": 126.97049
      },
      {
        "lat": 37.649769,
        "lng": 126.96727
      }
    ],
    "color": "#2bf788",
    "start_name": "중성,문",
    "length_meter": 310.8,
    "time_minute": 5
  },
  {
    "path_id": 25,
    "path": [
      {
        "lat": 37.649769,
        "lng": 126.96727
      },
      {
        "lat": 37.651402,
        "lng": 126.964752
      }
    ],
    "color": "#421971",
    "start_name": "범용사삼거리화장실 / 범용사쉄터 / 범용사 / 갈림길 45",
    "length_meter": 290.8,
    "time_minute": 4
  },
  {
    "path_id": 26,
    "path": [
      {
        "lat": 37.651402,
        "lng": 126.964752
      },
      {
        "lat": 37.652302,
        "lng": 126.963074
      }
    ],
    "color": "#2d17c4",
    "start_name": "선봉사",
    "length_meter": 178.4,
    "time_minute": 2
  },
  {
    "path_id": 27,
    "path": [
      {
        "lat": 37.652302,
        "lng": 126.963074
      },
      {
        "lat": 37.652897,
        "lng": 126.961624
      }
    ],
    "color": "#f0f7b1",
    "start_name": "자생식물원쉼터",
    "length_meter": 143.8,
    "time_minute": 2
  },
  {
    "path_id": 28,
    "path": [
      {
        "lat": 37.652897,
        "lng": 126.961624
      },
      {
        "lat": 37.653805,
        "lng": 126.959549
      }
    ],
    "color": "#7c5591",
    "start_name": "갈림길 48",
    "length_meter": 208.7,
    "time_minute": 3
  },
  {
    "path_id": 29,
    "path": [
      {
        "lat": 37.653805,
        "lng": 126.959549
      },
      {
        "lat": 37.65403,
        "lng": 126.957733
      }
    ],
    "color": "#29905f",
    "start_name": "무량사",
    "length_meter": 161.8,
    "time_minute": 2
  },
  {
    "path_id": 30,
    "path": [
      {
        "lat": 37.65403,
        "lng": 126.957733
      },
      {
        "lat": 37.653622,
        "lng": 126.956131
      }
    ],
    "color": "#5736bd",
    "start_name": "북한동화장실",
    "length_meter": 148.1,
    "time_minute": 2
  },
  {
    "path_id": 31,
    "path": [
      {
        "lat": 37.653622,
        "lng": 126.956131
      },
      {
        "lat": 37.652645,
        "lng": 126.953842
      }
    ],
    "color": "#8c7bc5",
    "start_name": "대서문",
    "length_meter": 228.9,
    "time_minute": 3
  },
  {
    "path_id": 32,
    "path": [
      {
        "lat": 37.652645,
        "lng": 126.953842
      },
      {
        "lat": 37.652866,
        "lng": 126.951622
      }
    ],
    "color": "#80735c",
    "start_name": "용암사",
    "length_meter": 197.0,
    "time_minute": 3
  },
  {
    "path_id": 33,
    "path": [
      {
        "lat": 37.652866,
        "lng": 126.951622
      },
      {
        "lat": 37.65411,
        "lng": 126.951286
      }
    ],
    "color": "#0711e6",
    "start_name": "갈림길 54",
    "length_meter": 141.5,
    "time_minute": 2
  },
  {
    "path_id": 34,
    "path": [
      {
        "lat": 37.65411,
        "lng": 126.951286
      },
      {
        "lat": 37.655701,
        "lng": 126.949425
      }
    ],
    "color": "#ebd802",
    "start_name": "북한산성분소",
    "length_meter": 241.1,
    "time_minute": 4
  },
  {
    "path_id": 35,
    "path": [
      {
        "lat": 37.655701,
        "lng": 126.949425
      },
      {
        "lat": 37.657421,
        "lng": 126.94693
      }
    ],
    "color": "#472ff7",
    "start_name": "산들건강밥상",
    "length_meter": 291.2,
    "time_minute": 4
  },
  {
    "path_id": 36,
    "path": [
      {
        "lat": 37.657421,
        "lng": 126.94693
      },
      {
        "lat": 37.658298,
        "lng": 126.945427
      }
    ],
    "color": "#2d9ede",
    "start_name": "국내산장어도소매",
    "length_meter": 164.4,
    "time_minute": 2
  }
]