[
  {
    "path_id": 0,
    "path": [
      {
        "lat": 37.707336,
        "lng": 128.444427
      },
      {
        "lat": 37.707848,
        "lng": 128.444672
      }
    ],
    "color": "#c04b70",
    "start_name": "계방산 운두령 / 운두령 임특산물 홍보관 / 운두령쉼터",
    "length_meter": 71.5,
    "time_minute": 1
  },
  {
    "path_id": 1,
    "path": [
      {
        "lat": 37.707848,
        "lng": 128.444672
      },
      {
        "lat": 37.715153,
        "lng": 128.444855
      }
    ],
    "color": "#6ab974",
    "start_name": "입구안내",
    "length_meter": 812.4,
    "time_minute": 13
  },
  {
    "path_id": 2,
    "path": [
      {
        "lat": 37.715153,
        "lng": 128.444855
      },
      {
        "lat": 37.717545,
        "lng": 128.444778
      }
    ],
    "color": "#715059",
    "start_name": "물푸레나무",
    "length_meter": 266.1,
    "time_minute": 4
  },
  {
    "path_id": 3,
    "path": [
      {
        "lat": 37.717545,
        "lng": 128.444778
      },
      {
        "lat": 37.719555,
        "lng": 128.447235
      }
    ],
    "color": "#0cae16",
    "start_name": "갈림길",
    "length_meter": 310.9,
    "time_minute": 5
  },
  {
    "path_id": 4,
    "path": [
      {
        "lat": 37.719555,
        "lng": 128.447235
      },
      {
        "lat": 37.720856,
        "lng": 128.447662
      }
    ],
    "color": "#119d63",
    "start_name": "출입금지",
    "length_meter": 149.5,
    "time_minute": 2
  },
  {
    "path_id": 5,
    "path": [
      {
        "lat": 37.720856,
        "lng": 128.447662
      },
      {
        "lat": 37.722279,
        "lng": 128.448395
      }
    ],
    "color": "#487dc5",
    "start_name": "갈림길",
    "length_meter": 170.9,
    "time_minute": 2
  },
  {
    "path_id": 6,
    "path": [
      {
        "lat": 37.722279,
        "lng": 128.448395
      },
      {
        "lat": 37.722721,
        "lng": 128.448746
      }
    ],
    "color": "#5ec311",
    "start_name": "안내",
    "length_meter": 58.0,
    "time_minute": 0
  },
  {
    "path_id": 7,
    "path": [
      {
        "lat": 37.722721,
        "lng": 128.448746
      },
      {
        "lat": 37.724289,
        "lng": 128.450058
      }
    ],
    "color": "#167a0f",
    "start_name": "출입금지 안내",
    "length_meter": 209.1,
    "time_minute": 3
  },
  {
    "path_id": 8,
    "path": [
      {
        "lat": 37.724289,
        "lng": 128.450058
      },
      {
        "lat": 37.724842,
        "lng": 128.450836
      }
    ],
    "color": "#089a8e",
    "start_name": "갈림길",
    "length_meter": 92.0,
    "time_minute": 1
  },
  {
    "path_id": 9,
    "path": [
      {
        "lat": 37.724842,
        "lng": 128.450836
      },
      {
        "lat": 37.727524,
        "lng": 128.452789
      }
    ],
    "color": "#5880c7",
    "start_name": "키작은 나무들",
    "length_meter": 344.2,
    "time_minute": 5
  },
  {
    "path_id": 10,
    "path": [
      {
        "lat": 37.727524,
        "lng": 128.452789
      },
      {
        "lat": 37.730335,
        "lng": 128.45665
      }
    ],
    "color": "#44645a",
    "start_name": "금지행위안내",
    "length_meter": 461.5,
    "time_minute": 7
  },
  {
    "path_id": 11,
    "path": [
      {
        "lat": 37.730335,
        "lng": 128.45665
      },
      {
        "lat": 37.730759,
        "lng": 128.457245
      }
    ],
    "color": "#429c52",
    "start_name": "금지안내",
    "length_meter": 70.4,
    "time_minute": 1
  },
  {
    "path_id": 12,
    "path": [
      {
        "lat": 37.730759,
        "lng": 128.457245
      },
      {
        "lat": 37.730816,
        "lng": 128.457367
      }
    ],
    "color": "#536f0c",
    "start_name": "전망대 / 전망대안내판 / 야광나무",
    "length_meter": 20.7,
    "time_minute": 0
  },
  {
    "path_id": 13,
    "path": [
      {
        "lat": 37.730816,
        "lng": 128.457367
      },
      {
        "lat": 37.728405,
        "lng": 128.4655
      }
    ],
    "color": "#336731",
    "start_name": "전망대경관 / 갈림길",
    "length_meter": 764.1,
    "time_minute": 12
  },
  {
    "path_id": 14,
    "path": [
      {
        "lat": 37.728405,
        "lng": 128.4655
      },
      {
        "lat": 37.730831,
        "lng": 128.457565
      }
    ],
    "color": "#641292",
    "start_name": "계방산 / 정상경관",
    "length_meter": 753.8,
    "time_minute": 12
  },
  {
    "path_id": 15,
    "path": [
      {
        "lat": 37.730831,
        "lng": 128.457565
      },
      {
        "lat": 37.714569,
        "lng": 128.44516
      }
    ],
    "color": "#69b750",
    "start_name": "전망대에서 바라본 경관",
    "length_meter": 2111.9,
    "time_minute": 35
  },
  {
    "path_id": 16,
    "path": [
      {
        "lat": 37.714569,
        "lng": 128.44516
      },
      {
        "lat": 37.707275,
        "lng": 128.444473
      }
    ],
    "color": "#3ec434",
    "start_name": "참나무6형제",
    "length_meter": 813.3,
    "time_minute": 13
  }
]