{
  "max_ele": 1587.262,
  "total_length_km": "7.5km",
  "total_time": "1시간 33분",
  "track": [
    {
      "path_id": 0,
      "path": [
        {
          "lat": 37.707336,
          "lng": 128.444427
        },
        {
          "lat": 37.707848,
          "lng": 128.444672
        }
      ],
      "color": "#b39042",
      "start_name": "계방산 운두령 / 운두령 임특산물 홍보관 / 운두령쉼터",
      "length_meter": 71.5,
      "time_minute": 1
    },
    {
      "path_id": 1,
      "path": [
        {
          "lat": 37.707848,
          "lng": 128.444672
        },
        {
          "lat": 37.715153,
          "lng": 128.444855
        }
      ],
      "color": "#330488",
      "start_name": "입구안내 / 쉼터",
      "length_meter": 813.5,
      "time_minute": 13
    },
    {
      "path_id": 2,
      "path": [
        {
          "lat": 37.715153,
          "lng": 128.444855
        },
        {
          "lat": 37.717545,
          "lng": 128.444778
        }
      ],
      "color": "#3586a3",
      "start_name": "물푸레나무",
      "length_meter": 266.1,
      "time_minute": 3
    },
    {
      "path_id": 3,
      "path": [
        {
          "lat": 37.717545,
          "lng": 128.444778
        },
        {
          "lat": 37.719284,
          "lng": 128.446945
        }
      ],
      "color": "#1fb385",
      "start_name": "갈림길",
      "length_meter": 271.5,
      "time_minute": 3
    },
    {
      "path_id": 4,
      "path": [
        {
          "lat": 37.719284,
          "lng": 128.446945
        },
        {
          "lat": 37.719555,
          "lng": 128.447235
        }
      ],
      "color": "#222f20",
      "start_name": "쉼터",
      "length_meter": 39.5,
      "time_minute": 0
    },
    {
      "path_id": 5,
      "path": [
        {
          "lat": 37.719555,
          "lng": 128.447235
        },
        {
          "lat": 37.720856,
          "lng": 128.447662
        }
      ],
      "color": "#c4bc54",
      "start_name": "출입금지",
      "length_meter": 149.5,
      "time_minute": 1
    },
    {
      "path_id": 6,
      "path": [
        {
          "lat": 37.720856,
          "lng": 128.447662
        },
        {
          "lat": 37.722279,
          "lng": 128.448395
        }
      ],
      "color": "#72c446",
      "start_name": "갈림길",
      "length_meter": 170.9,
      "time_minute": 2
    },
    {
      "path_id": 7,
      "path": [
        {
          "lat": 37.722279,
          "lng": 128.448395
        },
        {
          "lat": 37.72427,
          "lng": 128.450012
        }
      ],
      "color": "#3c0451",
      "start_name": "안내 / 출입금지 안내",
      "length_meter": 263.1,
      "time_minute": 4
    },
    {
      "path_id": 8,
      "path": [
        {
          "lat": 37.72427,
          "lng": 128.450012
        },
        {
          "lat": 37.724842,
          "lng": 128.450836
        }
      ],
      "color": "#c7170c",
      "start_name": "쉼터 / 갈림길",
      "length_meter": 96.6,
      "time_minute": 1
    },
    {
      "path_id": 9,
      "path": [
        {
          "lat": 37.724842,
          "lng": 128.450836
        },
        {
          "lat": 37.725456,
          "lng": 128.451447
        }
      ],
      "color": "#68277e",
      "start_name": "키작은 나무들",
      "length_meter": 86.9,
      "time_minute": 1
    },
    {
      "path_id": 10,
      "path": [
        {
          "lat": 37.725456,
          "lng": 128.451447
        },
        {
          "lat": 37.727524,
          "lng": 128.452789
        }
      ],
      "color": "#651d68",
      "start_name": "쉼터",
      "length_meter": 258.5,
      "time_minute": 3
    },
    {
      "path_id": 11,
      "path": [
        {
          "lat": 37.727524,
          "lng": 128.452789
        },
        {
          "lat": 37.730335,
          "lng": 128.45665
        }
      ],
      "color": "#ad2503",
      "start_name": "금지행위안내",
      "length_meter": 461.5,
      "time_minute": 5
    },
    {
      "path_id": 12,
      "path": [
        {
          "lat": 37.730335,
          "lng": 128.45665
        },
        {
          "lat": 37.730831,
          "lng": 128.457382
        }
      ],
      "color": "#b70595",
      "start_name": "금지안내 / 전망대",
      "length_meter": 84.9,
      "time_minute": 1
    },
    {
      "path_id": 13,
      "path": [
        {
          "lat": 37.730831,
          "lng": 128.457382
        },
        {
          "lat": 37.730816,
          "lng": 128.457367
        }
      ],
      "color": "#1b3a8c",
      "start_name": "전망대안내판 / 야광나무",
      "length_meter": 6.2,
      "time_minute": 0
    },
    {
      "path_id": 14,
      "path": [
        {
          "lat": 37.730816,
          "lng": 128.457367
        },
        {
          "lat": 37.728405,
          "lng": 128.4655
        }
      ],
      "color": "#1ba477",
      "start_name": "전망대경관 / 갈림길",
      "length_meter": 764.1,
      "time_minute": 12
    },
    {
      "path_id": 15,
      "path": [
        {
          "lat": 37.728405,
          "lng": 128.4655
        },
        {
          "lat": 37.730831,
          "lng": 128.457565
        }
      ],
      "color": "#2444c6",
      "start_name": "계방산 / 정상경관",
      "length_meter": 753.8,
      "time_minute": 12
    },
    {
      "path_id": 16,
      "path": [
        {
          "lat": 37.730831,
          "lng": 128.457565
        },
        {
          "lat": 37.714569,
          "lng": 128.44516
        }
      ],
      "color": "#946e47",
      "start_name": "전망대에서 바라본 경관",
      "length_meter": 2111.9,
      "time_minute": 26
    },
    {
      "path_id": 17,
      "path": [
        {
          "lat": 37.714569,
          "lng": 128.44516
        },
        {
          "lat": 37.707275,
          "lng": 128.444473
        }
      ],
      "color": "#9c4a5e",
      "start_name": "참나무6형제",
      "length_meter": 813.3,
      "time_minute": 10
    }
  ]
}