{
  "max_ele": 1168.763,
  "track": [
    {
      "path_id": 1,
      "name": "진틀휴게소 주차장",
      "lat": 35.093365,
      "lon": 127.596336,
      "ele": 426.913
    },
    {
      "path_id": 2,
      "name": "화장실",
      "lat": 35.093342,
      "lon": 127.596352,
      "ele": 428.0
    },
    {
      "path_id": 3,
      "name": "진틀휴게소",
      "lat": 35.093769,
      "lon": 127.596443,
      "ele": 430.353
    },
    {
      "path_id": 4,
      "name": "진틀마을 버스정류장",
      "lat": 35.094315,
      "lon": 127.596619,
      "ele": 435.526
    },
    {
      "path_id": 5,
      "name": "광양 진틀 펜션 캠핑장",
      "lat": 35.096924,
      "lon": 127.601662,
      "ele": 503.228
    },
    {
      "path_id": 6,
      "name": "병암산장",
      "lat": 35.09687,
      "lon": 127.603745,
      "ele": 531.309
    },
    {
      "path_id": 7,
      "name": "숯가마터",
      "lat": 35.101505,
      "lon": 127.612984,
      "ele": 767.568
    },
    {
      "path_id": 8,
      "name": "갈림길 8",
      "lat": 35.101582,
      "lon": 127.613106,
      "ele": 769.965
    },
    {
      "path_id": 9,
      "name": "갈림길 13",
      "lat": 35.108337,
      "lon": 127.61776,
      "ele": 1141.224
    },
    {
      "path_id": 10,
      "name": "갈림길 14",
      "lat": 35.108677,
      "lon": 127.617844,
      "ele": 1149.662
    },
    {
      "path_id": 11,
      "name": "신선대",
      "lat": 35.108418,
      "lon": 127.617889,
      "ele": 1168.763
    }
  ]
}
