[
    {
        "name": "금수산 상학주차장 버스정류장",
        "lat": 36.975719,
        "lon": 128.274933
    },
    {
        "name": "상학주차장",
        "lat": 36.975479,
        "lon": 128.274689
    },
    {
        "name": "화장실",
        "lat": 36.976414,
        "lon": 128.274338
    },
    {
        "name": "대추나무집",
        "lat": 36.97728,
        "lon": 128.273529
    },
    {
        "name": "들머리",
        "lat": 36.978851,
        "lon": 128.269379
    },
    {
        "name": "갈림길",
        "lat": 36.978901,
        "lon": 128.269394
    },
    {
        "name": "갈림길",
        "lat": 36.980797,
        "lon": 128.267578
    },
    {
        "name": "대비사",
        "lat": 36.980644,
        "lon": 128.265945
    },
    {
        "name": "쉼터",
        "lat": 36.983791,
        "lon": 128.266388
    },
    {
        "name": "쉼터",
        "lat": 36.984837,
        "lon": 128.266266
    },
    {
        "name": "갈림길",
        "lat": 36.985901,
        "lon": 128.267044
    },
    {
        "name": "쉼터",
        "lat": 36.985909,
        "lon": 128.266998
    },
    {
        "name": "남근석공원",
        "lat": 36.985889,
        "lon": 128.26683
    },
    {
        "name": "쉼터",
        "lat": 36.985897,
        "lon": 128.266693
    },
    {
        "name": "갈림길",
        "lat": 36.985851,
        "lon": 128.265991
    },
    {
        "name": "옹달샘",
        "lat": 36.986027,
        "lon": 128.263458
    },
    {
        "name": "왕제비꽃 서식지",
        "lat": 36.98613,
        "lon": 128.263046
    },
    {
        "name": "갈림길",
        "lat": 36.986168,
        "lon": 128.26265
    },
    {
        "name": "설금전망대",
        "lat": 36.986786,
        "lon": 128.263672
    },
    {
        "name": "낙석주의지점",
        "lat": 36.985992,
        "lon": 128.258774
    },
    {
        "name": "낙석주의구간",
        "lat": 36.986458,
        "lon": 128.257004
    },
    {
        "name": "갈림길",
        "lat": 36.986546,
        "lon": 128.25589
    },
    {
        "name": "전망대",
        "lat": 36.986488,
        "lon": 128.255814
    },
    {
        "name": "금수산정상",
        "lat": 36.985016,
        "lon": 128.256775
    },
    {
        "name": "갈림길",
        "lat": 36.98204,
        "lon": 128.257004
    },
    {
        "name": "전망대",
        "lat": 36.981266,
        "lon": 128.258682
    },
    {
        "name": "갈림길",
        "lat": 36.97739,
        "lon": 128.264038
    },
    {
        "name": "금수산 들머리앞 주차장",
        "lat": 36.978764,
        "lon": 128.269806
    }
]