{
  "max_ele": 651.0,
  "total_length_km": "7.6km",
  "total_time": "1시간 35분",
  "start_name": "조소앙선생기념관입구",
  "end_name": "초록지기숲속체험장",
  "track": [
    {
      "path_id": 0,
      "path": [
        {
          "lat": 37.923279,
          "lng": 126.998695
        },
        {
          "lat": 37.922581,
          "lng": 126.997673
        }
      ],
      "color": "#a76641",
      "start_name": "조소앙선생기념관입구 / 양주 감악산 숲길,등산로 안내도 / 저수지",
      "length_meter": 127.2,
      "time_minute": 1
    },
    {
      "path_id": 1,
      "path": [
        {
          "lat": 37.922581,
          "lng": 126.997673
        },
        {
          "lat": 37.921597,
          "lng": 126.995453
        }
      ],
      "color": "#b59cbf",
      "start_name": "초록지기마을 정보센터, 체험관 / 갈림길",
      "length_meter": 223.6,
      "time_minute": 3
    },
    {
      "path_id": 2,
      "path": [
        {
          "lat": 37.921597,
          "lng": 126.995453
        },
        {
          "lat": 37.922352,
          "lng": 126.995476
        }
      ],
      "color": "#069237",
      "start_name": "조소앙선생 기념관 / 조소앙기념관 주차징",
      "length_meter": 86.8,
      "time_minute": 1
    },
    {
      "path_id": 3,
      "path": [
        {
          "lat": 37.922352,
          "lng": 126.995476
        },
        {
          "lat": 37.926418,
          "lng": 126.987183
        }
      ],
      "color": "#275551",
      "start_name": "양주황방리 느티나무",
      "length_meter": 856.5,
      "time_minute": 10
    },
    {
      "path_id": 4,
      "path": [
        {
          "lat": 37.926418,
          "lng": 126.987183
        },
        {
          "lat": 37.927807,
          "lng": 126.985901
        }
      ],
      "color": "#55c524",
      "start_name": "갈림길",
      "length_meter": 191.0,
      "time_minute": 2
    },
    {
      "path_id": 5,
      "path": [
        {
          "lat": 37.927807,
          "lng": 126.985901
        },
        {
          "lat": 37.932713,
          "lng": 126.985229
        }
      ],
      "color": "#8c4e74",
      "start_name": "원댕이 쉼터",
      "length_meter": 548.7,
      "time_minute": 6
    },
    {
      "path_id": 6,
      "path": [
        {
          "lat": 37.932713,
          "lng": 126.985229
        },
        {
          "lat": 37.93351,
          "lng": 126.984894
        }
      ],
      "color": "#9d764f",
      "start_name": "산불초소",
      "length_meter": 93.4,
      "time_minute": 1
    },
    {
      "path_id": 7,
      "path": [
        {
          "lat": 37.93351,
          "lng": 126.984894
        },
        {
          "lat": 37.935005,
          "lng": 126.982155
        }
      ],
      "color": "#65755a",
      "start_name": "갈림길",
      "length_meter": 292.1,
      "time_minute": 3
    },
    {
      "path_id": 8,
      "path": [
        {
          "lat": 37.935005,
          "lng": 126.982155
        },
        {
          "lat": 37.935238,
          "lng": 126.981415
        }
      ],
      "color": "#538754",
      "start_name": "절입구 화장실 / 사찰주차장",
      "length_meter": 88.4,
      "time_minute": 1
    },
    {
      "path_id": 9,
      "path": [
        {
          "lat": 37.935238,
          "lng": 126.981415
        },
        {
          "lat": 37.936256,
          "lng": 126.978287
        }
      ],
      "color": "#1e9a86",
      "start_name": "동광정사 / 등산로 입구",
      "length_meter": 305.5,
      "time_minute": 4
    },
    {
      "path_id": 10,
      "path": [
        {
          "lat": 37.936256,
          "lng": 126.978287
        },
        {
          "lat": 37.940754,
          "lng": 126.973557
        }
      ],
      "color": "#211a15",
      "start_name": "탁자",
      "length_meter": 649.8,
      "time_minute": 8
    },
    {
      "path_id": 11,
      "path": [
        {
          "lat": 37.940754,
          "lng": 126.973557
        },
        {
          "lat": 37.940414,
          "lng": 126.972969
        }
      ],
      "color": "#77c0c6",
      "start_name": "갈림길",
      "length_meter": 63.9,
      "time_minute": 0
    },
    {
      "path_id": 12,
      "path": [
        {
          "lat": 37.940414,
          "lng": 126.972969
        },
        {
          "lat": 37.941418,
          "lng": 126.973518
        }
      ],
      "color": "#c5368f",
      "start_name": "남선굴",
      "length_meter": 121.6,
      "time_minute": 1
    },
    {
      "path_id": 13,
      "path": [
        {
          "lat": 37.941418,
          "lng": 126.973518
        },
        {
          "lat": 37.941185,
          "lng": 126.972534
        }
      ],
      "color": "#30663f",
      "start_name": "갈림길 / 바위문",
      "length_meter": 90.7,
      "time_minute": 1
    },
    {
      "path_id": 14,
      "path": [
        {
          "lat": 37.941185,
          "lng": 126.972534
        },
        {
          "lat": 37.941307,
          "lng": 126.972015
        }
      ],
      "color": "#0dc560",
      "start_name": "천신",
      "length_meter": 47.5,
      "time_minute": 0
    },
    {
      "path_id": 15,
      "path": [
        {
          "lat": 37.941307,
          "lng": 126.972015
        },
        {
          "lat": 37.9398,
          "lng": 126.96933
        }
      ],
      "color": "#a56820",
      "start_name": "바위와 낭떠러지.",
      "length_meter": 289.0,
      "time_minute": 3
    },
    {
      "path_id": 16,
      "path": [
        {
          "lat": 37.9398,
          "lng": 126.96933
        },
        {
          "lat": 37.939419,
          "lng": 126.970131
        }
      ],
      "color": "#b4a3c1",
      "start_name": "갈림길",
      "length_meter": 82.0,
      "time_minute": 1
    },
    {
      "path_id": 17,
      "path": [
        {
          "lat": 37.939419,
          "lng": 126.970131
        },
        {
          "lat": 37.938637,
          "lng": 126.970467
        }
      ],
      "color": "#b28444",
      "start_name": "숯가마터",
      "length_meter": 91.8,
      "time_minute": 1
    },
    {
      "path_id": 18,
      "path": [
        {
          "lat": 37.938637,
          "lng": 126.970467
        },
        {
          "lat": 37.937737,
          "lng": 126.971992
        }
      ],
      "color": "#2a6963",
      "start_name": "갈림길",
      "length_meter": 167.0,
      "time_minute": 2
    },
    {
      "path_id": 19,
      "path": [
        {
          "lat": 37.937737,
          "lng": 126.971992
        },
        {
          "lat": 37.934071,
          "lng": 126.979668
        }
      ],
      "color": "#1817c2",
      "start_name": "일편단심소나무",
      "length_meter": 787.0,
      "time_minute": 9
    },
    {
      "path_id": 20,
      "path": [
        {
          "lat": 37.934071,
          "lng": 126.979668
        },
        {
          "lat": 37.929081,
          "lng": 126.984184
        }
      ],
      "color": "#951272",
      "start_name": "갈림길",
      "length_meter": 681.7,
      "time_minute": 8
    },
    {
      "path_id": 21,
      "path": [
        {
          "lat": 37.929081,
          "lng": 126.984184
        },
        {
          "lat": 37.922211,
          "lng": 126.986198
        }
      ],
      "color": "#c01385",
      "start_name": "감로사",
      "length_meter": 784.1,
      "time_minute": 9
    },
    {
      "path_id": 22,
      "path": [
        {
          "lat": 37.922211,
          "lng": 126.986198
        },
        {
          "lat": 37.918194,
          "lng": 126.989861
        }
      ],
      "color": "#847909",
      "start_name": "원당저수지",
      "length_meter": 550.2,
      "time_minute": 6
    },
    {
      "path_id": 23,
      "path": [
        {
          "lat": 37.918194,
          "lng": 126.989861
        },
        {
          "lat": 37.918583,
          "lng": 126.990875
        }
      ],
      "color": "#60c73d",
      "start_name": "갈림길",
      "length_meter": 98.9,
      "time_minute": 1
    },
    {
      "path_id": 24,
      "path": [
        {
          "lat": 37.918583,
          "lng": 126.990875
        },
        {
          "lat": 37.919945,
          "lng": 126.993996
        }
      ],
      "color": "#1b7187",
      "start_name": "의자 / 갈림길",
      "length_meter": 315.4,
      "time_minute": 5
    }
  ]
}