[
  {
    "path_id": 0,
    "path": [
      {
        "lat": 37.923279,
        "lng": 126.998695
      },
      {
        "lat": 37.922764,
        "lng": 126.998306
      }
    ],
    "color": "#c4477e",
    "start_name": "조소앙선생기념관입구 / 양주 감악산 숲길,등산로 안내도",
    "length_meter": 68.1,
    "time_minute": 1
  },
  {
    "path_id": 1,
    "path": [
      {
        "lat": 37.922764,
        "lng": 126.998306
      },
      {
        "lat": 37.922581,
        "lng": 126.997673
      }
    ],
    "color": "#6a3f91",
    "start_name": "저수지",
    "length_meter": 59.1,
    "time_minute": 0
  },
  {
    "path_id": 2,
    "path": [
      {
        "lat": 37.922581,
        "lng": 126.997673
      },
      {
        "lat": 37.921597,
        "lng": 126.995453
      }
    ],
    "color": "#7c92b5",
    "start_name": "초록지기마을 정보센터, 체험관 / 갈림길",
    "length_meter": 223.6,
    "time_minute": 3
  },
  {
    "path_id": 3,
    "path": [
      {
        "lat": 37.921597,
        "lng": 126.995453
      },
      {
        "lat": 37.922352,
        "lng": 126.995476
      }
    ],
    "color": "#84374f",
    "start_name": "조소앙선생 기념관 / 조소앙기념관 주차징",
    "length_meter": 86.8,
    "time_minute": 1
  },
  {
    "path_id": 4,
    "path": [
      {
        "lat": 37.922352,
        "lng": 126.995476
      },
      {
        "lat": 37.926418,
        "lng": 126.987183
      }
    ],
    "color": "#673420",
    "start_name": "양주황방리 느티나무",
    "length_meter": 856.5,
    "time_minute": 14
  },
  {
    "path_id": 5,
    "path": [
      {
        "lat": 37.926418,
        "lng": 126.987183
      },
      {
        "lat": 37.927807,
        "lng": 126.985901
      }
    ],
    "color": "#9062c2",
    "start_name": "갈림길",
    "length_meter": 191.0,
    "time_minute": 3
  },
  {
    "path_id": 6,
    "path": [
      {
        "lat": 37.927807,
        "lng": 126.985901
      },
      {
        "lat": 37.932713,
        "lng": 126.985229
      }
    ],
    "color": "#0e03a5",
    "start_name": "원댕이 쉼터",
    "length_meter": 548.7,
    "time_minute": 9
  },
  {
    "path_id": 7,
    "path": [
      {
        "lat": 37.932713,
        "lng": 126.985229
      },
      {
        "lat": 37.93351,
        "lng": 126.984894
      }
    ],
    "color": "#834d10",
    "start_name": "산불초소",
    "length_meter": 93.4,
    "time_minute": 1
  },
  {
    "path_id": 8,
    "path": [
      {
        "lat": 37.93351,
        "lng": 126.984894
      },
      {
        "lat": 37.935005,
        "lng": 126.982155
      }
    ],
    "color": "#9ca27b",
    "start_name": "갈림길",
    "length_meter": 292.1,
    "time_minute": 4
  },
  {
    "path_id": 9,
    "path": [
      {
        "lat": 37.935005,
        "lng": 126.982155
      },
      {
        "lat": 37.935062,
        "lng": 126.981377
      }
    ],
    "color": "#bd99ad",
    "start_name": "절입구 화장실",
    "length_meter": 68.5,
    "time_minute": 1
  },
  {
    "path_id": 10,
    "path": [
      {
        "lat": 37.935062,
        "lng": 126.981377
      },
      {
        "lat": 37.935169,
        "lng": 126.980835
      }
    ],
    "color": "#578c5a",
    "start_name": "사찰주차장 / 동광정사",
    "length_meter": 71.3,
    "time_minute": 1
  },
  {
    "path_id": 11,
    "path": [
      {
        "lat": 37.935169,
        "lng": 126.980835
      },
      {
        "lat": 37.936256,
        "lng": 126.978287
      }
    ],
    "color": "#b9490f",
    "start_name": "등산로 입구",
    "length_meter": 254.1,
    "time_minute": 4
  },
  {
    "path_id": 12,
    "path": [
      {
        "lat": 37.936256,
        "lng": 126.978287
      },
      {
        "lat": 37.940754,
        "lng": 126.973557
      }
    ],
    "color": "#335e6c",
    "start_name": "탁자",
    "length_meter": 649.8,
    "time_minute": 10
  },
  {
    "path_id": 13,
    "path": [
      {
        "lat": 37.940754,
        "lng": 126.973557
      },
      {
        "lat": 37.940414,
        "lng": 126.972969
      }
    ],
    "color": "#123c7b",
    "start_name": "갈림길",
    "length_meter": 63.9,
    "time_minute": 1
  },
  {
    "path_id": 14,
    "path": [
      {
        "lat": 37.940414,
        "lng": 126.972969
      },
      {
        "lat": 37.941418,
        "lng": 126.973518
      }
    ],
    "color": "#138433",
    "start_name": "남선굴",
    "length_meter": 121.6,
    "time_minute": 2
  },
  {
    "path_id": 15,
    "path": [
      {
        "lat": 37.941418,
        "lng": 126.973518
      },
      {
        "lat": 37.941185,
        "lng": 126.972534
      }
    ],
    "color": "#033ca0",
    "start_name": "갈림길 / 바위문",
    "length_meter": 90.7,
    "time_minute": 1
  },
  {
    "path_id": 16,
    "path": [
      {
        "lat": 37.941185,
        "lng": 126.972534
      },
      {
        "lat": 37.941307,
        "lng": 126.972015
      }
    ],
    "color": "#101533",
    "start_name": "천신",
    "length_meter": 47.5,
    "time_minute": 0
  },
  {
    "path_id": 17,
    "path": [
      {
        "lat": 37.941307,
        "lng": 126.972015
      },
      {
        "lat": 37.9398,
        "lng": 126.96933
      }
    ],
    "color": "#50797c",
    "start_name": "바위와 낭떠러지.",
    "length_meter": 289.0,
    "time_minute": 4
  },
  {
    "path_id": 18,
    "path": [
      {
        "lat": 37.9398,
        "lng": 126.96933
      },
      {
        "lat": 37.939419,
        "lng": 126.970131
      }
    ],
    "color": "#c08481",
    "start_name": "갈림길",
    "length_meter": 82.0,
    "time_minute": 1
  },
  {
    "path_id": 19,
    "path": [
      {
        "lat": 37.939419,
        "lng": 126.970131
      },
      {
        "lat": 37.938637,
        "lng": 126.970467
      }
    ],
    "color": "#293ba4",
    "start_name": "숯가마터",
    "length_meter": 91.8,
    "time_minute": 1
  },
  {
    "path_id": 20,
    "path": [
      {
        "lat": 37.938637,
        "lng": 126.970467
      },
      {
        "lat": 37.937737,
        "lng": 126.971992
      }
    ],
    "color": "#b76451",
    "start_name": "갈림길",
    "length_meter": 167.0,
    "time_minute": 2
  },
  {
    "path_id": 21,
    "path": [
      {
        "lat": 37.937737,
        "lng": 126.971992
      },
      {
        "lat": 37.934071,
        "lng": 126.979668
      }
    ],
    "color": "#0b4e80",
    "start_name": "일편단심소나무",
    "length_meter": 787.0,
    "time_minute": 13
  },
  {
    "path_id": 22,
    "path": [
      {
        "lat": 37.934071,
        "lng": 126.979668
      },
      {
        "lat": 37.929081,
        "lng": 126.984184
      }
    ],
    "color": "#1b5614",
    "start_name": "갈림길",
    "length_meter": 681.7,
    "time_minute": 11
  },
  {
    "path_id": 23,
    "path": [
      {
        "lat": 37.929081,
        "lng": 126.984184
      },
      {
        "lat": 37.922211,
        "lng": 126.986198
      }
    ],
    "color": "#4e4658",
    "start_name": "감로사",
    "length_meter": 784.1,
    "time_minute": 13
  },
  {
    "path_id": 24,
    "path": [
      {
        "lat": 37.922211,
        "lng": 126.986198
      },
      {
        "lat": 37.918194,
        "lng": 126.989861
      }
    ],
    "color": "#2f742d",
    "start_name": "원당저수지",
    "length_meter": 550.2,
    "time_minute": 9
  },
  {
    "path_id": 25,
    "path": [
      {
        "lat": 37.918194,
        "lng": 126.989861
      },
      {
        "lat": 37.918583,
        "lng": 126.990875
      }
    ],
    "color": "#a7ab1c",
    "start_name": "갈림길",
    "length_meter": 98.9,
    "time_minute": 1
  },
  {
    "path_id": 26,
    "path": [
      {
        "lat": 37.918583,
        "lng": 126.990875
      },
      {
        "lat": 37.919945,
        "lng": 126.993996
      }
    ],
    "color": "#03189e",
    "start_name": "의자 / 갈림길",
    "length_meter": 315.4,
    "time_minute": 5
  }
]