[
  {
    "path_id": 0,
    "path": [
      {
        "lat": 37.46629,
        "lng": 129.031189
      },
      {
        "lat": 37.466011,
        "lng": 129.030685
      }
    ],
    "color": "#37beff",
    "start_name": "무릉계곡입구 / 간이화장실 / 제3주차장,대형,아스팔트",
    "length_meter": 84.0,
    "time_minute": 1
  },
  {
    "path_id": 1,
    "path": [
      {
        "lat": 37.466011,
        "lng": 129.030685
      },
      {
        "lat": 37.465176,
        "lng": 129.028809
      }
    ],
    "color": "#5172b7",
    "start_name": "동해무릉건강숲",
    "length_meter": 189.8,
    "time_minute": 3
  },
  {
    "path_id": 2,
    "path": [
      {
        "lat": 37.465176,
        "lng": 129.028809
      },
      {
        "lat": 37.465088,
        "lng": 129.027237
      }
    ],
    "color": "#9c91f4",
    "start_name": "소형주차장 / 갈림길",
    "length_meter": 139.1,
    "time_minute": 2
  },
  {
    "path_id": 3,
    "path": [
      {
        "lat": 37.465088,
        "lng": 129.027237
      },
      {
        "lat": 37.464382,
        "lng": 129.024521
      }
    ],
    "color": "#896574",
    "start_name": "간이휴게소",
    "length_meter": 252.2,
    "time_minute": 4
  },
  {
    "path_id": 4,
    "path": [
      {
        "lat": 37.464382,
        "lng": 129.024521
      },
      {
        "lat": 37.46373,
        "lng": 129.024338
      }
    ],
    "color": "#84e498",
    "start_name": "호암소 / 갈림길",
    "length_meter": 105.2,
    "time_minute": 1
  },
  {
    "path_id": 5,
    "path": [
      {
        "lat": 37.46373,
        "lng": 129.024338
      },
      {
        "lat": 37.463997,
        "lng": 129.023605
      }
    ],
    "color": "#5f3847",
    "start_name": "무릉계곡갬핑장 / 제2주차장",
    "length_meter": 96.6,
    "time_minute": 1
  },
  {
    "path_id": 6,
    "path": [
      {
        "lat": 37.463997,
        "lng": 129.023605
      },
      {
        "lat": 37.463554,
        "lng": 129.022812
      }
    ],
    "color": "#665905",
    "start_name": "1주차장",
    "length_meter": 85.6,
    "time_minute": 1
  },
  {
    "path_id": 7,
    "path": [
      {
        "lat": 37.463554,
        "lng": 129.022812
      },
      {
        "lat": 37.463444,
        "lng": 129.020889
      }
    ],
    "color": "#c27c13",
    "start_name": "1주차장화장실 / 무릉계곡정류장",
    "length_meter": 183.6,
    "time_minute": 3
  },
  {
    "path_id": 8,
    "path": [
      {
        "lat": 37.463444,
        "lng": 129.020889
      },
      {
        "lat": 37.463345,
        "lng": 129.019562
      }
    ],
    "color": "#3f42be",
    "start_name": "먹자거리화장실 / 무릉광장",
    "length_meter": 118.0,
    "time_minute": 1
  },
  {
    "path_id": 9,
    "path": [
      {
        "lat": 37.463345,
        "lng": 129.019562
      },
      {
        "lat": 37.463055,
        "lng": 129.018738
      }
    ],
    "color": "#0d8709",
    "start_name": "무릉계곡안내소,매표소 / 관리소화장실",
    "length_meter": 89.0,
    "time_minute": 1
  },
  {
    "path_id": 10,
    "path": [
      {
        "lat": 37.463055,
        "lng": 129.018738
      },
      {
        "lat": 37.461876,
        "lng": 129.018036
      }
    ],
    "color": "#b18e5c",
    "start_name": "갈림길 / 간이휴게소 / 갈림길",
    "length_meter": 148.1,
    "time_minute": 2
  },
  {
    "path_id": 11,
    "path": [
      {
        "lat": 37.461876,
        "lng": 129.018036
      },
      {
        "lat": 37.461117,
        "lng": 129.017487
      }
    ],
    "color": "#4122f4",
    "start_name": "출입통제",
    "length_meter": 97.3,
    "time_minute": 1
  },
  {
    "path_id": 12,
    "path": [
      {
        "lat": 37.461117,
        "lng": 129.017487
      },
      {
        "lat": 37.460979,
        "lng": 129.014801
      }
    ],
    "color": "#0d1603",
    "start_name": "숯가마터 / 출입통제",
    "length_meter": 267.4,
    "time_minute": 4
  },
  {
    "path_id": 13,
    "path": [
      {
        "lat": 37.460979,
        "lng": 129.014801
      },
      {
        "lat": 37.457851,
        "lng": 129.013046
      }
    ],
    "color": "#ee941d",
    "start_name": "갈림길",
    "length_meter": 380.8,
    "time_minute": 6
  },
  {
    "path_id": 14,
    "path": [
      {
        "lat": 37.457851,
        "lng": 129.013046
      },
      {
        "lat": 37.456947,
        "lng": 129.012772
      }
    ],
    "color": "#283b4c",
    "start_name": "군락지",
    "length_meter": 103.4,
    "time_minute": 1
  },
  {
    "path_id": 15,
    "path": [
      {
        "lat": 37.456947,
        "lng": 129.012772
      },
      {
        "lat": 37.456711,
        "lng": 129.013397
      }
    ],
    "color": "#d12307",
    "start_name": "갈림길 / 베틀바위전망대",
    "length_meter": 112.8,
    "time_minute": 1
  },
  {
    "path_id": 16,
    "path": [
      {
        "lat": 37.456711,
        "lng": 129.013397
      },
      {
        "lat": 37.455879,
        "lng": 129.013412
      }
    ],
    "color": "#3dd7a5",
    "start_name": "갈림길 / 미륵바위",
    "length_meter": 128.1,
    "time_minute": 2
  },
  {
    "path_id": 17,
    "path": [
      {
        "lat": 37.455879,
        "lng": 129.013412
      },
      {
        "lat": 37.460621,
        "lng": 129.007858
      }
    ],
    "color": "#ab25e9",
    "start_name": "갈림길",
    "length_meter": 720.0,
    "time_minute": 11
  },
  {
    "path_id": 18,
    "path": [
      {
        "lat": 37.460621,
        "lng": 129.007858
      },
      {
        "lat": 37.462029,
        "lng": 129.011642
      }
    ],
    "color": "#805d17",
    "start_name": "학소대",
    "length_meter": 368.9,
    "time_minute": 6
  },
  {
    "path_id": 19,
    "path": [
      {
        "lat": 37.462029,
        "lng": 129.011642
      },
      {
        "lat": 37.46299,
        "lng": 129.013565
      }
    ],
    "color": "#0eef8c",
    "start_name": "갈림길",
    "length_meter": 200.6,
    "time_minute": 3
  },
  {
    "path_id": 20,
    "path": [
      {
        "lat": 37.46299,
        "lng": 129.013565
      },
      {
        "lat": 37.463238,
        "lng": 129.014221
      }
    ],
    "color": "#c7366a",
    "start_name": "간이휴게소",
    "length_meter": 64.1,
    "time_minute": 1
  },
  {
    "path_id": 21,
    "path": [
      {
        "lat": 37.463238,
        "lng": 129.014221
      },
      {
        "lat": 37.463356,
        "lng": 129.015945
      }
    ],
    "color": "#dcd648",
    "start_name": "삼화사간이쉼터 / 삼화사",
    "length_meter": 192.3,
    "time_minute": 3
  },
  {
    "path_id": 22,
    "path": [
      {
        "lat": 37.463356,
        "lng": 129.015945
      },
      {
        "lat": 37.463337,
        "lng": 129.016769
      }
    ],
    "color": "#9362e8",
    "start_name": "간이휴게소",
    "length_meter": 72.8,
    "time_minute": 1
  },
  {
    "path_id": 23,
    "path": [
      {
        "lat": 37.463337,
        "lng": 129.016769
      },
      {
        "lat": 37.463203,
        "lng": 129.0177
      }
    ],
    "color": "#b547b2",
    "start_name": "무릉반석 / 금란정",
    "length_meter": 84.3,
    "time_minute": 1
  },
  {
    "path_id": 24,
    "path": [
      {
        "lat": 37.463203,
        "lng": 129.0177
      },
      {
        "lat": 37.463676,
        "lng": 129.021866
      }
    ],
    "color": "#7f1fa4",
    "start_name": "최인희시비(낙조) / 무릉숲작은무대",
    "length_meter": 374.6,
    "time_minute": 6
  },
  {
    "path_id": 25,
    "path": [
      {
        "lat": 37.463676,
        "lng": 129.021866
      },
      {
        "lat": 37.463867,
        "lng": 129.022964
      }
    ],
    "color": "#30d52c",
    "start_name": "먹자거리(200여미터) / 무릉휴게소(복합건물)",
    "length_meter": 99.3,
    "time_minute": 1
  }
]