[
  {
    "path_id": 0,
    "path": [
      {
        "lat": 36.532185,
        "lng": 127.823181
      },
      {
        "lat": 36.534973,
        "lng": 127.827721
      }
    ],
    "color": "#e2fbb1",
    "start_name": "식당골목",
    "length_meter": 510.5,
    "time_minute": 8
  },
  {
    "path_id": 1,
    "path": [
      {
        "lat": 36.534973,
        "lng": 127.827721
      },
      {
        "lat": 36.538124,
        "lng": 127.829819
      }
    ],
    "color": "#eab4e7",
    "start_name": "연꽃화장싵 / 매표소",
    "length_meter": 409.4,
    "time_minute": 6
  },
  {
    "path_id": 2,
    "path": [
      {
        "lat": 36.538124,
        "lng": 127.829819
      },
      {
        "lat": 36.539955,
        "lng": 127.835587
      }
    ],
    "color": "#bc2bf4",
    "start_name": "갈림길",
    "length_meter": 554.1,
    "time_minute": 9
  },
  {
    "path_id": 3,
    "path": [
      {
        "lat": 36.539955,
        "lng": 127.835587
      },
      {
        "lat": 36.538128,
        "lng": 127.843216
      }
    ],
    "color": "#bb431b",
    "start_name": "남산화장실",
    "length_meter": 711.2,
    "time_minute": 11
  },
  {
    "path_id": 4,
    "path": [
      {
        "lat": 36.538128,
        "lng": 127.843216
      },
      {
        "lat": 36.542076,
        "lng": 127.846542
      }
    ],
    "color": "#d36497",
    "start_name": "매점",
    "length_meter": 530.1,
    "time_minute": 8
  },
  {
    "path_id": 5,
    "path": [
      {
        "lat": 36.542076,
        "lng": 127.846542
      },
      {
        "lat": 36.547794,
        "lng": 127.853149
      }
    ],
    "color": "#1c872b",
    "start_name": "간이화장실 / 탈골암화장실 / 갈림길",
    "length_meter": 869.3,
    "time_minute": 14
  },
  {
    "path_id": 6,
    "path": [
      {
        "lat": 36.547794,
        "lng": 127.853149
      },
      {
        "lat": 36.553207,
        "lng": 127.851959
      }
    ],
    "color": "#cc341c",
    "start_name": "세심정 / 세심정화장실",
    "length_meter": 613.6,
    "time_minute": 10
  },
  {
    "path_id": 7,
    "path": [
      {
        "lat": 36.553207,
        "lng": 127.851959
      },
      {
        "lat": 36.557579,
        "lng": 127.850754
      }
    ],
    "color": "#c3c6c7",
    "start_name": "매점",
    "length_meter": 497.9,
    "time_minute": 8
  },
  {
    "path_id": 8,
    "path": [
      {
        "lat": 36.557579,
        "lng": 127.850754
      },
      {
        "lat": 36.55941,
        "lng": 127.852943
      }
    ],
    "color": "#c4ca8f",
    "start_name": "보현재 휴게소",
    "length_meter": 282.3,
    "time_minute": 4
  },
  {
    "path_id": 9,
    "path": [
      {
        "lat": 36.55941,
        "lng": 127.852943
      },
      {
        "lat": 36.560253,
        "lng": 127.853661
      }
    ],
    "color": "#420f07",
    "start_name": "낙석위험지역",
    "length_meter": 113.6,
    "time_minute": 1
  },
  {
    "path_id": 10,
    "path": [
      {
        "lat": 36.560253,
        "lng": 127.853661
      },
      {
        "lat": 36.559944,
        "lng": 127.856514
      }
    ],
    "color": "#901888",
    "start_name": "갈림길",
    "length_meter": 257.1,
    "time_minute": 4
  },
  {
    "path_id": 11,
    "path": [
      {
        "lat": 36.559944,
        "lng": 127.856514
      },
      {
        "lat": 36.561436,
        "lng": 127.859055
      }
    ],
    "color": "#0e0aee",
    "start_name": "낙석주의",
    "length_meter": 281.1,
    "time_minute": 4
  },
  {
    "path_id": 12,
    "path": [
      {
        "lat": 36.561436,
        "lng": 127.859055
      },
      {
        "lat": 36.56588,
        "lng": 127.862663
      }
    ],
    "color": "#c987f0",
    "start_name": "냉천골 휴게소",
    "length_meter": 589.9,
    "time_minute": 9
  },
  {
    "path_id": 13,
    "path": [
      {
        "lat": 36.56588,
        "lng": 127.862663
      },
      {
        "lat": 36.567348,
        "lng": 127.862366
      }
    ],
    "color": "#41ac09",
    "start_name": "낙뢰다발지역 / 안내판",
    "length_meter": 167.7,
    "time_minute": 2
  },
  {
    "path_id": 14,
    "path": [
      {
        "lat": 36.567348,
        "lng": 127.862366
      },
      {
        "lat": 36.566193,
        "lng": 127.862762
      }
    ],
    "color": "#221c28",
    "start_name": "문장대",
    "length_meter": 133.2,
    "time_minute": 2
  },
  {
    "path_id": 15,
    "path": [
      {
        "lat": 36.566193,
        "lng": 127.862762
      },
      {
        "lat": 36.560333,
        "lng": 127.869499
      }
    ],
    "color": "#20effb",
    "start_name": "갈림길",
    "length_meter": 886.9,
    "time_minute": 14
  },
  {
    "path_id": 16,
    "path": [
      {
        "lat": 36.560333,
        "lng": 127.869499
      },
      {
        "lat": 36.559113,
        "lng": 127.870705
      }
    ],
    "color": "#22cb10",
    "start_name": "신선대휴게소",
    "length_meter": 173.2,
    "time_minute": 2
  },
  {
    "path_id": 17,
    "path": [
      {
        "lat": 36.559113,
        "lng": 127.870705
      },
      {
        "lat": 36.550201,
        "lng": 127.871712
      }
    ],
    "color": "#a16a73",
    "start_name": "갈림길",
    "length_meter": 995.0,
    "time_minute": 16
  },
  {
    "path_id": 18,
    "path": [
      {
        "lat": 36.550201,
        "lng": 127.871712
      },
      {
        "lat": 36.547779,
        "lng": 127.871735
      }
    ],
    "color": "#7c51b0",
    "start_name": "자연경관",
    "length_meter": 269.3,
    "time_minute": 4
  },
  {
    "path_id": 19,
    "path": [
      {
        "lat": 36.547779,
        "lng": 127.871735
      },
      {
        "lat": 36.543209,
        "lng": 127.870796
      }
    ],
    "color": "#e64b98",
    "start_name": "갈림길",
    "length_meter": 515.0,
    "time_minute": 8
  },
  {
    "path_id": 20,
    "path": [
      {
        "lat": 36.543209,
        "lng": 127.870796
      },
      {
        "lat": 36.549946,
        "lng": 127.867653
      }
    ],
    "color": "#826cfc",
    "start_name": "천왕봉",
    "length_meter": 800.0,
    "time_minute": 13
  },
  {
    "path_id": 21,
    "path": [
      {
        "lat": 36.549946,
        "lng": 127.867653
      },
      {
        "lat": 36.547451,
        "lng": 127.861305
      }
    ],
    "color": "#03c5bc",
    "start_name": "갈림길",
    "length_meter": 631.3,
    "time_minute": 10
  },
  {
    "path_id": 22,
    "path": [
      {
        "lat": 36.547451,
        "lng": 127.861305
      },
      {
        "lat": 36.5471,
        "lng": 127.859398
      }
    ],
    "color": "#c233c5",
    "start_name": "상황석문",
    "length_meter": 174.8,
    "time_minute": 2
  }
]