[
  {
    "path_id": 0,
    "path": [
      {
        "lat": 36.532185,
        "lng": 127.823181
      },
      {
        "lat": 36.534973,
        "lng": 127.827721
      }
    ],
    "color": "#9563d2",
    "start_point_name": "식당골목",
    "length": 510,
    "time": "8"
  },
  {
    "path_id": 1,
    "path": [
      {
        "lat": 36.534973,
        "lng": 127.827721
      },
      {
        "lat": 36.534912,
        "lng": 127.827766
      }
    ],
    "color": "#517e7a",
    "start_point_name": "연꽃화장싵",
    "length": 7,
    "time": "0"
  },
  {
    "path_id": 2,
    "path": [
      {
        "lat": 36.534912,
        "lng": 127.827766
      },
      {
        "lat": 36.538124,
        "lng": 127.829819
      }
    ],
    "color": "#f2561a",
    "start_point_name": "매표소",
    "length": 401,
    "time": "6"
  },
  {
    "path_id": 3,
    "path": [
      {
        "lat": 36.538124,
        "lng": 127.829819
      },
      {
        "lat": 36.539955,
        "lng": 127.835587
      }
    ],
    "color": "#e6557d",
    "start_point_name": "갈림길 4",
    "length": 554,
    "time": "9"
  },
  {
    "path_id": 4,
    "path": [
      {
        "lat": 36.539955,
        "lng": 127.835587
      },
      {
        "lat": 36.538128,
        "lng": 127.843216
      }
    ],
    "color": "#1adba0",
    "start_point_name": "남산화장실",
    "length": 711,
    "time": "11"
  },
  {
    "path_id": 5,
    "path": [
      {
        "lat": 36.538128,
        "lng": 127.843216
      },
      {
        "lat": 36.542076,
        "lng": 127.846542
      }
    ],
    "color": "#5e6852",
    "start_point_name": "매점",
    "length": 530,
    "time": "8"
  },
  {
    "path_id": 6,
    "path": [
      {
        "lat": 36.542076,
        "lng": 127.846542
      },
      {
        "lat": 36.542263,
        "lng": 127.846733
      }
    ],
    "color": "#a6a229",
    "start_point_name": "간이화장실",
    "length": 26,
    "time": "0"
  },
  {
    "path_id": 7,
    "path": [
      {
        "lat": 36.542263,
        "lng": 127.846733
      },
      {
        "lat": 36.542294,
        "lng": 127.846863
      }
    ],
    "color": "#9ddc3b",
    "start_point_name": "탈골암화장실",
    "length": 12,
    "time": "0"
  },
  {
    "path_id": 8,
    "path": [
      {
        "lat": 36.542294,
        "lng": 127.846863
      },
      {
        "lat": 36.547489,
        "lng": 127.853043
      }
    ],
    "color": "#74e840",
    "start_point_name": "갈림길 9",
    "length": 799,
    "time": "13"
  },
  {
    "path_id": 9,
    "path": [
      {
        "lat": 36.547489,
        "lng": 127.853043
      },
      {
        "lat": 36.547794,
        "lng": 127.853149
      }
    ],
    "color": "#325662",
    "start_point_name": "갈림길 10",
    "length": 35,
    "time": "0"
  },
  {
    "path_id": 10,
    "path": [
      {
        "lat": 36.547794,
        "lng": 127.853149
      },
      {
        "lat": 36.548233,
        "lng": 127.853218
      }
    ],
    "color": "#5a07e8",
    "start_point_name": "세심정",
    "length": 49,
    "time": "0"
  },
  {
    "path_id": 11,
    "path": [
      {
        "lat": 36.548233,
        "lng": 127.853218
      },
      {
        "lat": 36.553207,
        "lng": 127.851959
      }
    ],
    "color": "#2d28a1",
    "start_point_name": "세심정화장실",
    "length": 564,
    "time": "9"
  },
  {
    "path_id": 12,
    "path": [
      {
        "lat": 36.553207,
        "lng": 127.851959
      },
      {
        "lat": 36.557579,
        "lng": 127.850754
      }
    ],
    "color": "#19ca71",
    "start_point_name": "매점",
    "length": 497,
    "time": "8"
  },
  {
    "path_id": 13,
    "path": [
      {
        "lat": 36.557579,
        "lng": 127.850754
      },
      {
        "lat": 36.55941,
        "lng": 127.852943
      }
    ],
    "color": "#7632e0",
    "start_point_name": "보현재 휴게소",
    "length": 282,
    "time": "4"
  },
  {
    "path_id": 14,
    "path": [
      {
        "lat": 36.55941,
        "lng": 127.852943
      },
      {
        "lat": 36.560253,
        "lng": 127.853661
      }
    ],
    "color": "#6e2c8d",
    "start_point_name": "낙석위험지역",
    "length": 113,
    "time": "1"
  },
  {
    "path_id": 15,
    "path": [
      {
        "lat": 36.560253,
        "lng": 127.853661
      },
      {
        "lat": 36.559944,
        "lng": 127.856514
      }
    ],
    "color": "#d92570",
    "start_point_name": "갈림길 16",
    "length": 257,
    "time": "4"
  },
  {
    "path_id": 16,
    "path": [
      {
        "lat": 36.559944,
        "lng": 127.856514
      },
      {
        "lat": 36.559944,
        "lng": 127.856514
      }
    ],
    "color": "#f7394f",
    "start_point_name": "낙석주의",
    "length": 0,
    "time": "0"
  },
  {
    "path_id": 17,
    "path": [
      {
        "lat": 36.559944,
        "lng": 127.856514
      },
      {
        "lat": 36.560471,
        "lng": 127.858109
      }
    ],
    "color": "#8ca70d",
    "start_point_name": "낙석주의",
    "length": 154,
    "time": "2"
  },
  {
    "path_id": 18,
    "path": [
      {
        "lat": 36.560471,
        "lng": 127.858109
      },
      {
        "lat": 36.561436,
        "lng": 127.859055
      }
    ],
    "color": "#d07d93",
    "start_point_name": "낙석주의",
    "length": 136,
    "time": "2"
  },
  {
    "path_id": 19,
    "path": [
      {
        "lat": 36.561436,
        "lng": 127.859055
      },
      {
        "lat": 36.56588,
        "lng": 127.862663
      }
    ],
    "color": "#196fe7",
    "start_point_name": "냉천골 휴게소",
    "length": 589,
    "time": "9"
  },
  {
    "path_id": 20,
    "path": [
      {
        "lat": 36.56588,
        "lng": 127.862663
      },
      {
        "lat": 36.566238,
        "lng": 127.862724
      }
    ],
    "color": "#b98d57",
    "start_point_name": "낙뢰다발지역",
    "length": 40,
    "time": "0"
  },
  {
    "path_id": 21,
    "path": [
      {
        "lat": 36.566238,
        "lng": 127.862724
      },
      {
        "lat": 36.567348,
        "lng": 127.862366
      }
    ],
    "color": "#a3d8f0",
    "start_point_name": "안내판",
    "length": 127,
    "time": "2"
  },
  {
    "path_id": 22,
    "path": [
      {
        "lat": 36.567348,
        "lng": 127.862366
      },
      {
        "lat": 36.566193,
        "lng": 127.862762
      }
    ],
    "color": "#6181c8",
    "start_point_name": "문장대",
    "length": 133,
    "time": "2"
  },
  {
    "path_id": 23,
    "path": [
      {
        "lat": 36.566193,
        "lng": 127.862762
      },
      {
        "lat": 36.560333,
        "lng": 127.869499
      }
    ],
    "color": "#fa5cae",
    "start_point_name": "갈림길 24",
    "length": 886,
    "time": "14"
  },
  {
    "path_id": 24,
    "path": [
      {
        "lat": 36.560333,
        "lng": 127.869499
      },
      {
        "lat": 36.559113,
        "lng": 127.870705
      }
    ],
    "color": "#b3f516",
    "start_point_name": "신선대휴게소",
    "length": 173,
    "time": "2"
  },
  {
    "path_id": 25,
    "path": [
      {
        "lat": 36.559113,
        "lng": 127.870705
      },
      {
        "lat": 36.550201,
        "lng": 127.871712
      }
    ],
    "color": "#4f1d1a",
    "start_point_name": "갈림길 26",
    "length": 995,
    "time": "16"
  },
  {
    "path_id": 26,
    "path": [
      {
        "lat": 36.550201,
        "lng": 127.871712
      },
      {
        "lat": 36.547779,
        "lng": 127.871735
      }
    ],
    "color": "#db2b5c",
    "start_point_name": "자연경관",
    "length": 269,
    "time": "4"
  },
  {
    "path_id": 27,
    "path": [
      {
        "lat": 36.547779,
        "lng": 127.871735
      },
      {
        "lat": 36.545689,
        "lng": 127.872162
      }
    ],
    "color": "#06e5cc",
    "start_point_name": "갈림길 28",
    "length": 235,
    "time": "3"
  },
  {
    "path_id": 28,
    "path": [
      {
        "lat": 36.545689,
        "lng": 127.872162
      },
      {
        "lat": 36.543209,
        "lng": 127.870796
      }
    ],
    "color": "#6d8204",
    "start_point_name": "갈림길 29",
    "length": 301,
    "time": "5"
  },
  {
    "path_id": 29,
    "path": [
      {
        "lat": 36.543209,
        "lng": 127.870796
      },
      {
        "lat": 36.549946,
        "lng": 127.867653
      }
    ],
    "color": "#811a4b",
    "start_point_name": "천왕봉",
    "length": 800,
    "time": "13"
  },
  {
    "path_id": 30,
    "path": [
      {
        "lat": 36.549946,
        "lng": 127.867653
      },
      {
        "lat": 36.549953,
        "lng": 127.866722
      }
    ],
    "color": "#c6d9f4",
    "start_point_name": "갈림길 31",
    "length": 83,
    "time": "1"
  },
  {
    "path_id": 31,
    "path": [
      {
        "lat": 36.549953,
        "lng": 127.866722
      },
      {
        "lat": 36.547451,
        "lng": 127.861305
      }
    ],
    "color": "#464d80",
    "start_point_name": "갈림길 32",
    "length": 558,
    "time": "9"
  },
  {
    "path_id": 32,
    "path": [
      {
        "lat": 36.547451,
        "lng": 127.861305
      },
      {
        "lat": 36.5471,
        "lng": 127.859398
      }
    ],
    "color": "#d9c6ac",
    "start_point_name": "상황석문",
    "length": 174,
    "time": "2"
  },
  {
    "path_id": 33,
    "path": [
      {
        "lat": 36.5471,
        "lng": 127.859398
      },
      {
        "lat": 36.548805,
        "lng": 127.855286
      }
    ],
    "color": "#28e9f1",
    "start_point_name": "갈림길 34",
    "length": 413,
    "time": "6"
  }
]