[
  {
    "path_id": 0,
    "path": [
      {
        "lat": 36.448044,
        "lng": 127.866119
      },
      {
        "lat": 36.448792,
        "lng": 127.867485
      }
    ],
    "color": "#5b0ab9",
    "start_name": "갈림길",
    "length_meter": 147.8,
    "time_minute": 2
  },
  {
    "path_id": 1,
    "path": [
      {
        "lat": 36.448792,
        "lng": 127.867485
      },
      {
        "lat": 36.449917,
        "lng": 127.868431
      }
    ],
    "color": "#668060",
    "start_name": "대형주차장 / 갈림길",
    "length_meter": 152.3,
    "time_minute": 2
  },
  {
    "path_id": 2,
    "path": [
      {
        "lat": 36.449917,
        "lng": 127.868431
      },
      {
        "lat": 36.451187,
        "lng": 127.867683
      }
    ],
    "color": "#6898b4",
    "start_name": "경로당",
    "length_meter": 156.3,
    "time_minute": 2
  },
  {
    "path_id": 3,
    "path": [
      {
        "lat": 36.451187,
        "lng": 127.867683
      },
      {
        "lat": 36.452469,
        "lng": 127.867531
      }
    ],
    "color": "#516ca2",
    "start_name": "안내 / 등산로입구",
    "length_meter": 143.5,
    "time_minute": 2
  },
  {
    "path_id": 4,
    "path": [
      {
        "lat": 36.452469,
        "lng": 127.867531
      },
      {
        "lat": 36.454231,
        "lng": 127.868408
      }
    ],
    "color": "#691524",
    "start_name": "안내",
    "length_meter": 211.0,
    "time_minute": 3
  },
  {
    "path_id": 5,
    "path": [
      {
        "lat": 36.454231,
        "lng": 127.868408
      },
      {
        "lat": 36.45435,
        "lng": 127.868507
      }
    ],
    "color": "#84191c",
    "start_name": "입산통제 기간안내",
    "length_meter": 15.9,
    "time_minute": 0
  },
  {
    "path_id": 6,
    "path": [
      {
        "lat": 36.45435,
        "lng": 127.868507
      },
      {
        "lat": 36.459839,
        "lng": 127.878204
      }
    ],
    "color": "#5a9370",
    "start_name": "입산통제소 / 갈림길",
    "length_meter": 1061.2,
    "time_minute": 17
  },
  {
    "path_id": 7,
    "path": [
      {
        "lat": 36.459839,
        "lng": 127.878204
      },
      {
        "lat": 36.458946,
        "lng": 127.880852
      }
    ],
    "color": "#4a1192",
    "start_name": "양생동물 출목지역",
    "length_meter": 256.8,
    "time_minute": 4
  },
  {
    "path_id": 8,
    "path": [
      {
        "lat": 36.458946,
        "lng": 127.880852
      },
      {
        "lat": 36.466694,
        "lng": 127.878181
      }
    ],
    "color": "#644676",
    "start_name": "능선 시작",
    "length_meter": 894.0,
    "time_minute": 14
  },
  {
    "path_id": 9,
    "path": [
      {
        "lat": 36.466694,
        "lng": 127.878181
      },
      {
        "lat": 36.467075,
        "lng": 127.876801
      }
    ],
    "color": "#b7af2f",
    "start_name": "야생화 / 갈림길",
    "length_meter": 144.6,
    "time_minute": 2
  },
  {
    "path_id": 10,
    "path": [
      {
        "lat": 36.467075,
        "lng": 127.876801
      },
      {
        "lat": 36.467236,
        "lng": 127.877136
      }
    ],
    "color": "#8f1daa",
    "start_name": "정상석 / 포토존",
    "length_meter": 35.9,
    "time_minute": 0
  },
  {
    "path_id": 11,
    "path": [
      {
        "lat": 36.467236,
        "lng": 127.877136
      },
      {
        "lat": 36.467888,
        "lng": 127.874504
      }
    ],
    "color": "#95c18d",
    "start_name": "안내",
    "length_meter": 246.3,
    "time_minute": 4
  },
  {
    "path_id": 12,
    "path": [
      {
        "lat": 36.467888,
        "lng": 127.874504
      },
      {
        "lat": 36.468002,
        "lng": 127.873489
      }
    ],
    "color": "#526a26",
    "start_name": "갈림길",
    "length_meter": 91.6,
    "time_minute": 1
  },
  {
    "path_id": 13,
    "path": [
      {
        "lat": 36.468002,
        "lng": 127.873489
      },
      {
        "lat": 36.468189,
        "lng": 127.872429
      }
    ],
    "color": "#b27fc0",
    "start_name": "안내 / 위험",
    "length_meter": 97.3,
    "time_minute": 1
  },
  {
    "path_id": 14,
    "path": [
      {
        "lat": 36.468189,
        "lng": 127.872429
      },
      {
        "lat": 36.469646,
        "lng": 127.870811
      }
    ],
    "color": "#060453",
    "start_name": "안내",
    "length_meter": 217.2,
    "time_minute": 3
  },
  {
    "path_id": 15,
    "path": [
      {
        "lat": 36.469646,
        "lng": 127.870811
      },
      {
        "lat": 36.468796,
        "lng": 127.870453
      }
    ],
    "color": "#1eb940",
    "start_name": "갈림길",
    "length_meter": 99.8,
    "time_minute": 1
  },
  {
    "path_id": 16,
    "path": [
      {
        "lat": 36.468796,
        "lng": 127.870453
      },
      {
        "lat": 36.469425,
        "lng": 127.87075
      }
    ],
    "color": "#a66440",
    "start_name": "위험 / 정상석",
    "length_meter": 75.1,
    "time_minute": 1
  },
  {
    "path_id": 17,
    "path": [
      {
        "lat": 36.469425,
        "lng": 127.87075
      },
      {
        "lat": 36.468796,
        "lng": 127.869537
      }
    ],
    "color": "#60916d",
    "start_name": "안내",
    "length_meter": 129.1,
    "time_minute": 2
  },
  {
    "path_id": 18,
    "path": [
      {
        "lat": 36.468796,
        "lng": 127.869537
      },
      {
        "lat": 36.468353,
        "lng": 127.868942
      }
    ],
    "color": "#9a3b28",
    "start_name": "갈림길 / 안내",
    "length_meter": 75.0,
    "time_minute": 1
  },
  {
    "path_id": 19,
    "path": [
      {
        "lat": 36.468353,
        "lng": 127.868942
      },
      {
        "lat": 36.468513,
        "lng": 127.867554
      }
    ],
    "color": "#2f6184",
    "start_name": "포토존",
    "length_meter": 125.4,
    "time_minute": 2
  },
  {
    "path_id": 20,
    "path": [
      {
        "lat": 36.468513,
        "lng": 127.867554
      },
      {
        "lat": 36.468998,
        "lng": 127.865456
      }
    ],
    "color": "#893eb7",
    "start_name": "안내",
    "length_meter": 195.2,
    "time_minute": 3
  },
  {
    "path_id": 21,
    "path": [
      {
        "lat": 36.468998,
        "lng": 127.865456
      },
      {
        "lat": 36.468994,
        "lng": 127.865356
      }
    ],
    "color": "#7db75c",
    "start_name": "갈림길",
    "length_meter": 9.0,
    "time_minute": 0
  },
  {
    "path_id": 22,
    "path": [
      {
        "lat": 36.468994,
        "lng": 127.865356
      },
      {
        "lat": 36.469952,
        "lng": 127.862755
      }
    ],
    "color": "#5f8ec5",
    "start_name": "안내",
    "length_meter": 255.8,
    "time_minute": 4
  },
  {
    "path_id": 23,
    "path": [
      {
        "lat": 36.469952,
        "lng": 127.862755
      },
      {
        "lat": 36.469891,
        "lng": 127.862656
      }
    ],
    "color": "#b7a570",
    "start_name": "갈림길",
    "length_meter": 11.2,
    "time_minute": 0
  },
  {
    "path_id": 24,
    "path": [
      {
        "lat": 36.469891,
        "lng": 127.862656
      },
      {
        "lat": 36.469578,
        "lng": 127.861916
      }
    ],
    "color": "#b3c368",
    "start_name": "안내 / 갈림길",
    "length_meter": 76.0,
    "time_minute": 1
  },
  {
    "path_id": 25,
    "path": [
      {
        "lat": 36.469578,
        "lng": 127.861916
      },
      {
        "lat": 36.469353,
        "lng": 127.862564
      }
    ],
    "color": "#09be69",
    "start_name": "구병산 / 포토존 / 구병산 / 위험",
    "length_meter": 85.7,
    "time_minute": 1
  },
  {
    "path_id": 26,
    "path": [
      {
        "lat": 36.469353,
        "lng": 127.862564
      },
      {
        "lat": 36.468502,
        "lng": 127.862808
      }
    ],
    "color": "#835e48",
    "start_name": "야생화",
    "length_meter": 97.1,
    "time_minute": 1
  },
  {
    "path_id": 27,
    "path": [
      {
        "lat": 36.468502,
        "lng": 127.862808
      },
      {
        "lat": 36.461441,
        "lng": 127.864372
      }
    ],
    "color": "#63be75",
    "start_name": "안내",
    "length_meter": 797.5,
    "time_minute": 13
  },
  {
    "path_id": 28,
    "path": [
      {
        "lat": 36.461441,
        "lng": 127.864372
      },
      {
        "lat": 36.456646,
        "lng": 127.861977
      }
    ],
    "color": "#b94a52",
    "start_name": "위험",
    "length_meter": 574.6,
    "time_minute": 9
  },
  {
    "path_id": 29,
    "path": [
      {
        "lat": 36.456646,
        "lng": 127.861977
      },
      {
        "lat": 36.456085,
        "lng": 127.861458
      }
    ],
    "color": "#6d3953",
    "start_name": "데크길",
    "length_meter": 77.8,
    "time_minute": 1
  },
  {
    "path_id": 30,
    "path": [
      {
        "lat": 36.456085,
        "lng": 127.861458
      },
      {
        "lat": 36.453918,
        "lng": 127.861038
      }
    ],
    "color": "#75c75d",
    "start_name": "데크다리",
    "length_meter": 243.9,
    "time_minute": 4
  },
  {
    "path_id": 31,
    "path": [
      {
        "lat": 36.453918,
        "lng": 127.861038
      },
      {
        "lat": 36.452854,
        "lng": 127.863495
      }
    ],
    "color": "#269e4c",
    "start_name": "구병산",
    "length_meter": 249.6,
    "time_minute": 4
  },
  {
    "path_id": 32,
    "path": [
      {
        "lat": 36.452854,
        "lng": 127.863495
      },
      {
        "lat": 36.450802,
        "lng": 127.86409
      }
    ],
    "color": "#13891b",
    "start_name": "갈림길 / 위성지국",
    "length_meter": 234.3,
    "time_minute": 3
  },
  {
    "path_id": 33,
    "path": [
      {
        "lat": 36.450802,
        "lng": 127.86409
      },
      {
        "lat": 36.449947,
        "lng": 127.864212
      }
    ],
    "color": "#c3087c",
    "start_name": "구병산",
    "length_meter": 95.7,
    "time_minute": 1
  }
]