[
  {
    "path_id": 0,
    "path": [
      {
        "lat": 35.988995,
        "lng": 128.697372
      },
      {
        "lat": 35.993698,
        "lng": 128.697495
      }
    ],
    "color": "#8fa651",
    "start_name": "버스정류장 / 갈림길",
    "length_meter": 541.2,
    "time_minute": 9
  },
  {
    "path_id": 1,
    "path": [
      {
        "lat": 35.993698,
        "lng": 128.697495
      },
      {
        "lat": 35.996235,
        "lng": 128.698669
      }
    ],
    "color": "#27a1ad",
    "start_name": "화장실",
    "length_meter": 301.2,
    "time_minute": 5
  },
  {
    "path_id": 2,
    "path": [
      {
        "lat": 35.996235,
        "lng": 128.698669
      },
      {
        "lat": 35.998459,
        "lng": 128.697586
      }
    ],
    "color": "#79813b",
    "start_name": "깔딱고개 정상 쉼터 / 갈림길",
    "length_meter": 280.4,
    "time_minute": 4
  },
  {
    "path_id": 3,
    "path": [
      {
        "lat": 35.998459,
        "lng": 128.697586
      },
      {
        "lat": 36.000217,
        "lng": 128.695328
      }
    ],
    "color": "#274932",
    "start_name": "암석 / 추락 낙석 위험지역",
    "length_meter": 282.9,
    "time_minute": 4
  },
  {
    "path_id": 4,
    "path": [
      {
        "lat": 36.000217,
        "lng": 128.695328
      },
      {
        "lat": 36.000736,
        "lng": 128.694931
      }
    ],
    "color": "#6f2c47",
    "start_name": "바위 위 조망점 / 암석",
    "length_meter": 68.7,
    "time_minute": 1
  },
  {
    "path_id": 5,
    "path": [
      {
        "lat": 36.000736,
        "lng": 128.694931
      },
      {
        "lat": 36.005436,
        "lng": 128.694763
      }
    ],
    "color": "#2227c4",
    "start_name": "신림정",
    "length_meter": 522.8,
    "time_minute": 8
  },
  {
    "path_id": 6,
    "path": [
      {
        "lat": 36.005436,
        "lng": 128.694763
      },
      {
        "lat": 36.010983,
        "lng": 128.69455
      }
    ],
    "color": "#87084e",
    "start_name": "낙타봉",
    "length_meter": 617.1,
    "time_minute": 10
  },
  {
    "path_id": 7,
    "path": [
      {
        "lat": 36.010983,
        "lng": 128.69455
      },
      {
        "lat": 36.01519,
        "lng": 128.692947
      }
    ],
    "color": "#43c187",
    "start_name": "갈림길",
    "length_meter": 489.5,
    "time_minute": 8
  },
  {
    "path_id": 8,
    "path": [
      {
        "lat": 36.01519,
        "lng": 128.692947
      },
      {
        "lat": 36.015331,
        "lng": 128.692001
      }
    ],
    "color": "#a73857",
    "start_name": "마애약사여래좌상 진입로",
    "length_meter": 86.5,
    "time_minute": 1
  },
  {
    "path_id": 9,
    "path": [
      {
        "lat": 36.015331,
        "lng": 128.692001
      },
      {
        "lat": 36.015392,
        "lng": 128.692719
      }
    ],
    "color": "#630ca4",
    "start_name": "갈림길",
    "length_meter": 64.9,
    "time_minute": 1
  },
  {
    "path_id": 10,
    "path": [
      {
        "lat": 36.015392,
        "lng": 128.692719
      },
      {
        "lat": 36.016289,
        "lng": 128.694778
      }
    ],
    "color": "#100c81",
    "start_name": "팔공산 마애약사여래좌상",
    "length_meter": 210.3,
    "time_minute": 3
  },
  {
    "path_id": 11,
    "path": [
      {
        "lat": 36.016289,
        "lng": 128.694778
      },
      {
        "lat": 36.015724,
        "lng": 128.695129
      }
    ],
    "color": "#c71754",
    "start_name": "바위 틈 나무",
    "length_meter": 70.3,
    "time_minute": 1
  },
  {
    "path_id": 12,
    "path": [
      {
        "lat": 36.015724,
        "lng": 128.695129
      },
      {
        "lat": 36.01313,
        "lng": 128.69722
      }
    ],
    "color": "#4587bb",
    "start_name": "갈림길",
    "length_meter": 344.3,
    "time_minute": 5
  },
  {
    "path_id": 13,
    "path": [
      {
        "lat": 36.01313,
        "lng": 128.69722
      },
      {
        "lat": 36.012188,
        "lng": 128.6987
      }
    ],
    "color": "#b3418f",
    "start_name": "데크계단 위 조망점 / 위험 주의구간",
    "length_meter": 169.7,
    "time_minute": 2
  },
  {
    "path_id": 14,
    "path": [
      {
        "lat": 36.012188,
        "lng": 128.6987
      },
      {
        "lat": 36.011639,
        "lng": 128.7005
      }
    ],
    "color": "#74756e",
    "start_name": "하트바위와 소나무",
    "length_meter": 173.0,
    "time_minute": 2
  },
  {
    "path_id": 15,
    "path": [
      {
        "lat": 36.011639,
        "lng": 128.7005
      },
      {
        "lat": 36.011269,
        "lng": 128.701416
      }
    ],
    "color": "#af070a",
    "start_name": "갈림길",
    "length_meter": 92.1,
    "time_minute": 1
  },
  {
    "path_id": 16,
    "path": [
      {
        "lat": 36.011269,
        "lng": 128.701416
      },
      {
        "lat": 36.01104,
        "lng": 128.702606
      }
    ],
    "color": "#20970a",
    "start_name": "조망바위",
    "length_meter": 110.0,
    "time_minute": 1
  },
  {
    "path_id": 17,
    "path": [
      {
        "lat": 36.01104,
        "lng": 128.702606
      },
      {
        "lat": 36.002136,
        "lng": 128.699081
      }
    ],
    "color": "#2e648e",
    "start_name": "갈림길",
    "length_meter": 1039.6,
    "time_minute": 17
  },
  {
    "path_id": 18,
    "path": [
      {
        "lat": 36.002136,
        "lng": 128.699081
      },
      {
        "lat": 35.997658,
        "lng": 128.702881
      }
    ],
    "color": "#3b5d64",
    "start_name": "동화사 계곡",
    "length_meter": 604.0,
    "time_minute": 10
  },
  {
    "path_id": 19,
    "path": [
      {
        "lat": 35.997658,
        "lng": 128.702881
      },
      {
        "lat": 35.996666,
        "lng": 128.702759
      }
    ],
    "color": "#666f37",
    "start_name": "갈림길",
    "length_meter": 110.9,
    "time_minute": 1
  },
  {
    "path_id": 20,
    "path": [
      {
        "lat": 35.996666,
        "lng": 128.702759
      },
      {
        "lat": 35.995926,
        "lng": 128.702972
      }
    ],
    "color": "#576316",
    "start_name": "부도암",
    "length_meter": 84.5,
    "time_minute": 1
  },
  {
    "path_id": 21,
    "path": [
      {
        "lat": 35.995926,
        "lng": 128.702972
      },
      {
        "lat": 35.992214,
        "lng": 128.703766
      }
    ],
    "color": "#4f8e39",
    "start_name": "갈림길",
    "length_meter": 418.9,
    "time_minute": 6
  },
  {
    "path_id": 22,
    "path": [
      {
        "lat": 35.992214,
        "lng": 128.703766
      },
      {
        "lat": 35.990726,
        "lng": 128.70488
      }
    ],
    "color": "#027e03",
    "start_name": "동화사",
    "length_meter": 193.4,
    "time_minute": 3
  }
]