{
    "max_ele": 1133.978,
    "track": [
        {
            "path_id": 1,
            "name": "황매산 군립공원 매표소",
            "lat": 35.481964,
            "lon": 128.003632,
            "ele": 483.772
        },
        {
            "path_id": 2,
            "name": "등산로 이정표",
            "lat": 35.486824,
            "lon": 127.998726,
            "ele": 629.221
        },
        {
            "path_id": 3,
            "name": "갈림길",
            "lat": 35.488781,
            "lon": 128.002518,
            "ele": 739.674
        },
        {
            "path_id": 4,
            "name": "안내표지",
            "lat": 35.491451,
            "lon": 128.00267,
            "ele": 783.211
        },
        {
            "path_id": 7,
            "name": "할미산성과 치마덤",
            "lat": 35.499065,
            "lon": 127.990326,
            "ele": 985.918
        },
        {
            "path_id": 8,
            "name": "갈림길",
            "lat": 35.501156,
            "lon": 127.987671,
            "ele": 1010.735
        },
        {
            "path_id": 10,
            "name": "쉼터",
            "lat": 35.499241,
            "lon": 127.981514,
            "ele": 1126.134
        },
        {
            "path_id": 11,
            "name": "정자 쉼터",
            "lat": 35.499157,
            "lon": 127.981239,
            "ele": 1131.487
        },
        {
            "path_id": 12,
            "name": "중봉",
            "lat": 35.498871,
            "lon": 127.979813,
            "ele": 1122.068
        },
        {
            "path_id": 13,
            "name": "갈림길",
            "lat": 35.494999,
            "lon": 127.974335,
            "ele": 1133.978
        }
    ]
}