[
    {
        "path_id": 1,
        "name": "광덕산 정류장",
        "lat": 38.101665,
        "lon": 127.443695
    },
    {
        "path_id": 2,
        "name": "광덕고개",
        "lat": 38.099846,
        "lon": 127.443733
    },
    {
        "path_id": 3,
        "name": "고개 쉼터",
        "lat": 38.090691,
        "lon": 127.445412
    },
    {
        "path_id": 4,
        "name": "헬기장",
        "lat": 38.084938,
        "lon": 127.446037
    },
    {
        "path_id": 5,
        "name": "언덕",
        "lat": 38.082451,
        "lon": 127.446648
    },
    {
        "path_id": 7,
        "name": "백운산",
        "lat": 38.074852,
        "lon": 127.444565
    },
    {
        "path_id": 8,
        "name": "삼각봉",
        "lat": 38.067657,
        "lon": 127.446724
    },
    {
        "path_id": 10,
        "name": "도마치봉",
        "lat": 38.058552,
        "lon": 127.44384
    },
    {
        "path_id": 11,
        "name": "황룡사 사거리",
        "lat": 38.060486,
        "lon": 127.434608
    },
    {
        "path_id": 12,
        "name": "향적봉",
        "lat": 38.060337,
        "lon": 127.431488
    },
    {
        "path_id": 14,
        "name": "흥룡사 가는길",
        "lat": 38.057854,
        "lon": 127.425377
    },
    {
        "path_id": 15,
        "name": "흥룡봉",
        "lat": 38.057812,
        "lon": 127.424446
    },
    {
        "path_id": 16,
        "name": "헬기장",
        "lat": 38.057877,
        "lon": 127.423965
    },
    {
        "path_id": 17,
        "name": "649봉",
        "lat": 38.060379,
        "lon": 127.417709
    },
    {
        "path_id": 18,
        "name": "계곡",
        "lat": 38.069088,
        "lon": 127.414993
    },
    {
        "path_id": 19,
        "name": "안내 표지판",
        "lat": 38.068981,
        "lon": 127.414421
    },
    {
        "path_id": 21,
        "name": "흥룡사 사찰",
        "lat": 38.070938,
        "lon": 127.410622
    },
    {
        "path_id": 22,
        "name": "흥룡사 주차장",
        "lat": 38.072224,
        "lon": 127.409714
    },
    {
        "path_id": 23,
        "name": "주차장 안내",
        "lat": 38.072586,
        "lon": 127.409599
    },
    {
        "path_id": 24,
        "name": "백운산 계곡",
        "lat": 38.073212,
        "lon": 127.409058
    }
]