[
  {
    "path_id": 0,
    "path": [
      {
        "lat": 35.748199,
        "lng": 127.417465
      },
      {
        "lat": 35.74826,
        "lng": 127.417549
      }
    ],
    "color": "#eda753",
    "start_point_name": "은천마을 버스정류장 주차장",
    "length": 10,
    "time": "0"
  },
  {
    "path_id": 1,
    "path": [
      {
        "lat": 35.74826,
        "lng": 127.417549
      },
      {
        "lat": 35.74823,
        "lng": 127.417526
      }
    ],
    "color": "#009d41",
    "start_point_name": "은천마을 버스정류장안내판",
    "length": 3,
    "time": "0"
  },
  {
    "path_id": 2,
    "path": [
      {
        "lat": 35.74823,
        "lng": 127.417526
      },
      {
        "lat": 35.750328,
        "lng": 127.417847
      }
    ],
    "color": "#b20c41",
    "start_point_name": "은천마을 버스정류장",
    "length": 235,
    "time": "3"
  },
  {
    "path_id": 3,
    "path": [
      {
        "lat": 35.750328,
        "lng": 127.417847
      },
      {
        "lat": 35.750504,
        "lng": 127.417503
      }
    ],
    "color": "#f8f41f",
    "start_point_name": "갈림길",
    "length": 36,
    "time": "0"
  },
  {
    "path_id": 4,
    "path": [
      {
        "lat": 35.750504,
        "lng": 127.417503
      },
      {
        "lat": 35.753708,
        "lng": 127.415298
      }
    ],
    "color": "#513e8a",
    "start_point_name": "등산로입구쉼터",
    "length": 408,
    "time": "6"
  },
  {
    "path_id": 5,
    "path": [
      {
        "lat": 35.753708,
        "lng": 127.415298
      },
      {
        "lat": 35.755585,
        "lng": 127.413704
      }
    ],
    "color": "#ee2c7c",
    "start_point_name": "등산로 쉼터",
    "length": 253,
    "time": "4"
  },
  {
    "path_id": 6,
    "path": [
      {
        "lat": 35.755585,
        "lng": 127.413704
      },
      {
        "lat": 35.755531,
        "lng": 127.411812
      }
    ],
    "color": "#a417a9",
    "start_point_name": "갈림길",
    "length": 170,
    "time": "2"
  },
  {
    "path_id": 7,
    "path": [
      {
        "lat": 35.755531,
        "lng": 127.411812
      },
      {
        "lat": 35.755112,
        "lng": 127.411293
      }
    ],
    "color": "#97883f",
    "start_point_name": "갈림길",
    "length": 66,
    "time": "1"
  },
  {
    "path_id": 8,
    "path": [
      {
        "lat": 35.755112,
        "lng": 127.411293
      },
      {
        "lat": 35.757931,
        "lng": 127.410828
      }
    ],
    "color": "#d12379",
    "start_point_name": "약수터",
    "length": 316,
    "time": "5"
  },
  {
    "path_id": 9,
    "path": [
      {
        "lat": 35.757931,
        "lng": 127.410828
      },
      {
        "lat": 35.7579,
        "lng": 127.410439
      }
    ],
    "color": "#0c4f9f",
    "start_point_name": "진안고원길안내판",
    "length": 35,
    "time": "0"
  },
  {
    "path_id": 10,
    "path": [
      {
        "lat": 35.7579,
        "lng": 127.410439
      },
      {
        "lat": 35.759171,
        "lng": 127.41452
      }
    ],
    "color": "#4eff5b",
    "start_point_name": "탑사",
    "length": 394,
    "time": "6"
  },
  {
    "path_id": 11,
    "path": [
      {
        "lat": 35.759171,
        "lng": 127.41452
      },
      {
        "lat": 35.759403,
        "lng": 127.414627
      }
    ],
    "color": "#0a05d5",
    "start_point_name": "은수사",
    "length": 27,
    "time": "0"
  },
  {
    "path_id": 12,
    "path": [
      {
        "lat": 35.759403,
        "lng": 127.414627
      },
      {
        "lat": 35.759472,
        "lng": 127.41465
      }
    ],
    "color": "#df88cd",
    "start_point_name": "이성계와은수사",
    "length": 7,
    "time": "0"
  },
  {
    "path_id": 13,
    "path": [
      {
        "lat": 35.759472,
        "lng": 127.41465
      },
      {
        "lat": 35.759007,
        "lng": 127.424454
      }
    ],
    "color": "#c35dc3",
    "start_point_name": "청실배나무",
    "length": 886,
    "time": "14"
  },
  {
    "path_id": 14,
    "path": [
      {
        "lat": 35.759007,
        "lng": 127.424454
      },
      {
        "lat": 35.756584,
        "lng": 127.425789
      }
    ],
    "color": "#59ae61",
    "start_point_name": "갈림길",
    "length": 295,
    "time": "4"
  },
  {
    "path_id": 15,
    "path": [
      {
        "lat": 35.756584,
        "lng": 127.425789
      },
      {
        "lat": 35.755486,
        "lng": 127.427963
      }
    ],
    "color": "#287c33",
    "start_point_name": "갈림길",
    "length": 231,
    "time": "3"
  },
  {
    "path_id": 16,
    "path": [
      {
        "lat": 35.755486,
        "lng": 127.427963
      },
      {
        "lat": 35.755501,
        "lng": 127.428719
      }
    ],
    "color": "#9651a5",
    "start_point_name": "사루개소류지입구",
    "length": 68,
    "time": "1"
  },
  {
    "path_id": 17,
    "path": [
      {
        "lat": 35.755501,
        "lng": 127.428719
      },
      {
        "lat": 35.748268,
        "lng": 127.417603
      }
    ],
    "color": "#354a07",
    "start_point_name": "갈림길",
    "length": 1285,
    "time": "21"
  }
]