[
  {
    "path_id": 0,
    "path": [
      {
        "lat": 35.748199,
        "lng": 127.417465
      },
      {
        "lat": 35.750328,
        "lng": 127.417847
      }
    ],
    "color": "#f63451",
    "start_name": "은천마을 버스정류장 주차장 / 은천마을 버스정류장안내판 / 은천마을 버스정류장",
    "length_meter": 249.2,
    "time_minute": 4
  },
  {
    "path_id": 1,
    "path": [
      {
        "lat": 35.750328,
        "lng": 127.417847
      },
      {
        "lat": 35.753708,
        "lng": 127.415298
      }
    ],
    "color": "#75da48",
    "start_name": "갈림길 / 등산로입구쉼터",
    "length_meter": 444.8,
    "time_minute": 7
  },
  {
    "path_id": 2,
    "path": [
      {
        "lat": 35.753708,
        "lng": 127.415298
      },
      {
        "lat": 35.755585,
        "lng": 127.413704
      }
    ],
    "color": "#0f22f9",
    "start_name": "등산로 쉼터",
    "length_meter": 253.5,
    "time_minute": 4
  },
  {
    "path_id": 3,
    "path": [
      {
        "lat": 35.755585,
        "lng": 127.413704
      },
      {
        "lat": 35.755531,
        "lng": 127.411812
      }
    ],
    "color": "#ee0bd9",
    "start_name": "갈림길",
    "length_meter": 170.8,
    "time_minute": 2
  },
  {
    "path_id": 4,
    "path": [
      {
        "lat": 35.755531,
        "lng": 127.411812
      },
      {
        "lat": 35.755112,
        "lng": 127.411293
      }
    ],
    "color": "#123b22",
    "start_name": "갈림길",
    "length_meter": 66.1,
    "time_minute": 1
  },
  {
    "path_id": 5,
    "path": [
      {
        "lat": 35.755112,
        "lng": 127.411293
      },
      {
        "lat": 35.757931,
        "lng": 127.410828
      }
    ],
    "color": "#1fd8db",
    "start_name": "약수터",
    "length_meter": 316.3,
    "time_minute": 5
  },
  {
    "path_id": 6,
    "path": [
      {
        "lat": 35.757931,
        "lng": 127.410828
      },
      {
        "lat": 35.759171,
        "lng": 127.41452
      }
    ],
    "color": "#d26203",
    "start_name": "진안고원길안내판 / 탑사",
    "length_meter": 429.7,
    "time_minute": 7
  },
  {
    "path_id": 7,
    "path": [
      {
        "lat": 35.759171,
        "lng": 127.41452
      },
      {
        "lat": 35.759007,
        "lng": 127.424454
      }
    ],
    "color": "#f19d2e",
    "start_name": "은수사 / 이성계와은수사 / 청실배나무",
    "length_meter": 921.6,
    "time_minute": 15
  },
  {
    "path_id": 8,
    "path": [
      {
        "lat": 35.759007,
        "lng": 127.424454
      },
      {
        "lat": 35.756584,
        "lng": 127.425789
      }
    ],
    "color": "#519256",
    "start_name": "갈림길",
    "length_meter": 295.1,
    "time_minute": 4
  },
  {
    "path_id": 9,
    "path": [
      {
        "lat": 35.756584,
        "lng": 127.425789
      },
      {
        "lat": 35.755486,
        "lng": 127.427963
      }
    ],
    "color": "#884fb9",
    "start_name": "갈림길",
    "length_meter": 231.1,
    "time_minute": 3
  },
  {
    "path_id": 10,
    "path": [
      {
        "lat": 35.755486,
        "lng": 127.427963
      },
      {
        "lat": 35.755501,
        "lng": 127.428719
      }
    ],
    "color": "#79a0a8",
    "start_name": "사루개소류지입구",
    "length_meter": 68.2,
    "time_minute": 1
  },
  {
    "path_id": 11,
    "path": [
      {
        "lat": 35.755501,
        "lng": 127.428719
      },
      {
        "lat": 35.748268,
        "lng": 127.417603
      }
    ],
    "color": "#21b64c",
    "start_name": "갈림길",
    "length_meter": 1285.7,
    "time_minute": 21
  }
]