[
  {
    "path_id": 0,
    "path": [
      {
        "lat": 35.748199,
        "lng": 127.417465
      },
      {
        "lat": 35.74823,
        "lng": 127.417526
      }
    ],
    "color": "#a583b4",
    "start_name": "은천마을 버스정류장 주차장 / 은천마을 버스정류장안내판",
    "length_meter": 14.1,
    "time_minute": 0
  },
  {
    "path_id": 1,
    "path": [
      {
        "lat": 35.74823,
        "lng": 127.417526
      },
      {
        "lat": 35.750328,
        "lng": 127.417847
      }
    ],
    "color": "#251a0f",
    "start_name": "은천마을 버스정류장",
    "length_meter": 235.1,
    "time_minute": 3
  },
  {
    "path_id": 2,
    "path": [
      {
        "lat": 35.750328,
        "lng": 127.417847
      },
      {
        "lat": 35.753708,
        "lng": 127.415298
      }
    ],
    "color": "#6a1d5e",
    "start_name": "갈림길 / 등산로입구쉼터",
    "length_meter": 444.8,
    "time_minute": 7
  },
  {
    "path_id": 3,
    "path": [
      {
        "lat": 35.753708,
        "lng": 127.415298
      },
      {
        "lat": 35.755585,
        "lng": 127.413704
      }
    ],
    "color": "#a2120d",
    "start_name": "등산로 쉼터",
    "length_meter": 253.5,
    "time_minute": 4
  },
  {
    "path_id": 4,
    "path": [
      {
        "lat": 35.755585,
        "lng": 127.413704
      },
      {
        "lat": 35.755112,
        "lng": 127.411293
      }
    ],
    "color": "#a15a25",
    "start_name": "갈림길",
    "length_meter": 223.8,
    "time_minute": 3
  },
  {
    "path_id": 5,
    "path": [
      {
        "lat": 35.755112,
        "lng": 127.411293
      },
      {
        "lat": 35.757931,
        "lng": 127.410828
      }
    ],
    "color": "#280b3e",
    "start_name": "약수터",
    "length_meter": 316.3,
    "time_minute": 5
  },
  {
    "path_id": 6,
    "path": [
      {
        "lat": 35.757931,
        "lng": 127.410828
      },
      {
        "lat": 35.759171,
        "lng": 127.41452
      }
    ],
    "color": "#3a6d53",
    "start_name": "진안고원길안내판 / 탑사",
    "length_meter": 429.7,
    "time_minute": 7
  },
  {
    "path_id": 7,
    "path": [
      {
        "lat": 35.759171,
        "lng": 127.41452
      },
      {
        "lat": 35.759472,
        "lng": 127.41465
      }
    ],
    "color": "#3f3da0",
    "start_name": "은수사 / 이성계와은수사",
    "length_meter": 35.5,
    "time_minute": 0
  },
  {
    "path_id": 8,
    "path": [
      {
        "lat": 35.759472,
        "lng": 127.41465
      },
      {
        "lat": 35.759007,
        "lng": 127.424454
      }
    ],
    "color": "#ab3a42",
    "start_name": "청실배나무",
    "length_meter": 886.1,
    "time_minute": 14
  },
  {
    "path_id": 9,
    "path": [
      {
        "lat": 35.759007,
        "lng": 127.424454
      },
      {
        "lat": 35.755486,
        "lng": 127.427963
      }
    ],
    "color": "#6a2e2e",
    "start_name": "갈림길",
    "length_meter": 503.5,
    "time_minute": 8
  },
  {
    "path_id": 10,
    "path": [
      {
        "lat": 35.755486,
        "lng": 127.427963
      },
      {
        "lat": 35.755501,
        "lng": 127.428719
      }
    ],
    "color": "#9a3e3f",
    "start_name": "사루개소류지입구",
    "length_meter": 68.2,
    "time_minute": 1
  }
]