[
    {
        "name": "들머리 장구목이",
        "lat": 37.487324,
        "lon": 128.583252
    },
    {
        "name": "이끼계곡 1폭",
        "lat": 37.480881,
        "lon": 128.580353
    },
    {
        "name": "이정목",
        "lat": 37.477718,
        "lon": 128.575272
    },
    {
        "name": "이끼계곡6폭",
        "lat": 37.477669,
        "lon": 128.575272
    },
    {
        "name": "이끼계곡9폭",
        "lat": 37.473373,
        "lon": 128.570724
    },
    {
        "name": "간이 자연 쉄터",
        "lat": 37.472496,
        "lon": 128.570999
    },
    {
        "name": "갈림길",
        "lat": 37.470013,
        "lon": 128.569992
    },
    {
        "name": "이끼바위",
        "lat": 37.467827,
        "lon": 128.568863
    },
    {
        "name": "주목",
        "lat": 37.462852,
        "lon": 128.566818
    },
    {
        "name": "갈림길",
        "lat": 37.460354,
        "lon": 128.565598
    },
    {
        "name": "정상 이정목",
        "lat": 37.461342,
        "lon": 128.563492
    },
    {
        "name": "정상",
        "lat": 37.461403,
        "lon": 128.563385
    },
    {
        "name": "정상",
        "lat": 37.461403,
        "lon": 128.563385
    },
    {
        "name": "갈림길",
        "lat": 37.458313,
        "lon": 128.557022
    },
    {
        "name": "이정목",
        "lat": 37.452164,
        "lon": 128.559204
    },
    {
        "name": "갈림길",
        "lat": 37.4464,
        "lon": 128.558807
    },
    {
        "name": "어은골",
        "lat": 37.44384,
        "lon": 128.558899
    },
    {
        "name": "어은골 폭포",
        "lat": 37.441086,
        "lon": 128.560242
    },
    {
        "name": "어든골 폭포줄기",
        "lat": 37.43008,
        "lon": 128.563446
    },
    {
        "name": "천일굴 모습",
        "lat": 37.427216,
        "lon": 128.563614
    },
    {
        "name": "천일굴 알림판",
        "lat": 37.427063,
        "lon": 128.563843
    },
    {
        "name": "어은골 유래 알림판",
        "lat": 37.42662,
        "lon": 128.564026
    },
    {
        "name": "가리왕산 휴양림",
        "lat": 37.426262,
        "lon": 128.564285
    },
    {
        "name": "갈림길",
        "lat": 37.425976,
        "lon": 128.564377
    },
    {
        "name": "가리왕산 자연 휴양림 시설판",
        "lat": 37.426868,
        "lon": 128.569687
    },
    {
        "name": "날머리 휴양림 매표소",
        "lat": 37.426346,
        "lon": 128.570343
    }
]