[
  {
    "path_id": 0,
    "path": [
      {
        "lat": 37.78627,
        "lng": 128.565628
      },
      {
        "lat": 37.790195,
        "lng": 128.554901
      }
    ],
    "color": "#555e46",
    "start_name": "갈림길",
    "length_meter": 1038.8,
    "time_minute": 17
  },
  {
    "path_id": 1,
    "path": [
      {
        "lat": 37.790195,
        "lng": 128.554901
      },
      {
        "lat": 37.790638,
        "lng": 128.552948
      }
    ],
    "color": "#0247c9",
    "start_name": "비로봉입구",
    "length_meter": 178.5,
    "time_minute": 2
  },
  {
    "path_id": 2,
    "path": [
      {
        "lat": 37.790638,
        "lng": 128.552948
      },
      {
        "lat": 37.792583,
        "lng": 128.547668
      }
    ],
    "color": "#0ed601",
    "start_name": "간이쉼터",
    "length_meter": 511.9,
    "time_minute": 8
  },
  {
    "path_id": 3,
    "path": [
      {
        "lat": 37.792583,
        "lng": 128.547668
      },
      {
        "lat": 37.794453,
        "lng": 128.544647
      }
    ],
    "color": "#745896",
    "start_name": "간이쉼터",
    "length_meter": 337.2,
    "time_minute": 5
  },
  {
    "path_id": 4,
    "path": [
      {
        "lat": 37.794453,
        "lng": 128.544647
      },
      {
        "lat": 37.794502,
        "lng": 128.543686
      }
    ],
    "color": "#8d5b31",
    "start_name": "조망점",
    "length_meter": 84.6,
    "time_minute": 1
  },
  {
    "path_id": 5,
    "path": [
      {
        "lat": 37.794502,
        "lng": 128.543686
      },
      {
        "lat": 37.798298,
        "lng": 128.542496
      }
    ],
    "color": "#442aaf",
    "start_name": "비로봉조망점 / 비로봉정상 / 비로봉정상조망점",
    "length_meter": 439.6,
    "time_minute": 7
  },
  {
    "path_id": 6,
    "path": [
      {
        "lat": 37.798298,
        "lng": 128.542496
      },
      {
        "lat": 37.800076,
        "lng": 128.543884
      }
    ],
    "color": "#ab8a2d",
    "start_name": "헬기장",
    "length_meter": 232.3,
    "time_minute": 3
  },
  {
    "path_id": 7,
    "path": [
      {
        "lat": 37.800076,
        "lng": 128.543884
      },
      {
        "lat": 37.8008,
        "lng": 128.54509
      }
    ],
    "color": "#d92b12",
    "start_name": "헬기장",
    "length_meter": 133.1,
    "time_minute": 2
  },
  {
    "path_id": 8,
    "path": [
      {
        "lat": 37.8008,
        "lng": 128.54509
      },
      {
        "lat": 37.808617,
        "lng": 128.555435
      }
    ],
    "color": "#e0d0e5",
    "start_name": "주목나무군락지",
    "length_meter": 1257.6,
    "time_minute": 20
  },
  {
    "path_id": 9,
    "path": [
      {
        "lat": 37.808617,
        "lng": 128.555435
      },
      {
        "lat": 37.806522,
        "lng": 128.563293
      }
    ],
    "color": "#4198b8",
    "start_name": "상왕봉정상 / 오대산상왕봉조망점",
    "length_meter": 736.2,
    "time_minute": 12
  },
  {
    "path_id": 10,
    "path": [
      {
        "lat": 37.806522,
        "lng": 128.563293
      },
      {
        "lat": 37.800411,
        "lng": 128.565887
      }
    ],
    "color": "#c582c4",
    "start_name": "갈림길",
    "length_meter": 716.7,
    "time_minute": 11
  },
  {
    "path_id": 11,
    "path": [
      {
        "lat": 37.800411,
        "lng": 128.565887
      },
      {
        "lat": 37.793007,
        "lng": 128.561874
      }
    ],
    "color": "#01088d",
    "start_name": "갈림길",
    "length_meter": 895.6,
    "time_minute": 14
  },
  {
    "path_id": 12,
    "path": [
      {
        "lat": 37.793007,
        "lng": 128.561874
      },
      {
        "lat": 37.786388,
        "lng": 128.564499
      }
    ],
    "color": "#76f785",
    "start_name": "간이쉼터",
    "length_meter": 771.3,
    "time_minute": 12
  },
  {
    "path_id": 13,
    "path": [
      {
        "lat": 37.786388,
        "lng": 128.564499
      },
      {
        "lat": 37.790154,
        "lng": 128.555054
      }
    ],
    "color": "#063d96",
    "start_name": "상원사",
    "length_meter": 929.6,
    "time_minute": 15
  }
]