{
  "max_ele": 1471.694,
  "total_length_km": "4.7km",
  "total_time": "0시간 58분",
  "start_name": "북대미륵암",
  "end_name": "두로령부근 자작나무 군락지",
  "track": [
    {
      "path_id": 0,
      "path": [
        {
          "lat": 37.802956,
          "lng": 128.56665
        },
        {
          "lat": 37.810471,
          "lng": 128.572311
        }
      ],
      "color": "#793d8f",
      "start_name": "북대미륵암",
      "length_meter": 972.4,
      "time_minute": 12
    },
    {
      "path_id": 1,
      "path": [
        {
          "lat": 37.810471,
          "lng": 128.572311
        },
        {
          "lat": 37.82132,
          "lng": 128.58284
        }
      ],
      "color": "#443405",
      "start_name": "갈림길",
      "length_meter": 1520.1,
      "time_minute": 19
    },
    {
      "path_id": 2,
      "path": [
        {
          "lat": 37.82132,
          "lng": 128.58284
        },
        {
          "lat": 37.810768,
          "lng": 128.572464
        }
      ],
      "color": "#45641f",
      "start_name": "오대산 두로봉",
      "length_meter": 1485.7,
      "time_minute": 18
    },
    {
      "path_id": 3,
      "path": [
        {
          "lat": 37.810768,
          "lng": 128.572464
        },
        {
          "lat": 37.806362,
          "lng": 128.567551
        }
      ],
      "color": "#0d5221",
      "start_name": "갈림길 / 두로령",
      "length_meter": 652.9,
      "time_minute": 10
    },
    {
      "path_id": 4,
      "path": [
        {
          "lat": 37.806362,
          "lng": 128.567551
        },
        {
          "lat": 37.806198,
          "lng": 128.566971
        }
      ],
      "color": "#555b2f",
      "start_name": "헬기장",
      "length_meter": 54.1,
      "time_minute": 0
    }
  ]
}