{
  "max_ele": 1553.135,
  "track": [
    {
      "path_id": 0,
      "path": [
        {
          "lat": 37.78627,
          "lng": 128.565628
        },
        {
          "lat": 37.790195,
          "lng": 128.554901
        }
      ],
      "color": "#23c12c",
      "start_name": "갈림길",
      "length_meter": 1038.8,
      "time_minute": 17
    },
    {
      "path_id": 1,
      "path": [
        {
          "lat": 37.790195,
          "lng": 128.554901
        },
        {
          "lat": 37.790638,
          "lng": 128.552948
        }
      ],
      "color": "#925435",
      "start_name": "비로봉입구",
      "length_meter": 178.5,
      "time_minute": 2
    },
    {
      "path_id": 2,
      "path": [
        {
          "lat": 37.790638,
          "lng": 128.552948
        },
        {
          "lat": 37.794502,
          "lng": 128.543686
        }
      ],
      "color": "#6d06ba",
      "start_name": "간이쉼터",
      "length_meter": 920.3,
      "time_minute": 15
    },
    {
      "path_id": 3,
      "path": [
        {
          "lat": 37.794502,
          "lng": 128.543686
        },
        {
          "lat": 37.798298,
          "lng": 128.542496
        }
      ],
      "color": "#2b2a19",
      "start_name": "비로봉조망점 / 비로봉정상 / 비로봉정상조망점",
      "length_meter": 439.6,
      "time_minute": 7
    },
    {
      "path_id": 4,
      "path": [
        {
          "lat": 37.798298,
          "lng": 128.542496
        },
        {
          "lat": 37.8008,
          "lng": 128.54509
        }
      ],
      "color": "#739329",
      "start_name": "헬기장",
      "length_meter": 359.6,
      "time_minute": 5
    },
    {
      "path_id": 5,
      "path": [
        {
          "lat": 37.8008,
          "lng": 128.54509
        },
        {
          "lat": 37.808617,
          "lng": 128.555435
        }
      ],
      "color": "#222208",
      "start_name": "주목나무군락지",
      "length_meter": 1257.6,
      "time_minute": 20
    },
    {
      "path_id": 6,
      "path": [
        {
          "lat": 37.808617,
          "lng": 128.555435
        },
        {
          "lat": 37.80872,
          "lng": 128.555786
        }
      ],
      "color": "#af0fb7",
      "start_name": "상왕봉정상",
      "length_meter": 32.9,
      "time_minute": 0
    },
    {
      "path_id": 7,
      "path": [
        {
          "lat": 37.80872,
          "lng": 128.555786
        },
        {
          "lat": 37.806522,
          "lng": 128.563293
        }
      ],
      "color": "#3f1095",
      "start_name": "오대산상왕봉조망점",
      "length_meter": 703.3,
      "time_minute": 11
    },
    {
      "path_id": 8,
      "path": [
        {
          "lat": 37.806522,
          "lng": 128.563293
        },
        {
          "lat": 37.793007,
          "lng": 128.561874
        }
      ],
      "color": "#3a0b6e",
      "start_name": "갈림길",
      "length_meter": 1508.0,
      "time_minute": 25
    },
    {
      "path_id": 9,
      "path": [
        {
          "lat": 37.793007,
          "lng": 128.561874
        },
        {
          "lat": 37.786388,
          "lng": 128.564499
        }
      ],
      "color": "#786c9d",
      "start_name": "간이쉼터",
      "length_meter": 771.3,
      "time_minute": 12
    },
    {
      "path_id": 10,
      "path": [
        {
          "lat": 37.786388,
          "lng": 128.564499
        },
        {
          "lat": 37.790154,
          "lng": 128.555054
        }
      ],
      "color": "#59837b",
      "start_name": "상원사",
      "length_meter": 929.6,
      "time_minute": 15
    }
  ]
}