{
  "max_ele": 1553.135,
  "total_length_km": "8.1km",
  "total_time": "1시간 41분",
  "track": [
    {
      "path_id": 0,
      "path": [
        {
          "lat": 37.78627,
          "lng": 128.565628
        },
        {
          "lat": 37.790195,
          "lng": 128.554901
        }
      ],
      "color": "#b97a85",
      "start_name": "갈림길",
      "length_meter": 1038.8,
      "time_minute": 12
    },
    {
      "path_id": 1,
      "path": [
        {
          "lat": 37.790195,
          "lng": 128.554901
        },
        {
          "lat": 37.790638,
          "lng": 128.552948
        }
      ],
      "color": "#0ab4b7",
      "start_name": "비로봉입구",
      "length_meter": 178.5,
      "time_minute": 2
    },
    {
      "path_id": 2,
      "path": [
        {
          "lat": 37.790638,
          "lng": 128.552948
        },
        {
          "lat": 37.794502,
          "lng": 128.543686
        }
      ],
      "color": "#34c0b2",
      "start_name": "간이쉼터",
      "length_meter": 920.3,
      "time_minute": 11
    },
    {
      "path_id": 3,
      "path": [
        {
          "lat": 37.794502,
          "lng": 128.543686
        },
        {
          "lat": 37.798298,
          "lng": 128.542496
        }
      ],
      "color": "#2d17a3",
      "start_name": "비로봉조망점 / 비로봉정상 / 비로봉정상조망점",
      "length_meter": 439.6,
      "time_minute": 7
    },
    {
      "path_id": 4,
      "path": [
        {
          "lat": 37.798298,
          "lng": 128.542496
        },
        {
          "lat": 37.8008,
          "lng": 128.54509
        }
      ],
      "color": "#9f5a1a",
      "start_name": "헬기장",
      "length_meter": 359.6,
      "time_minute": 4
    },
    {
      "path_id": 5,
      "path": [
        {
          "lat": 37.8008,
          "lng": 128.54509
        },
        {
          "lat": 37.808617,
          "lng": 128.555435
        }
      ],
      "color": "#8bb79a",
      "start_name": "주목나무군락지",
      "length_meter": 1257.6,
      "time_minute": 15
    },
    {
      "path_id": 6,
      "path": [
        {
          "lat": 37.808617,
          "lng": 128.555435
        },
        {
          "lat": 37.80872,
          "lng": 128.555786
        }
      ],
      "color": "#c7b06d",
      "start_name": "상왕봉정상",
      "length_meter": 32.9,
      "time_minute": 0
    },
    {
      "path_id": 7,
      "path": [
        {
          "lat": 37.80872,
          "lng": 128.555786
        },
        {
          "lat": 37.806522,
          "lng": 128.563293
        }
      ],
      "color": "#b1b158",
      "start_name": "오대산상왕봉조망점",
      "length_meter": 703.3,
      "time_minute": 8
    },
    {
      "path_id": 8,
      "path": [
        {
          "lat": 37.806522,
          "lng": 128.563293
        },
        {
          "lat": 37.793007,
          "lng": 128.561874
        }
      ],
      "color": "#925689",
      "start_name": "갈림길",
      "length_meter": 1508.0,
      "time_minute": 18
    },
    {
      "path_id": 9,
      "path": [
        {
          "lat": 37.793007,
          "lng": 128.561874
        },
        {
          "lat": 37.786388,
          "lng": 128.564499
        }
      ],
      "color": "#193888",
      "start_name": "간이쉼터",
      "length_meter": 771.3,
      "time_minute": 9
    },
    {
      "path_id": 10,
      "path": [
        {
          "lat": 37.786388,
          "lng": 128.564499
        },
        {
          "lat": 37.790154,
          "lng": 128.555054
        }
      ],
      "color": "#9b7e6c",
      "start_name": "상원사",
      "length_meter": 929.6,
      "time_minute": 11
    }
  ]
}