[
    {
        "name": "버스",
        "lat": 35.797501,
        "lon": 129.206314
    },
    {
        "name": "남산유적안내소",
        "lat": 35.798897,
        "lon": 129.206741
    },
    {
        "name": "서남산주차장",
        "lat": 35.798962,
        "lon": 129.20697
    },
    {
        "name": "삼불사",
        "lat": 35.802559,
        "lon": 129.208572
    },
    {
        "name": "삼불사주차장",
        "lat": 35.802261,
        "lon": 129.209778
    },
    {
        "name": "화장실",
        "lat": 35.801788,
        "lon": 129.210022
    },
    {
        "name": "경주 배동석조여래삼존입상",
        "lat": 35.801754,
        "lon": 129.210114
    },
    {
        "name": "배리석불입상",
        "lat": 35.801697,
        "lon": 129.210938
    },
    {
        "name": "배리석불입상",
        "lat": 35.801746,
        "lon": 129.211136
    },
    {
        "name": "선방곡석불입상",
        "lat": 35.801582,
        "lon": 129.212555
    },
    {
        "name": "갈림길",
        "lat": 35.801632,
        "lon": 129.212524
    },
    {
        "name": "단풍나무",
        "lat": 35.801865,
        "lon": 129.21077
    },
    {
        "name": "망월사",
        "lat": 35.801353,
        "lon": 129.210236
    },
    {
        "name": "공동묘지",
        "lat": 35.798859,
        "lon": 129.209839
    },
    {
        "name": "갈림길",
        "lat": 35.798328,
        "lon": 129.209702
    },
    {
        "name": "경주배동 삼릉",
        "lat": 35.797394,
        "lon": 129.208435
    },
    {
        "name": "삼릉숲",
        "lat": 35.797337,
        "lon": 129.208481
    },
    {
        "name": "배동 삼릉",
        "lat": 35.797115,
        "lon": 129.208694
    },
    {
        "name": "삼릉곡 제사지 석조여래좌상",
        "lat": 35.796936,
        "lon": 129.214905
    },
    {
        "name": "삼릉계곡육존불",
        "lat": 35.796246,
        "lon": 129.21582
    },
    {
        "name": "삼릉계 삼층석탑",
        "lat": 35.795177,
        "lon": 129.217163
    },
    {
        "name": "갈림길",
        "lat": 35.795074,
        "lon": 129.218384
    },
    {
        "name": "갈림길",
        "lat": 35.795055,
        "lon": 129.218369
    },
    {
        "name": "삼릉계 석조여래좌상",
        "lat": 35.795273,
        "lon": 129.218185
    },
    {
        "name": "삼릉곡 제6사지 석탑터",
        "lat": 35.795212,
        "lon": 129.218033
    },
    {
        "name": "상선암",
        "lat": 35.795021,
        "lon": 129.221741
    },
    {
        "name": "낙석주의",
        "lat": 35.795601,
        "lon": 129.221542
    },
    {
        "name": "갈림길",
        "lat": 35.795662,
        "lon": 129.221359
    },
    {
        "name": "마애석가여래좌상",
        "lat": 35.795708,
        "lon": 129.221832
    },
    {
        "name": "바둑바위",
        "lat": 35.796291,
        "lon": 129.221924
    },
    {
        "name": "바둑바위",
        "lat": 35.796093,
        "lon": 129.222198
    },
    {
        "name": "금송정터",
        "lat": 35.79583,
        "lon": 129.22197
    },
    {
        "name": "냉골바위산",
        "lat": 35.795811,
        "lon": 129.222061
    },
    {
        "name": "자연경관",
        "lat": 35.795616,
        "lon": 129.222427
    },
    {
        "name": "자연경관",
        "lat": 35.795387,
        "lon": 129.222595
    },
    {
        "name": "포토존",
        "lat": 35.793922,
        "lon": 129.223221
    },
    {
        "name": "조망점",
        "lat": 35.793449,
        "lon": 129.223358
    },
    {
        "name": "비파골의 전설",
        "lat": 35.787678,
        "lon": 129.222763
    },
    {
        "name": "자연경관",
        "lat": 35.781605,
        "lon": 129.222931
    },
    {
        "name": "고위봉",
        "lat": 35.781521,
        "lon": 129.222946
    },
    {
        "name": "용장사곡 삼층석탑",
        "lat": 35.781315,
        "lon": 129.223007
    },
    {
        "name": "용장사곡 삼층석탑",
        "lat": 35.781261,
        "lon": 129.223068
    },
    {
        "name": "고위봉",
        "lat": 35.780891,
        "lon": 129.223221
    },
    {
        "name": "용장사지 석조여래좌상",
        "lat": 35.780926,
        "lon": 129.222885
    },
    {
        "name": "용장사지 마애여래좌상",
        "lat": 35.780899,
        "lon": 129.222961
    },
    {
        "name": "자연경관",
        "lat": 35.777596,
        "lon": 129.221603
    },
    {
        "name": "낙석주의",
        "lat": 35.776596,
        "lon": 129.218369
    },
    {
        "name": "남산 안내도",
        "lat": 35.774857,
        "lon": 129.210693
    },
    {
        "name": "주차장",
        "lat": 35.774929,
        "lon": 129.209747
    },
    {
        "name": "달작",
        "lat": 35.775043,
        "lon": 129.209763
    },
    {
        "name": "용장휴게소",
        "lat": 35.775208,
        "lon": 129.205032
    },
    {
        "name": "화장실",
        "lat": 35.775356,
        "lon": 129.204819
    },
    {
        "name": "주차장",
        "lat": 35.775307,
        "lon": 129.204834
    },
    {
        "name": "용장주차장",
        "lat": 35.776134,
        "lon": 129.204895
    }
]