[
  {
    "path_id": 0,
    "path": [
      {
        "lat": 35.540413,
        "lng": 128.506729
      },
      {
        "lat": 35.540466,
        "lng": 128.507584
      }
    ],
    "color": "#6a2e79",
    "start_name": "자하곡매표소 / 체육공원겸 쉼터",
    "length_meter": 84.9,
    "time_minute": 1
  },
  {
    "path_id": 1,
    "path": [
      {
        "lat": 35.540466,
        "lng": 128.507584
      },
      {
        "lat": 35.540638,
        "lng": 128.509247
      }
    ],
    "color": "#17b6e8",
    "start_name": "화장실 / 창녕군관광안내센터 / 화왕산 안내도",
    "length_meter": 163.3,
    "time_minute": 2
  },
  {
    "path_id": 2,
    "path": [
      {
        "lat": 35.540638,
        "lng": 128.509247
      },
      {
        "lat": 35.54105,
        "lng": 128.512909
      }
    ],
    "color": "#d13758",
    "start_name": "산과구름아래",
    "length_meter": 334.5,
    "time_minute": 5
  },
  {
    "path_id": 3,
    "path": [
      {
        "lat": 35.54105,
        "lng": 128.512909
      },
      {
        "lat": 35.542439,
        "lng": 128.519363
      }
    ],
    "color": "#c26422",
    "start_name": "화장실",
    "length_meter": 604.0,
    "time_minute": 10
  },
  {
    "path_id": 4,
    "path": [
      {
        "lat": 35.542439,
        "lng": 128.519363
      },
      {
        "lat": 35.543491,
        "lng": 128.52005
      }
    ],
    "color": "#8abb34",
    "start_name": "갈림길",
    "length_meter": 132.5,
    "time_minute": 2
  },
  {
    "path_id": 5,
    "path": [
      {
        "lat": 35.543491,
        "lng": 128.52005
      },
      {
        "lat": 35.544838,
        "lng": 128.524887
      }
    ],
    "color": "#f33e85",
    "start_name": "도성암",
    "length_meter": 462.6,
    "time_minute": 7
  },
  {
    "path_id": 6,
    "path": [
      {
        "lat": 35.544838,
        "lng": 128.524887
      },
      {
        "lat": 35.547092,
        "lng": 128.531754
      }
    ],
    "color": "#0b1557",
    "start_name": "갈림길",
    "length_meter": 669.9,
    "time_minute": 11
  },
  {
    "path_id": 7,
    "path": [
      {
        "lat": 35.547092,
        "lng": 128.531754
      },
      {
        "lat": 35.544914,
        "lng": 128.533401
      }
    ],
    "color": "#301cfe",
    "start_name": "화왕산 정상",
    "length_meter": 284.4,
    "time_minute": 4
  },
  {
    "path_id": 8,
    "path": [
      {
        "lat": 35.544914,
        "lng": 128.533401
      },
      {
        "lat": 35.541824,
        "lng": 128.534943
      }
    ],
    "color": "#812cc7",
    "start_name": "갈림길",
    "length_meter": 370.8,
    "time_minute": 6
  },
  {
    "path_id": 9,
    "path": [
      {
        "lat": 35.541824,
        "lng": 128.534943
      },
      {
        "lat": 35.53973,
        "lng": 128.533249
      }
    ],
    "color": "#7db6fe",
    "start_name": "배봉 정상",
    "length_meter": 278.8,
    "time_minute": 4
  },
  {
    "path_id": 10,
    "path": [
      {
        "lat": 35.53973,
        "lng": 128.533249
      },
      {
        "lat": 35.5369,
        "lng": 128.533295
      }
    ],
    "color": "#515b83",
    "start_name": "갈림길",
    "length_meter": 314.7,
    "time_minute": 5
  },
  {
    "path_id": 11,
    "path": [
      {
        "lat": 35.5369,
        "lng": 128.533295
      },
      {
        "lat": 35.535477,
        "lng": 128.532425
      }
    ],
    "color": "#067121",
    "start_name": "병풍바위",
    "length_meter": 176.7,
    "time_minute": 2
  },
  {
    "path_id": 12,
    "path": [
      {
        "lat": 35.535477,
        "lng": 128.532425
      },
      {
        "lat": 35.53112,
        "lng": 128.533127
      }
    ],
    "color": "#bd6360",
    "start_name": "갈림길",
    "length_meter": 488.6,
    "time_minute": 8
  },
  {
    "path_id": 13,
    "path": [
      {
        "lat": 35.53112,
        "lng": 128.533127
      },
      {
        "lat": 35.518471,
        "lng": 128.534241
      }
    ],
    "color": "#f6f43f",
    "start_name": "화왕지맥 / 갈림길",
    "length_meter": 1413.2,
    "time_minute": 23
  },
  {
    "path_id": 14,
    "path": [
      {
        "lat": 35.518471,
        "lng": 128.534241
      },
      {
        "lat": 35.518478,
        "lng": 128.534225
      }
    ],
    "color": "#2909e0",
    "start_name": "비들재 화왕산 등산로 안내도",
    "length_meter": 1.6,
    "time_minute": 0
  }
]