[
  {
    "path_id": 0,
    "path": [
      {
        "lat": 35.569134,
        "lng": 128.528687
      },
      {
        "lat": 35.56813,
        "lng": 128.528854
      }
    ],
    "color": "#6651b6",
    "start_name": "상월마을회관 / 상월마을회관",
    "length_meter": 122.2,
    "time_minute": 2
  },
  {
    "path_id": 1,
    "path": [
      {
        "lat": 35.56813,
        "lng": 128.528854
      },
      {
        "lat": 35.567997,
        "lng": 128.529266
      }
    ],
    "color": "#363e67",
    "start_name": "쉼터 / 반곡고택",
    "length_meter": 102.2,
    "time_minute": 1
  },
  {
    "path_id": 2,
    "path": [
      {
        "lat": 35.567997,
        "lng": 128.529266
      },
      {
        "lat": 35.567436,
        "lng": 128.529968
      }
    ],
    "color": "#a776b0",
    "start_name": "간이주차장",
    "length_meter": 89.0,
    "time_minute": 1
  },
  {
    "path_id": 3,
    "path": [
      {
        "lat": 35.567436,
        "lng": 128.529968
      },
      {
        "lat": 35.568001,
        "lng": 128.530945
      }
    ],
    "color": "#06ea63",
    "start_name": "갈림길",
    "length_meter": 108.4,
    "time_minute": 1
  },
  {
    "path_id": 4,
    "path": [
      {
        "lat": 35.568001,
        "lng": 128.530945
      },
      {
        "lat": 35.564495,
        "lng": 128.534225
      }
    ],
    "color": "#aaa473",
    "start_name": "갈림길 / 갈림길 / 화왕산 스토리길 안내도",
    "length_meter": 490.6,
    "time_minute": 8
  },
  {
    "path_id": 5,
    "path": [
      {
        "lat": 35.564495,
        "lng": 128.534225
      },
      {
        "lat": 35.556969,
        "lng": 128.53717
      }
    ],
    "color": "#ce7196",
    "start_name": "갈림길",
    "length_meter": 878.2,
    "time_minute": 14
  },
  {
    "path_id": 6,
    "path": [
      {
        "lat": 35.556969,
        "lng": 128.53717
      },
      {
        "lat": 35.551147,
        "lng": 128.536057
      }
    ],
    "color": "#57a866",
    "start_name": "갈림길 / 소나무숲",
    "length_meter": 655.2,
    "time_minute": 10
  },
  {
    "path_id": 7,
    "path": [
      {
        "lat": 35.551147,
        "lng": 128.536057
      },
      {
        "lat": 35.550503,
        "lng": 128.536285
      }
    ],
    "color": "#1ace02",
    "start_name": "화왕산",
    "length_meter": 74.5,
    "time_minute": 1
  },
  {
    "path_id": 8,
    "path": [
      {
        "lat": 35.550503,
        "lng": 128.536285
      },
      {
        "lat": 35.548386,
        "lng": 128.537247
      }
    ],
    "color": "#82d72a",
    "start_name": "조망점 / 조망점 / 화왕산 정상",
    "length_meter": 253.0,
    "time_minute": 4
  },
  {
    "path_id": 9,
    "path": [
      {
        "lat": 35.548386,
        "lng": 128.537247
      },
      {
        "lat": 35.547386,
        "lng": 128.53653
      }
    ],
    "color": "#747cf5",
    "start_name": "갈림길 / 쉼터",
    "length_meter": 129.1,
    "time_minute": 2
  },
  {
    "path_id": 10,
    "path": [
      {
        "lat": 35.547386,
        "lng": 128.53653
      },
      {
        "lat": 35.548603,
        "lng": 128.529312
      }
    ],
    "color": "#1d16e6",
    "start_name": "화왕산성 및 억새밭 / 갈림길 / 조망점",
    "length_meter": 671.3,
    "time_minute": 11
  },
  {
    "path_id": 11,
    "path": [
      {
        "lat": 35.548603,
        "lng": 128.529312
      },
      {
        "lat": 35.556602,
        "lng": 128.522797
      }
    ],
    "color": "#48066b",
    "start_name": "쉼터 / 쉼터 / 조망점 / 쉼터 / 갈림길",
    "length_meter": 1083.4,
    "time_minute": 18
  },
  {
    "path_id": 12,
    "path": [
      {
        "lat": 35.556602,
        "lng": 128.522797
      },
      {
        "lat": 35.556938,
        "lng": 128.520615
      }
    ],
    "color": "#4e06c8",
    "start_name": "쉼터 / 쉼터",
    "length_meter": 204.5,
    "time_minute": 3
  },
  {
    "path_id": 13,
    "path": [
      {
        "lat": 35.556938,
        "lng": 128.520615
      },
      {
        "lat": 35.559612,
        "lng": 128.522583
      }
    ],
    "color": "#af9199",
    "start_name": "갈림길",
    "length_meter": 346.6,
    "time_minute": 5
  },
  {
    "path_id": 14,
    "path": [
      {
        "lat": 35.559612,
        "lng": 128.522583
      },
      {
        "lat": 35.561592,
        "lng": 128.526245
      }
    ],
    "color": "#b86f46",
    "start_name": "갈림길",
    "length_meter": 397.7,
    "time_minute": 6
  },
  {
    "path_id": 15,
    "path": [
      {
        "lat": 35.561592,
        "lng": 128.526245
      },
      {
        "lat": 35.565399,
        "lng": 128.531906
      }
    ],
    "color": "#684136",
    "start_name": "갈림길",
    "length_meter": 664.4,
    "time_minute": 11
  },
  {
    "path_id": 16,
    "path": [
      {
        "lat": 35.565399,
        "lng": 128.531906
      },
      {
        "lat": 35.569054,
        "lng": 128.528503
      }
    ],
    "color": "#23e5fa",
    "start_name": "갈림길",
    "length_meter": 509.8,
    "time_minute": 8
  },
  {
    "path_id": 17,
    "path": [
      {
        "lat": 35.569054,
        "lng": 128.528503
      },
      {
        "lat": 35.569061,
        "lng": 128.528503
      }
    ],
    "color": "#47bf5d",
    "start_name": "보호수",
    "length_meter": 0.8,
    "time_minute": 0
  }
]