[
  {
    "path_id": 0,
    "path": [
      {
        "lat": 35.541355,
        "lng": 128.507431
      },
      {
        "lat": 35.546135,
        "lng": 128.504929
      }
    ],
    "color": "#44016c",
    "start_name": "창화사",
    "length_meter": 577.7,
    "time_minute": 9
  },
  {
    "path_id": 1,
    "path": [
      {
        "lat": 35.546135,
        "lng": 128.504929
      },
      {
        "lat": 35.546803,
        "lng": 128.504959
      }
    ],
    "color": "#4d70b8",
    "start_name": "교동고분군(들머리)",
    "length_meter": 74.3,
    "time_minute": 1
  },
  {
    "path_id": 2,
    "path": [
      {
        "lat": 35.546803,
        "lng": 128.504959
      },
      {
        "lat": 35.54797,
        "lng": 128.512253
      }
    ],
    "color": "#8ebead",
    "start_name": "창녕박물관 주차장 / 창녕교동고분군",
    "length_meter": 778.2,
    "time_minute": 12
  },
  {
    "path_id": 3,
    "path": [
      {
        "lat": 35.54797,
        "lng": 128.512253
      },
      {
        "lat": 35.546444,
        "lng": 128.516891
      }
    ],
    "color": "#311c8f",
    "start_name": "목마산성",
    "length_meter": 452.6,
    "time_minute": 7
  },
  {
    "path_id": 4,
    "path": [
      {
        "lat": 35.546444,
        "lng": 128.516891
      },
      {
        "lat": 35.545677,
        "lng": 128.537704
      }
    ],
    "color": "#c633bb",
    "start_name": "돌탑",
    "length_meter": 1885.0,
    "time_minute": 31
  },
  {
    "path_id": 5,
    "path": [
      {
        "lat": 35.545677,
        "lng": 128.537704
      },
      {
        "lat": 35.545742,
        "lng": 128.533798
      }
    ],
    "color": "#0db4b9",
    "start_name": "갈림길",
    "length_meter": 353.5,
    "time_minute": 5
  },
  {
    "path_id": 6,
    "path": [
      {
        "lat": 35.545742,
        "lng": 128.533798
      },
      {
        "lat": 35.543381,
        "lng": 128.525787
      }
    ],
    "color": "#0e23a1",
    "start_name": "화왕산성",
    "length_meter": 770.9,
    "time_minute": 12
  },
  {
    "path_id": 7,
    "path": [
      {
        "lat": 35.543381,
        "lng": 128.525787
      },
      {
        "lat": 35.542591,
        "lng": 128.523514
      }
    ],
    "color": "#5e498f",
    "start_name": "갈림길",
    "length_meter": 223.6,
    "time_minute": 3
  },
  {
    "path_id": 8,
    "path": [
      {
        "lat": 35.542591,
        "lng": 128.523514
      },
      {
        "lat": 35.542519,
        "lng": 128.521851
      }
    ],
    "color": "#5f4095",
    "start_name": "체육공원겸 쉼터",
    "length_meter": 150.7,
    "time_minute": 2
  },
  {
    "path_id": 9,
    "path": [
      {
        "lat": 35.542519,
        "lng": 128.521851
      },
      {
        "lat": 35.541599,
        "lng": 128.509338
      }
    ],
    "color": "#2d0444",
    "start_name": "갈림길",
    "length_meter": 1136.8,
    "time_minute": 18
  }
]