{
  "max_ele": 777.0,
  "total_length_km": "6.4km",
  "total_time": "1시간 20분",
  "track": [
    {
      "path_id": 0,
      "path": [
        {
          "lat": 35.541355,
          "lng": 128.507431
        },
        {
          "lat": 35.546135,
          "lng": 128.504929
        }
      ],
      "color": "#693c66",
      "start_name": "창화사",
      "length_meter": 577.7,
      "time_minute": 7
    },
    {
      "path_id": 1,
      "path": [
        {
          "lat": 35.546135,
          "lng": 128.504929
        },
        {
          "lat": 35.546677,
          "lng": 128.504395
        }
      ],
      "color": "#49c600",
      "start_name": "교동고분군(들머리) / 창녕박물관 주차장",
      "length_meter": 127.2,
      "time_minute": 1
    },
    {
      "path_id": 2,
      "path": [
        {
          "lat": 35.546677,
          "lng": 128.504395
        },
        {
          "lat": 35.54797,
          "lng": 128.512253
        }
      ],
      "color": "#115987",
      "start_name": "창녕교동고분군",
      "length_meter": 725.3,
      "time_minute": 9
    },
    {
      "path_id": 3,
      "path": [
        {
          "lat": 35.54797,
          "lng": 128.512253
        },
        {
          "lat": 35.546444,
          "lng": 128.516891
        }
      ],
      "color": "#8a580a",
      "start_name": "목마산성",
      "length_meter": 452.6,
      "time_minute": 5
    },
    {
      "path_id": 4,
      "path": [
        {
          "lat": 35.546444,
          "lng": 128.516891
        },
        {
          "lat": 35.545677,
          "lng": 128.537704
        }
      ],
      "color": "#5cb59a",
      "start_name": "돌탑",
      "length_meter": 1885.0,
      "time_minute": 23
    },
    {
      "path_id": 5,
      "path": [
        {
          "lat": 35.545677,
          "lng": 128.537704
        },
        {
          "lat": 35.545742,
          "lng": 128.533798
        }
      ],
      "color": "#165d26",
      "start_name": "갈림길",
      "length_meter": 353.5,
      "time_minute": 4
    },
    {
      "path_id": 6,
      "path": [
        {
          "lat": 35.545742,
          "lng": 128.533798
        },
        {
          "lat": 35.544117,
          "lng": 128.530533
        }
      ],
      "color": "#a6776f",
      "start_name": "화왕산성",
      "length_meter": 346.3,
      "time_minute": 4
    },
    {
      "path_id": 7,
      "path": [
        {
          "lat": 35.544117,
          "lng": 128.530533
        },
        {
          "lat": 35.543381,
          "lng": 128.525787
        }
      ],
      "color": "#7b3764",
      "start_name": "쉼터",
      "length_meter": 437.1,
      "time_minute": 5
    },
    {
      "path_id": 8,
      "path": [
        {
          "lat": 35.543381,
          "lng": 128.525787
        },
        {
          "lat": 35.543362,
          "lng": 128.525757
        }
      ],
      "color": "#20af65",
      "start_name": "갈림길",
      "length_meter": 3.4,
      "time_minute": 0
    },
    {
      "path_id": 9,
      "path": [
        {
          "lat": 35.543362,
          "lng": 128.525757
        },
        {
          "lat": 35.542778,
          "lng": 128.52388
        }
      ],
      "color": "#2b4649",
      "start_name": "쉼터",
      "length_meter": 181.8,
      "time_minute": 2
    },
    {
      "path_id": 10,
      "path": [
        {
          "lat": 35.542778,
          "lng": 128.52388
        },
        {
          "lat": 35.542454,
          "lng": 128.522552
        }
      ],
      "color": "#ba3d5b",
      "start_name": "갈림길 / 쉼터 / 체육공원겸 쉼터",
      "length_meter": 127.5,
      "time_minute": 2
    },
    {
      "path_id": 11,
      "path": [
        {
          "lat": 35.542454,
          "lng": 128.522552
        },
        {
          "lat": 35.542191,
          "lng": 128.519577
        }
      ],
      "color": "#9262a6",
      "start_name": "쉼터 / 갈림길",
      "length_meter": 272.8,
      "time_minute": 4
    },
    {
      "path_id": 12,
      "path": [
        {
          "lat": 35.542191,
          "lng": 128.519577
        },
        {
          "lat": 35.541599,
          "lng": 128.509338
        }
      ],
      "color": "#5c9c34",
      "start_name": "쉼터",
      "length_meter": 928.7,
      "time_minute": 11
    }
  ]
}