[
  {
    "path_id": 0,
    "path": [
      {
        "lat": 35.569134,
        "lng": 128.528687
      },
      {
        "lat": 35.56834,
        "lng": 128.529465
      }
    ],
    "color": "#196808",
    "start_name": "상월마을회관",
    "length_meter": 112.9,
    "time_minute": 1
  },
  {
    "path_id": 1,
    "path": [
      {
        "lat": 35.56834,
        "lng": 128.529465
      },
      {
        "lat": 35.567997,
        "lng": 128.529266
      }
    ],
    "color": "#409b8c",
    "start_name": "반곡고택",
    "length_meter": 42.2,
    "time_minute": 0
  },
  {
    "path_id": 2,
    "path": [
      {
        "lat": 35.567997,
        "lng": 128.529266
      },
      {
        "lat": 35.567436,
        "lng": 128.529968
      }
    ],
    "color": "#126169",
    "start_name": "간이주차장",
    "length_meter": 89.0,
    "time_minute": 1
  },
  {
    "path_id": 3,
    "path": [
      {
        "lat": 35.567436,
        "lng": 128.529968
      },
      {
        "lat": 35.567852,
        "lng": 128.531113
      }
    ],
    "color": "#a5a565",
    "start_name": "갈림길",
    "length_meter": 113.4,
    "time_minute": 1
  },
  {
    "path_id": 4,
    "path": [
      {
        "lat": 35.567852,
        "lng": 128.531113
      },
      {
        "lat": 35.564495,
        "lng": 128.534225
      }
    ],
    "color": "#9ab627",
    "start_name": "화왕산 스토리길 안내도",
    "length_meter": 467.5,
    "time_minute": 7
  },
  {
    "path_id": 5,
    "path": [
      {
        "lat": 35.564495,
        "lng": 128.534225
      },
      {
        "lat": 35.556885,
        "lng": 128.53714
      }
    ],
    "color": "#a964b0",
    "start_name": "갈림길",
    "length_meter": 886.3,
    "time_minute": 14
  },
  {
    "path_id": 6,
    "path": [
      {
        "lat": 35.556885,
        "lng": 128.53714
      },
      {
        "lat": 35.551147,
        "lng": 128.536057
      }
    ],
    "color": "#6b5f71",
    "start_name": "소나무숲",
    "length_meter": 645.5,
    "time_minute": 10
  },
  {
    "path_id": 7,
    "path": [
      {
        "lat": 35.551147,
        "lng": 128.536057
      },
      {
        "lat": 35.55003,
        "lng": 128.536377
      }
    ],
    "color": "#6b0d04",
    "start_name": "화왕산",
    "length_meter": 127.5,
    "time_minute": 2
  },
  {
    "path_id": 8,
    "path": [
      {
        "lat": 35.55003,
        "lng": 128.536377
      },
      {
        "lat": 35.548386,
        "lng": 128.537247
      }
    ],
    "color": "#42b15b",
    "start_name": "화왕산 정상",
    "length_meter": 199.0,
    "time_minute": 3
  },
  {
    "path_id": 9,
    "path": [
      {
        "lat": 35.548386,
        "lng": 128.537247
      },
      {
        "lat": 35.547386,
        "lng": 128.53653
      }
    ],
    "color": "#7a23a2",
    "start_name": "갈림길",
    "length_meter": 128.7,
    "time_minute": 2
  },
  {
    "path_id": 10,
    "path": [
      {
        "lat": 35.547386,
        "lng": 128.53653
      },
      {
        "lat": 35.569054,
        "lng": 128.528503
      }
    ],
    "color": "#4f6daa",
    "start_name": "화왕산성 및 억새밭 / 갈림길",
    "length_meter": 2520.3,
    "time_minute": 42
  },
  {
    "path_id": 11,
    "path": [
      {
        "lat": 35.569054,
        "lng": 128.528503
      },
      {
        "lat": 35.569061,
        "lng": 128.528503
      }
    ],
    "color": "#af8777",
    "start_name": "보호수",
    "length_meter": 0.8,
    "time_minute": 0
  }
]