{
  "max_ele": 1099.414,
  "track": [
    {
      "path_id": 0,
      "path": [
        {
          "lat": 37.323566,
          "lng": 129.014221
        },
        {
          "lat": 37.322968,
          "lng": 129.01236
        }
      ],
      "color": "#3eb193",
      "start_name": "계곡 식당가들 / 웨이포인트 1",
      "length_meter": 177.6,
      "time_minute": 2
    },
    {
      "path_id": 1,
      "path": [
        {
          "lat": 37.322968,
          "lng": 129.01236
        },
        {
          "lat": 37.322491,
          "lng": 129.011398
        }
      ],
      "color": "#36b942",
      "start_name": "대이계곡 / 황선굴 승강장",
      "length_meter": 138.1,
      "time_minute": 2
    },
    {
      "path_id": 2,
      "path": [
        {
          "lat": 37.322491,
          "lng": 129.011398
        },
        {
          "lat": 37.322414,
          "lng": 129.010239
        }
      ],
      "color": "#95480e",
      "start_name": "작은 공터",
      "length_meter": 102.8,
      "time_minute": 1
    },
    {
      "path_id": 3,
      "path": [
        {
          "lat": 37.322414,
          "lng": 129.010239
        },
        {
          "lat": 37.32262,
          "lng": 129.008957
        }
      ],
      "color": "#835576",
      "start_name": "벤치 4개 / 등산로 전 화장실",
      "length_meter": 145.3,
      "time_minute": 2
    },
    {
      "path_id": 4,
      "path": [
        {
          "lat": 37.32262,
          "lng": 129.008957
        },
        {
          "lat": 37.322483,
          "lng": 129.008026
        }
      ],
      "color": "#59a799",
      "start_name": "선녀폭포 / 보호수 / 환선굴 가기전 쉼터",
      "length_meter": 91.2,
      "time_minute": 1
    },
    {
      "path_id": 5,
      "path": [
        {
          "lat": 37.322483,
          "lng": 129.008026
        },
        {
          "lat": 37.323387,
          "lng": 129.008194
        }
      ],
      "color": "#4bc69a",
      "start_name": "골말",
      "length_meter": 101.6,
      "time_minute": 1
    },
    {
      "path_id": 6,
      "path": [
        {
          "lat": 37.323387,
          "lng": 129.008194
        },
        {
          "lat": 37.323479,
          "lng": 129.00824
        }
      ],
      "color": "#991bb0",
      "start_name": "모노레일 승하차장 옆 화장실",
      "length_meter": 11.0,
      "time_minute": 0
    },
    {
      "path_id": 7,
      "path": [
        {
          "lat": 37.323479,
          "lng": 129.00824
        },
        {
          "lat": 37.32243,
          "lng": 129.008118
        }
      ],
      "color": "#0db92f",
      "start_name": "황선굴",
      "length_meter": 117.1,
      "time_minute": 1
    },
    {
      "path_id": 8,
      "path": [
        {
          "lat": 37.32243,
          "lng": 129.008118
        },
        {
          "lat": 37.323303,
          "lng": 129.004868
        }
      ],
      "color": "#b1b7a6",
      "start_name": "갈림길",
      "length_meter": 303.3,
      "time_minute": 5
    },
    {
      "path_id": 9,
      "path": [
        {
          "lat": 37.323303,
          "lng": 129.004868
        },
        {
          "lat": 37.32309,
          "lng": 129.005005
        }
      ],
      "color": "#b02c2c",
      "start_name": "전망대 / 갈림길 / 등산로 폐쇄 / 동굴",
      "length_meter": 60.3,
      "time_minute": 1
    },
    {
      "path_id": 10,
      "path": [
        {
          "lat": 37.32309,
          "lng": 129.005005
        },
        {
          "lat": 37.323348,
          "lng": 129.004137
        }
      ],
      "color": "#c37a01",
      "start_name": "천연동굴전망대",
      "length_meter": 81.9,
      "time_minute": 1
    },
    {
      "path_id": 11,
      "path": [
        {
          "lat": 37.323348,
          "lng": 129.004137
        },
        {
          "lat": 37.323959,
          "lng": 129.003326
        }
      ],
      "color": "#08659a",
      "start_name": "웨이포인트 21",
      "length_meter": 98.8,
      "time_minute": 1
    },
    {
      "path_id": 12,
      "path": [
        {
          "lat": 37.323959,
          "lng": 129.003326
        },
        {
          "lat": 37.325077,
          "lng": 129.002991
        }
      ],
      "color": "#7b8934",
      "start_name": "제1전망대",
      "length_meter": 127.8,
      "time_minute": 2
    },
    {
      "path_id": 13,
      "path": [
        {
          "lat": 37.325077,
          "lng": 129.002991
        },
        {
          "lat": 37.325657,
          "lng": 129.003723
        }
      ],
      "color": "#7bc641",
      "start_name": "제2전망대",
      "length_meter": 91.4,
      "time_minute": 1
    },
    {
      "path_id": 14,
      "path": [
        {
          "lat": 37.325657,
          "lng": 129.003723
        },
        {
          "lat": 37.324577,
          "lng": 128.998245
        }
      ],
      "color": "#a5c101",
      "start_name": "약수터 / 갈림길",
      "length_meter": 499.3,
      "time_minute": 8
    },
    {
      "path_id": 15,
      "path": [
        {
          "lat": 37.324577,
          "lng": 128.998245
        },
        {
          "lat": 37.322987,
          "lng": 128.998838
        }
      ],
      "color": "#5b3f2a",
      "start_name": "낭떠러지",
      "length_meter": 184.4,
      "time_minute": 3
    },
    {
      "path_id": 16,
      "path": [
        {
          "lat": 37.322987,
          "lng": 128.998838
        },
        {
          "lat": 37.319304,
          "lng": 128.999871
        }
      ],
      "color": "#990115",
      "start_name": "웨이포인트 29",
      "length_meter": 419.6,
      "time_minute": 6
    },
    {
      "path_id": 17,
      "path": [
        {
          "lat": 37.319304,
          "lng": 128.999871
        },
        {
          "lat": 37.318665,
          "lng": 129.000885
        }
      ],
      "color": "#ac5219",
      "start_name": "웨이포인트 30",
      "length_meter": 114.4,
      "time_minute": 1
    },
    {
      "path_id": 18,
      "path": [
        {
          "lat": 37.318665,
          "lng": 129.000885
        },
        {
          "lat": 37.315807,
          "lng": 129.003723
        }
      ],
      "color": "#80105c",
      "start_name": "지각산 환선봉 / 황선봉 근처",
      "length_meter": 425.0,
      "time_minute": 7
    },
    {
      "path_id": 19,
      "path": [
        {
          "lat": 37.315807,
          "lng": 129.003723
        },
        {
          "lat": 37.313156,
          "lng": 129.006195
        }
      ],
      "color": "#ae3786",
      "start_name": "낭떠러지 / 웨이포인트 34",
      "length_meter": 370.3,
      "time_minute": 6
    },
    {
      "path_id": 20,
      "path": [
        {
          "lat": 37.313156,
          "lng": 129.006195
        },
        {
          "lat": 37.311569,
          "lng": 129.009872
        }
      ],
      "color": "#768144",
      "start_name": "낭떠러지",
      "length_meter": 370.0,
      "time_minute": 6
    },
    {
      "path_id": 21,
      "path": [
        {
          "lat": 37.311569,
          "lng": 129.009872
        },
        {
          "lat": 37.313992,
          "lng": 129.011215
        }
      ],
      "color": "#66b321",
      "start_name": "갈림길 / 철계단 시작하고 조금 아래",
      "length_meter": 306.5,
      "time_minute": 5
    },
    {
      "path_id": 22,
      "path": [
        {
          "lat": 37.313992,
          "lng": 129.011215
        },
        {
          "lat": 37.314741,
          "lng": 129.011726
        }
      ],
      "color": "#8d745d",
      "start_name": "철계단파손",
      "length_meter": 94.8,
      "time_minute": 1
    },
    {
      "path_id": 23,
      "path": [
        {
          "lat": 37.314741,
          "lng": 129.011726
        },
        {
          "lat": 37.317617,
          "lng": 129.013447
        }
      ],
      "color": "#5f2c3a",
      "start_name": "웨이포인트 42",
      "length_meter": 354.2,
      "time_minute": 5
    },
    {
      "path_id": 24,
      "path": [
        {
          "lat": 37.317617,
          "lng": 129.013447
        },
        {
          "lat": 37.321891,
          "lng": 129.014794
        }
      ],
      "color": "#364e45",
      "start_name": "웨이포인트 43",
      "length_meter": 489.9,
      "time_minute": 8
    },
    {
      "path_id": 25,
      "path": [
        {
          "lat": 37.321891,
          "lng": 129.014794
        },
        {
          "lat": 37.323292,
          "lng": 129.013565
        }
      ],
      "color": "#8f9984",
      "start_name": "웨이포인트 44",
      "length_meter": 189.9,
      "time_minute": 3
    },
    {
      "path_id": 26,
      "path": [
        {
          "lat": 37.323292,
          "lng": 129.013565
        },
        {
          "lat": 37.323185,
          "lng": 129.013306
        }
      ],
      "color": "#0f7e00",
      "start_name": "골말 / 등산로입구 화장실",
      "length_meter": 37.2,
      "time_minute": 0
    }
  ]
}