{
  "max_ele": 1099.423,
  "total_length_km": "5.1km",
  "total_time": "1시간 3분",
  "start_name": "예수원정류장",
  "end_name": "예수원정류장",
  "track": [
    {
      "path_id": 0,
      "path": [
        {
          "lat": 37.304321,
          "lng": 128.991989
        },
        {
          "lat": 37.304699,
          "lng": 129.003616
        }
      ],
      "color": "#591452",
      "start_name": "예수원정류장",
      "length_meter": 1029.2,
      "time_minute": 12
    },
    {
      "path_id": 1,
      "path": [
        {
          "lat": 37.304699,
          "lng": 129.003616
        },
        {
          "lat": 37.304607,
          "lng": 129.004608
        }
      ],
      "color": "#3a9c1a",
      "start_name": "덕항산 등산로입구, 외나무골",
      "length_meter": 88.3,
      "time_minute": 1
    },
    {
      "path_id": 2,
      "path": [
        {
          "lat": 37.304607,
          "lng": 129.004608
        },
        {
          "lat": 37.303388,
          "lng": 129.018327
        }
      ],
      "color": "#b8672b",
      "start_name": "갈림길",
      "length_meter": 1221.0,
      "time_minute": 15
    },
    {
      "path_id": 3,
      "path": [
        {
          "lat": 37.303388,
          "lng": 129.018327
        },
        {
          "lat": 37.304821,
          "lng": 129.017838
        }
      ],
      "color": "#0f3ca2",
      "start_name": "웨이포인트 10",
      "length_meter": 165.1,
      "time_minute": 2
    },
    {
      "path_id": 4,
      "path": [
        {
          "lat": 37.304821,
          "lng": 129.017838
        },
        {
          "lat": 37.304924,
          "lng": 129.016636
        }
      ],
      "color": "#1e3021",
      "start_name": "갈림길",
      "length_meter": 106.9,
      "time_minute": 1
    },
    {
      "path_id": 5,
      "path": [
        {
          "lat": 37.304924,
          "lng": 129.016636
        },
        {
          "lat": 37.305382,
          "lng": 129.0159
        }
      ],
      "color": "#981737",
      "start_name": "웨이포인트 13",
      "length_meter": 82.7,
      "time_minute": 1
    },
    {
      "path_id": 6,
      "path": [
        {
          "lat": 37.305382,
          "lng": 129.0159
        },
        {
          "lat": 37.308937,
          "lng": 129.012405
        }
      ],
      "color": "#bf3249",
      "start_name": "전망좋은곳",
      "length_meter": 501.8,
      "time_minute": 6
    },
    {
      "path_id": 7,
      "path": [
        {
          "lat": 37.308937,
          "lng": 129.012405
        },
        {
          "lat": 37.310471,
          "lng": 129.011871
        }
      ],
      "color": "#62a305",
      "start_name": "덕항산 정상",
      "length_meter": 177.0,
      "time_minute": 2
    },
    {
      "path_id": 8,
      "path": [
        {
          "lat": 37.310471,
          "lng": 129.011871
        },
        {
          "lat": 37.309258,
          "lng": 129.008606
        }
      ],
      "color": "#346b80",
      "start_name": "쉼터 가기전 / 낭떠러지",
      "length_meter": 350.4,
      "time_minute": 5
    },
    {
      "path_id": 9,
      "path": [
        {
          "lat": 37.309258,
          "lng": 129.008606
        },
        {
          "lat": 37.306412,
          "lng": 128.993835
        }
      ],
      "color": "#96466f",
      "start_name": "나무쓰러짐",
      "length_meter": 1344.2,
      "time_minute": 16
    },
    {
      "path_id": 10,
      "path": [
        {
          "lat": 37.306412,
          "lng": 128.993835
        },
        {
          "lat": 37.306538,
          "lng": 128.993561
        }
      ],
      "color": "#bc6396",
      "start_name": "나무다리 중간",
      "length_meter": 28.0,
      "time_minute": 0
    }
  ]
}