{
    "max_ele": 664.736,
    "track": [
        {
            "path_id": 1,
            "name": "삼악산강촌유원지등산로입구",
            "lat": 37.818859,
            "lon": 127.633636,
            "ele": 102.949
        },
        {
            "path_id": 2,
            "name": "강촌유원지 정류장(1464, 삼악산 방면)",
            "lat": 37.81884,
            "lon": 127.633583,
            "ele": 103.163
        },
        {
            "path_id": 3,
            "name": "쉼터",
            "lat": 37.818966,
            "lon": 127.633949,
            "ele": 104.164
        },
        {
            "path_id": 5,
            "name": "소양강 조망",
            "lat": 37.822315,
            "lon": 127.636604,
            "ele": 346.597
        },
        {
            "path_id": 6,
            "name": "삼악좌봉",
            "lat": 37.823437,
            "lon": 127.636009,
            "ele": 383.37
        },
        {
            "path_id": 7,
            "name": "갈림길",
            "lat": 37.823727,
            "lon": 127.635612,
            "ele": 413.633
        },
        {
            "path_id": 8,
            "name": "거대바위",
            "lat": 37.823734,
            "lon": 127.635666,
            "ele": 414.777
        },
        {
            "path_id": 9,
            "name": "소양강 조망2",
            "lat": 37.826385,
            "lon": 127.635712,
            "ele": 454.795
        },
        {
            "path_id": 10,
            "name": "계관산능선",
            "lat": 37.826984,
            "lon": 127.637161,
            "ele": 538.286
        },
        {
            "path_id": 12,
            "name": "돌탑과 함께",
            "lat": 37.827553,
            "lon": 127.638359,
            "ele": 564.511
        },
        {
            "path_id": 14,
            "name": "소양강조망",
            "lat": 37.827877,
            "lon": 127.638512,
            "ele": 573.135
        },
        {
            "path_id": 15,
            "name": "등선봉 해발632m",
            "lat": 37.830662,
            "lon": 127.643135,
            "ele": 616.109
        },
        {
            "path_id": 16,
            "name": "갈림길",
            "lat": 37.832809,
            "lon": 127.64917,
            "ele": 620.182
        },
        {
            "path_id": 18,
            "name": "청운봉 해발527m",
            "lat": 37.839996,
            "lon": 127.649017,
            "ele": 535.841
        },
        {
            "path_id": 19,
            "name": "갈림길",
            "lat": 37.840069,
            "lon": 127.64901,
            "ele": 540.792
        },
        {
            "path_id": 20,
            "name": "소양강",
            "lat": 37.840363,
            "lon": 127.652992,
            "ele": 548.213
        },
        {
            "path_id": 21,
            "name": "큰초원 쉼터",
            "lat": 37.837822,
            "lon": 127.660736,
            "ele": 664.736
        },
        {
            "path_id": 22,
            "name": "갈림길",
            "lat": 37.837639,
            "lon": 127.660477,
            "ele": 656.728
        },
        {
            "path_id": 23,
            "name": "작은초원 쉼터",
            "lat": 37.83704,
            "lon": 127.656769,
            "ele": 555.405
        },
        {
            "path_id": 24,
            "name": "흥국사 화장실",
            "lat": 37.837139,
            "lon": 127.653183,
            "ele": 410.083
        },
        {
            "path_id": 25,
            "name": "운악산막",
            "lat": 37.836552,
            "lon": 127.653381,
            "ele": 379.901
        },
        {
            "path_id": 26,
            "name": "폭포",
            "lat": 37.83297,
            "lon": 127.655838,
            "ele": 334.262
        },
        {
            "path_id": 27,
            "name": "폭포소",
            "lat": 37.830097,
            "lon": 127.657776,
            "ele": 235.592
        },
        {
            "path_id": 28,
            "name": "주렴폭포",
            "lat": 37.828403,
            "lon": 127.657448,
            "ele": 217.787
        },
        {
            "path_id": 29,
            "name": "백련폭포",
            "lat": 37.827526,
            "lon": 127.658142,
            "ele": 204.437
        },
        {
            "path_id": 30,
            "name": "쉼터",
            "lat": 37.827541,
            "lon": 127.658188,
            "ele": 202.594
        },
        {
            "path_id": 31,
            "name": "승학폭포",
            "lat": 37.827427,
            "lon": 127.658325,
            "ele": 194.79
        },
        {
            "path_id": 32,
            "name": "등선제1폭포",
            "lat": 37.826565,
            "lon": 127.659172,
            "ele": 168.07
        },
        {
            "path_id": 33,
            "name": "등선휴게소식당",
            "lat": 37.825935,
            "lon": 127.659508,
            "ele": 150.757
        },
        {
            "path_id": 34,
            "name": "등선폭포 매표소",
            "lat": 37.825642,
            "lon": 127.659439,
            "ele": 143.289
        },
        {
            "path_id": 35,
            "name": "등선매표소 화장실",
            "lat": 37.825699,
            "lon": 127.659386,
            "ele": 138.777
        },
        {
            "path_id": 36,
            "name": "유료주차장",
            "lat": 37.824883,
            "lon": 127.659355,
            "ele": 123.246
        },
        {
            "path_id": 37,
            "name": "삼악산정류장(1851, 강촌유원지 방면)",
            "lat": 37.824932,
            "lon": 127.660057,
            "ele": 115.845
        }
    ]
}