[
    {
        "path_id": 1,
        "name": "홍적종점",
        "lat": 37.951332,
        "lon": 127.577972
    },
    {
        "path_id": 2,
        "name": "갈림길",
        "lat": 37.961189,
        "lon": 127.582916
    },
    {
        "path_id": 3,
        "name": "국가지점번호",
        "lat": 37.961315,
        "lon": 127.582985
    },
    {
        "path_id": 4,
        "name": "안내소",
        "lat": 37.961418,
        "lon": 127.582993
    },
    {
        "path_id": 5,
        "name": "갈림길",
        "lat": 37.961578,
        "lon": 127.584503
    },
    {
        "path_id": 8,
        "name": "국가지점번호",
        "lat": 37.955132,
        "lon": 127.602913
    },
    {
        "path_id": 9,
        "name": "몽덕산 정상",
        "lat": 37.955132,
        "lon": 127.602913
    },
    {
        "path_id": 12,
        "name": "국가지점번호",
        "lat": 37.940517,
        "lon": 127.61264
    },
    {
        "path_id": 13,
        "name": "가덕산 정상",
        "lat": 37.940533,
        "lon": 127.612686
    },
    {
        "path_id": 17,
        "name": "북배산 정상",
        "lat": 37.920399,
        "lon": 127.612625
    },
    {
        "path_id": 21,
        "name": "갈림길",
        "lat": 37.919365,
        "lon": 127.614525
    },
    {
        "path_id": 27,
        "name": "국가지점번호",
        "lat": 37.898624,
        "lon": 127.612801
    },
    {
        "path_id": 32,
        "name": "갈림길",
        "lat": 37.875874,
        "lon": 127.594757
    },
    {
        "path_id": 33,
        "name": "국가지점번호",
        "lat": 37.875862,
        "lon": 127.594742
    },
    {
        "path_id": 35,
        "name": "갈림길",
        "lat": 37.873951,
        "lon": 127.579552
    },
    {
        "path_id": 41,
        "name": "미끄럼 주의",
        "lat": 37.86095,
        "lon": 127.540092
    },
    {
        "path_id": 46,
        "name": "갈림길",
        "lat": 37.85231,
        "lon": 127.53138
    },
    {
        "path_id": 57,
        "name": "보납산 정상",
        "lat": 37.838516,
        "lon": 127.518364
    },
    {
        "path_id": 58,
        "name": "갈림길",
        "lat": 37.834824,
        "lon": 127.519669
    }
]