[
  {
    "path_id": 0,
    "path": [
      {
        "lat": 38.051804,
        "lng": 127.78759
      },
      {
        "lat": 38.052364,
        "lng": 127.780136
      }
    ],
    "color": "#a008c4",
    "start_name": "갈림길",
    "length_meter": 655.6,
    "time_minute": 10
  },
  {
    "path_id": 1,
    "path": [
      {
        "lat": 38.052364,
        "lng": 127.780136
      },
      {
        "lat": 38.041157,
        "lng": 127.775894
      }
    ],
    "color": "#6cc5a0",
    "start_name": "산촌생태단지(수불무산 입구)",
    "length_meter": 1300.3,
    "time_minute": 21
  },
  {
    "path_id": 2,
    "path": [
      {
        "lat": 38.041157,
        "lng": 127.775894
      },
      {
        "lat": 38.03495,
        "lng": 127.777168
      }
    ],
    "color": "#1752ac",
    "start_name": "국가지점번호",
    "length_meter": 699.1,
    "time_minute": 11
  },
  {
    "path_id": 3,
    "path": [
      {
        "lat": 38.03495,
        "lng": 127.777168
      },
      {
        "lat": 38.034416,
        "lng": 127.777107
      }
    ],
    "color": "#27c4cb",
    "start_name": "수불무산 정상 / 수불무산 정상 바위 조망점 / 수불무산 정상바위",
    "length_meter": 60.1,
    "time_minute": 1
  },
  {
    "path_id": 4,
    "path": [
      {
        "lat": 38.034416,
        "lng": 127.777107
      },
      {
        "lat": 38.038395,
        "lng": 127.779846
      }
    ],
    "color": "#75fb79",
    "start_name": "갈림길",
    "length_meter": 503.3,
    "time_minute": 8
  },
  {
    "path_id": 5,
    "path": [
      {
        "lat": 38.038395,
        "lng": 127.779846
      },
      {
        "lat": 38.03952,
        "lng": 127.780937
      }
    ],
    "color": "#dd2745",
    "start_name": "포토존 / 자연경관",
    "length_meter": 161.1,
    "time_minute": 2
  },
  {
    "path_id": 6,
    "path": [
      {
        "lat": 38.03952,
        "lng": 127.780937
      },
      {
        "lat": 38.040199,
        "lng": 127.780136
      }
    ],
    "color": "#28b4f9",
    "start_name": "수불무산 전위봉",
    "length_meter": 103.1,
    "time_minute": 1
  },
  {
    "path_id": 7,
    "path": [
      {
        "lat": 38.040199,
        "lng": 127.780136
      },
      {
        "lat": 38.04232,
        "lng": 127.78006
      }
    ],
    "color": "#810f07",
    "start_name": "포토존",
    "length_meter": 235.9,
    "time_minute": 3
  }
]