[
  {
    "path_id": 0,
    "path": [
      {
        "lat": 38.005058,
        "lng": 127.739769
      },
      {
        "lat": 38.008465,
        "lng": 127.739914
      }
    ],
    "color": "#4e161b",
    "start_name": "용화산 등산로 안내도",
    "length_meter": 379.1,
    "time_minute": 6
  },
  {
    "path_id": 1,
    "path": [
      {
        "lat": 38.008465,
        "lng": 127.739914
      },
      {
        "lat": 38.024818,
        "lng": 127.740166
      }
    ],
    "color": "#734266",
    "start_name": "용화산 양통 주차장",
    "length_meter": 1818.5,
    "time_minute": 30
  },
  {
    "path_id": 2,
    "path": [
      {
        "lat": 38.024818,
        "lng": 127.740166
      },
      {
        "lat": 38.037708,
        "lng": 127.739876
      }
    ],
    "color": "#58baf2",
    "start_name": "갈림길",
    "length_meter": 1433.5,
    "time_minute": 23
  },
  {
    "path_id": 3,
    "path": [
      {
        "lat": 38.037708,
        "lng": 127.739876
      },
      {
        "lat": 38.0392,
        "lng": 127.739899
      }
    ],
    "color": "#19fdd8",
    "start_name": "정자",
    "length_meter": 165.9,
    "time_minute": 2
  },
  {
    "path_id": 4,
    "path": [
      {
        "lat": 38.0392,
        "lng": 127.739899
      },
      {
        "lat": 38.0383,
        "lng": 127.741364
      }
    ],
    "color": "#78ec70",
    "start_name": "화장실 / 큰고개 주차장 / 갈림길",
    "length_meter": 168.3,
    "time_minute": 2
  },
  {
    "path_id": 5,
    "path": [
      {
        "lat": 38.0383,
        "lng": 127.741364
      },
      {
        "lat": 38.038189,
        "lng": 127.742668
      }
    ],
    "color": "#29bb48",
    "start_name": "포토존 / 추락주의구간",
    "length_meter": 114.9,
    "time_minute": 1
  },
  {
    "path_id": 6,
    "path": [
      {
        "lat": 38.038189,
        "lng": 127.742668
      },
      {
        "lat": 38.038109,
        "lng": 127.743858
      }
    ],
    "color": "#b92de7",
    "start_name": "포토존",
    "length_meter": 104.6,
    "time_minute": 1
  },
  {
    "path_id": 7,
    "path": [
      {
        "lat": 38.038109,
        "lng": 127.743858
      },
      {
        "lat": 38.038269,
        "lng": 127.742073
      }
    ],
    "color": "#c83ca9",
    "start_name": "하늘벽 촛대바위 포토존",
    "length_meter": 157.3,
    "time_minute": 2
  },
  {
    "path_id": 8,
    "path": [
      {
        "lat": 38.038269,
        "lng": 127.742073
      },
      {
        "lat": 38.037239,
        "lng": 127.740921
      }
    ],
    "color": "#6ac0f5",
    "start_name": "갈림길",
    "length_meter": 152.6,
    "time_minute": 2
  }
]