{
  "max_ele": 734.941,
  "track": [
    {
      "path_id": 1,
      "name": "향토 자유수호 기념비",
      "lat": 35.487495,
      "lon": 126.923782,
      "ele": 183.209
    },
    {
      "path_id": 2,
      "name": "낙석위험",
      "lat": 35.48793,
      "lon": 126.922691,
      "ele": 187.745
    },
    {
      "path_id": 3,
      "name": "자연사랑길 간이쉼터",
      "lat": 35.486645,
      "lon": 126.918106,
      "ele": 196.413
    },
    {
      "path_id": 4,
      "name": "굴거리 나무",
      "lat": 35.485764,
      "lon": 126.917854,
      "ele": 197.801
    },
    {
      "path_id": 5,
      "name": "매점",
      "lat": 35.485443,
      "lon": 126.914314,
      "ele": 207.915
    },
    {
      "path_id": 6,
      "name": "갈림길",
      "lat": 35.488647,
      "lon": 126.901314,
      "ele": 236.365
    },
    {
      "path_id": 7,
      "name": "실록원",
      "lat": 35.488148,
      "lon": 126.897987,
      "ele": 246.095
    },
    {
      "path_id": 8,
      "name": "낙석주의",
      "lat": 35.487999,
      "lon": 126.896385,
      "ele": 255.151
    },
    {
      "path_id": 9,
      "name": "갈림길",
      "lat": 35.485325,
      "lon": 126.889481,
      "ele": 301.122
    },
    {
      "path_id": 10,
      "name": "미끄럼 주의",
      "lat": 35.479378,
      "lon": 126.890945,
      "ele": 697.388
    },
    {
      "path_id": 11,
      "name": "낙석주의",
      "lat": 35.479465,
      "lon": 126.890793,
      "ele": 703.4
    },
    {
      "path_id": 12,
      "name": "조망점",
      "lat": 35.483173,
      "lon": 126.882179,
      "ele": 693.648
    },
    {
      "path_id": 13,
      "name": "조망점",
      "lat": 35.485252,
      "lon": 126.881096,
      "ele": 733.348
    },
    {
      "path_id": 14,
      "name": "조망점",
      "lat": 35.48539,
      "lon": 126.881134,
      "ele": 734.941
    },
    {
      "path_id": 15,
      "name": "간이쉼터",
      "lat": 35.487247,
      "lon": 126.883438,
      "ele": 671.588
    }
  ]
}
