{
    "max_ele": 1164.477,
    "track": [
        {
            "path_id": 1,
            "name": "백운동주차장화장실",
            "lat": 35.801517,
            "lon": 128.142136,
            "ele": 555.094
        },
        {
            "path_id": 2,
            "name": "식당",
            "lat": 35.801743,
            "lon": 128.141922,
            "ele": 555.531
        },
        {
            "path_id": 3,
            "name": "야생화식물원",
            "lat": 35.802654,
            "lon": 128.142136,
            "ele": 569.568
        },
        {
            "path_id": 4,
            "name": "쉼터",
            "lat": 35.803757,
            "lon": 128.141998,
            "ele": 567.183
        },
        {
            "path_id": 5,
            "name": "백운동 탐방지원센터",
            "lat": 35.803925,
            "lon": 128.141769,
            "ele": 577.303
        },
        {
            "path_id": 6,
            "name": "갈림길",
            "lat": 35.804104,
            "lon": 128.141571,
            "ele": 581.524
        },
        {
            "path_id": 7,
            "name": "심장안전쉼터",
            "lat": 35.803833,
            "lon": 128.13887,
            "ele": 684.019
        },
        {
            "path_id": 10,
            "name": "심장안전쉼터",
            "lat": 35.804466,
            "lon": 128.136658,
            "ele": 767.564
        },
        {
            "path_id": 11,
            "name": "심장안전쉼터",
            "lat": 35.805378,
            "lon": 128.135757,
            "ele": 840.703
        },
        {
            "path_id": 12,
            "name": "자연경관",
            "lat": 35.805626,
            "lon": 128.13559,
            "ele": 857.15
        },
        {
            "path_id": 13,
            "name": "자연경관",
            "lat": 35.806431,
            "lon": 128.134537,
            "ele": 912.961
        },
        {
            "path_id": 14,
            "name": "심장안전쉼터",
            "lat": 35.807278,
            "lon": 128.133667,
            "ele": 942.616
        },
        {
            "path_id": 15,
            "name": "양송이? 바위",
            "lat": 35.807812,
            "lon": 128.133438,
            "ele": 944.279
        },
        {
            "path_id": 16,
            "name": "자연경관",
            "lat": 35.807858,
            "lon": 128.133423,
            "ele": 948.705
        },
        {
            "path_id": 17,
            "name": "소나무",
            "lat": 35.808475,
            "lon": 128.133423,
            "ele": 961.301
        },
        {
            "path_id": 18,
            "name": "낙석주위",
            "lat": 35.81007,
            "lon": 128.132828,
            "ele": 977.198
        },
        {
            "path_id": 19,
            "name": "소나무가 아파요",
            "lat": 35.811848,
            "lon": 128.131012,
            "ele": 1105.641
        },
        {
            "path_id": 20,
            "name": "삿갓바위",
            "lat": 35.811977,
            "lon": 128.130859,
            "ele": 1099.976
        },
        {
            "path_id": 21,
            "name": "자연경관",
            "lat": 35.812027,
            "lon": 128.130798,
            "ele": 1099.119
        },
        {
            "path_id": 22,
            "name": "근육맨과 자연경관",
            "lat": 35.812504,
            "lon": 128.129211,
            "ele": 1073.054
        },
        {
            "path_id": 23,
            "name": "자연경관",
            "lat": 35.81255,
            "lon": 128.128937,
            "ele": 1093.772
        },
        {
            "path_id": 25,
            "name": "상아덤(서장대)",
            "lat": 35.813107,
            "lon": 128.123871,
            "ele": 1164.477
        },
        {
            "path_id": 26,
            "name": "갈림길",
            "lat": 35.815052,
            "lon": 128.122803,
            "ele": 1138.686
        },
        {
            "path_id": 27,
            "name": "서성재",
            "lat": 35.81506,
            "lon": 128.122803,
            "ele": 1138.877
        },
        {
            "path_id": 28,
            "name": "만물상 탐방로 예약제",
            "lat": 35.804012,
            "lon": 128.141693,
            "ele": 580.795
        },
        {
            "path_id": 29,
            "name": "가야호텔사우나",
            "lat": 35.802822,
            "lon": 128.142151,
            "ele": 571.752
        },
        {
            "path_id": 30,
            "name": "성주가든",
            "lat": 35.802288,
            "lon": 128.141663,
            "ele": 563.709
        }
    ]
}