[
    {
        "path_id": 1,
        "name": "돼지골탐방지원센터주차장",
        "lat": 35.789528,
        "lon": 128.086868
    },
    {
        "path_id": 2,
        "name": "해인관광호텔",
        "lat": 35.789482,
        "lon": 128.086853
    },
    {
        "path_id": 3,
        "name": "돼지골 탐방지원센터",
        "lat": 35.789257,
        "lon": 128.086716
    },
    {
        "path_id": 4,
        "name": "멧돼지 주의",
        "lat": 35.781429,
        "lon": 128.08754
    },
    {
        "path_id": 5,
        "name": "안전사고 다발구간",
        "lat": 35.776581,
        "lon": 128.089294
    },
    {
        "path_id": 7,
        "name": "자연경관",
        "lat": 35.773438,
        "lon": 128.094711
    },
    {
        "path_id": 8,
        "name": "정상부",
        "lat": 35.772648,
        "lon": 128.095154
    }
]