[
    {
        "path_id": 1,
        "name": "백운동주차장화장실",
        "lat": 35.801517,
        "lon": 128.142136
    },
    {
        "path_id": 2,
        "name": "식당",
        "lat": 35.801743,
        "lon": 128.141922
    },
    {
        "path_id": 3,
        "name": "야생화식물원",
        "lat": 35.802654,
        "lon": 128.142136
    },
    {
        "path_id": 4,
        "name": "쉼터",
        "lat": 35.803757,
        "lon": 128.141998
    },
    {
        "path_id": 5,
        "name": "백운동 탐방지원센터",
        "lat": 35.803925,
        "lon": 128.141769
    },
    {
        "path_id": 6,
        "name": "갈림길",
        "lat": 35.804104,
        "lon": 128.141571
    },
    {
        "path_id": 7,
        "name": "심장안전쉼터",
        "lat": 35.803833,
        "lon": 128.13887
    },
    {
        "path_id": 10,
        "name": "심장안전쉼터",
        "lat": 35.804466,
        "lon": 128.136658
    },
    {
        "path_id": 11,
        "name": "심장안전쉼터",
        "lat": 35.805378,
        "lon": 128.135757
    },
    {
        "path_id": 12,
        "name": "자연경관",
        "lat": 35.805626,
        "lon": 128.13559
    },
    {
        "path_id": 13,
        "name": "자연경관",
        "lat": 35.806431,
        "lon": 128.134537
    },
    {
        "path_id": 14,
        "name": "심장안전쉼터",
        "lat": 35.807278,
        "lon": 128.133667
    },
    {
        "path_id": 15,
        "name": "양송이? 바위",
        "lat": 35.807812,
        "lon": 128.133438
    },
    {
        "path_id": 16,
        "name": "자연경관",
        "lat": 35.807858,
        "lon": 128.133423
    },
    {
        "path_id": 17,
        "name": "소나무",
        "lat": 35.808475,
        "lon": 128.133423
    },
    {
        "path_id": 18,
        "name": "낙석주위",
        "lat": 35.81007,
        "lon": 128.132828
    },
    {
        "path_id": 19,
        "name": "소나무가 아파요",
        "lat": 35.811848,
        "lon": 128.131012
    },
    {
        "path_id": 20,
        "name": "삿갓바위",
        "lat": 35.811977,
        "lon": 128.130859
    },
    {
        "path_id": 21,
        "name": "자연경관",
        "lat": 35.812027,
        "lon": 128.130798
    },
    {
        "path_id": 22,
        "name": "근육맨과 자연경관",
        "lat": 35.812504,
        "lon": 128.129211
    },
    {
        "path_id": 23,
        "name": "자연경관",
        "lat": 35.81255,
        "lon": 128.128937
    },
    {
        "path_id": 25,
        "name": "상아덤(서장대)",
        "lat": 35.813107,
        "lon": 128.123871
    },
    {
        "path_id": 26,
        "name": "갈림길",
        "lat": 35.815052,
        "lon": 128.122803
    },
    {
        "path_id": 27,
        "name": "서성재",
        "lat": 35.81506,
        "lon": 128.122803
    },
    {
        "path_id": 28,
        "name": "만물상 탐방로 예약제",
        "lat": 35.804012,
        "lon": 128.141693
    },
    {
        "path_id": 29,
        "name": "가야호텔사우나",
        "lat": 35.802822,
        "lon": 128.142151
    },
    {
        "path_id": 30,
        "name": "성주가든",
        "lat": 35.802288,
        "lon": 128.141663
    }
]