[
  {
    "path_id": 0,
    "path": [
      {
        "lat": 35.233166,
        "lng": 128.506409
      },
      {
        "lat": 35.231392,
        "lng": 128.508133
      }
    ],
    "color": "#0d09a4",
    "start_name": "원계",
    "length_meter": 251.9,
    "time_minute": 4
  },
  {
    "path_id": 1,
    "path": [
      {
        "lat": 35.231392,
        "lng": 128.508133
      },
      {
        "lat": 35.230751,
        "lng": 128.508911
      }
    ],
    "color": "#164433",
    "start_name": "마을 간이 주차장 겸 공터",
    "length_meter": 100.4,
    "time_minute": 1
  },
  {
    "path_id": 2,
    "path": [
      {
        "lat": 35.230751,
        "lng": 128.508911
      },
      {
        "lat": 35.23053,
        "lng": 128.510147
      }
    ],
    "color": "#c68977",
    "start_name": "등산로없음",
    "length_meter": 114.9,
    "time_minute": 1
  },
  {
    "path_id": 3,
    "path": [
      {
        "lat": 35.23053,
        "lng": 128.510147
      },
      {
        "lat": 35.230522,
        "lng": 128.510132
      }
    ],
    "color": "#7b848c",
    "start_name": "갈림길",
    "length_meter": 1.6,
    "time_minute": 0
  },
  {
    "path_id": 4,
    "path": [
      {
        "lat": 35.230522,
        "lng": 128.510132
      },
      {
        "lat": 35.228928,
        "lng": 128.509583
      }
    ],
    "color": "#764914",
    "start_name": "내서원계마을",
    "length_meter": 184.1,
    "time_minute": 3
  },
  {
    "path_id": 5,
    "path": [
      {
        "lat": 35.228928,
        "lng": 128.509583
      },
      {
        "lat": 35.226944,
        "lng": 128.515579
      }
    ],
    "color": "#936b73",
    "start_name": "갈림길",
    "length_meter": 587.6,
    "time_minute": 9
  },
  {
    "path_id": 6,
    "path": [
      {
        "lat": 35.226944,
        "lng": 128.515579
      },
      {
        "lat": 35.226528,
        "lng": 128.517731
      }
    ],
    "color": "#986a0a",
    "start_name": "체육공원 겸 쉼터",
    "length_meter": 200.9,
    "time_minute": 3
  },
  {
    "path_id": 7,
    "path": [
      {
        "lat": 35.226528,
        "lng": 128.517731
      },
      {
        "lat": 35.216915,
        "lng": 128.52713
      }
    ],
    "color": "#1985a9",
    "start_name": "갈림길",
    "length_meter": 1368.0,
    "time_minute": 22
  },
  {
    "path_id": 8,
    "path": [
      {
        "lat": 35.216915,
        "lng": 128.52713
      },
      {
        "lat": 35.218884,
        "lng": 128.539261
      }
    ],
    "color": "#496a84",
    "start_name": "시루봉",
    "length_meter": 1123.5,
    "time_minute": 18
  },
  {
    "path_id": 9,
    "path": [
      {
        "lat": 35.218884,
        "lng": 128.539261
      },
      {
        "lat": 35.226063,
        "lng": 128.545929
      }
    ],
    "color": "#b584ab",
    "start_name": "쉬어가는숲 쉼터 / 갈림길",
    "length_meter": 1009.1,
    "time_minute": 16
  },
  {
    "path_id": 10,
    "path": [
      {
        "lat": 35.226063,
        "lng": 128.545929
      },
      {
        "lat": 35.226246,
        "lng": 128.546021
      }
    ],
    "color": "#b34f07",
    "start_name": "만남의 광장 쉼터",
    "length_meter": 22.0,
    "time_minute": 0
  },
  {
    "path_id": 11,
    "path": [
      {
        "lat": 35.226246,
        "lng": 128.546021
      },
      {
        "lat": 35.225391,
        "lng": 128.558929
      }
    ],
    "color": "#829d5f",
    "start_name": "쉼터 겸 체육공원 / 갈림길",
    "length_meter": 1187.3,
    "time_minute": 19
  },
  {
    "path_id": 12,
    "path": [
      {
        "lat": 35.225391,
        "lng": 128.558929
      },
      {
        "lat": 35.225124,
        "lng": 128.559402
      }
    ],
    "color": "#5934c1",
    "start_name": "쉼터 겸 체육공원 / 갈림길",
    "length_meter": 52.5,
    "time_minute": 0
  },
  {
    "path_id": 13,
    "path": [
      {
        "lat": 35.225124,
        "lng": 128.559402
      },
      {
        "lat": 35.224747,
        "lng": 128.560654
      }
    ],
    "color": "#ba3669",
    "start_name": "팔각정 쉼터",
    "length_meter": 121.2,
    "time_minute": 2
  },
  {
    "path_id": 14,
    "path": [
      {
        "lat": 35.224747,
        "lng": 128.560654
      },
      {
        "lat": 35.225079,
        "lng": 128.562393
      }
    ],
    "color": "#26bca7",
    "start_name": "갈림길",
    "length_meter": 162.2,
    "time_minute": 2
  },
  {
    "path_id": 15,
    "path": [
      {
        "lat": 35.225079,
        "lng": 128.562393
      },
      {
        "lat": 35.224934,
        "lng": 128.564514
      }
    ],
    "color": "#2573b8",
    "start_name": "봉화산 정상 / 쉼터 겸 체육공원",
    "length_meter": 199.6,
    "time_minute": 3
  },
  {
    "path_id": 16,
    "path": [
      {
        "lat": 35.224934,
        "lng": 128.564514
      },
      {
        "lat": 35.224644,
        "lng": 128.566956
      }
    ],
    "color": "#a26d9a",
    "start_name": "봉화산 봉수대",
    "length_meter": 224.1,
    "time_minute": 3
  },
  {
    "path_id": 17,
    "path": [
      {
        "lat": 35.224644,
        "lng": 128.566956
      },
      {
        "lat": 35.224522,
        "lng": 128.568069
      }
    ],
    "color": "#6f7d4d",
    "start_name": "갈림길",
    "length_meter": 102.0,
    "time_minute": 1
  },
  {
    "path_id": 18,
    "path": [
      {
        "lat": 35.224522,
        "lng": 128.568069
      },
      {
        "lat": 35.226345,
        "lng": 128.568542
      }
    ],
    "color": "#572cb0",
    "start_name": "쉼터 겸 체육공원",
    "length_meter": 207.2,
    "time_minute": 3
  },
  {
    "path_id": 19,
    "path": [
      {
        "lat": 35.226345,
        "lng": 128.568542
      },
      {
        "lat": 35.228851,
        "lng": 128.568359
      }
    ],
    "color": "#214fc0",
    "start_name": "석전동 봉국사",
    "length_meter": 279.1,
    "time_minute": 4
  }
]