[
    {
        "path_id": 1,
        "name": "함허동천",
        "lat": 37.609451,
        "lon": 126.456833
    },
    {
        "path_id": 2,
        "name": "함허동천 주차장",
        "lat": 37.609364,
        "lon": 126.456741
    },
    {
        "path_id": 3,
        "name": "함허동천 2,  3주차장",
        "lat": 37.609646,
        "lon": 126.456467
    },
    {
        "path_id": 4,
        "name": "야영장 만남 슈퍼",
        "lat": 37.609673,
        "lon": 126.456306
    },
    {
        "path_id": 5,
        "name": "입구 화장실",
        "lat": 37.610039,
        "lon": 126.455589
    },
    {
        "path_id": 6,
        "name": "1주차장",
        "lat": 37.610088,
        "lon": 126.45536
    },
    {
        "path_id": 7,
        "name": "이레가든",
        "lat": 37.610229,
        "lon": 126.455017
    },
    {
        "path_id": 8,
        "name": "구름계곡 슈퍼",
        "lat": 37.610329,
        "lon": 126.454834
    },
    {
        "path_id": 10,
        "name": "입구 매표소",
        "lat": 37.610756,
        "lon": 126.454376
    },
    {
        "path_id": 11,
        "name": "매점",
        "lat": 37.611355,
        "lon": 126.45314
    },
    {
        "path_id": 12,
        "name": "화장실",
        "lat": 37.611557,
        "lon": 126.453041
    },
    {
        "path_id": 13,
        "name": "2야영장",
        "lat": 37.612072,
        "lon": 126.452118
    },
    {
        "path_id": 14,
        "name": "갈림길",
        "lat": 37.611908,
        "lon": 126.452141
    },
    {
        "path_id": 15,
        "name": "함허정",
        "lat": 37.611843,
        "lon": 126.451057
    },
    {
        "path_id": 16,
        "name": "갈림길",
        "lat": 37.612274,
        "lon": 126.450729
    },
    {
        "path_id": 19,
        "name": "능선길2",
        "lat": 37.612972,
        "lon": 126.435555
    },
    {
        "path_id": 20,
        "name": "참성단 중수비",
        "lat": 37.615139,
        "lon": 126.431122
    },
    {
        "path_id": 21,
        "name": "능선길 바다경관",
        "lat": 37.614395,
        "lon": 126.432266
    },
    {
        "path_id": 22,
        "name": "정수사로 매표소",
        "lat": 37.607464,
        "lon": 126.443993
    },
    {
        "path_id": 24,
        "name": "간이화장실",
        "lat": 37.607349,
        "lon": 126.443855
    },
    {
        "path_id": 25,
        "name": "갈림길",
        "lat": 37.607246,
        "lon": 126.444328
    },
    {
        "path_id": 26,
        "name": "정수사",
        "lat": 37.60738,
        "lon": 126.445091
    },
    {
        "path_id": 27,
        "name": "화장실",
        "lat": 37.606773,
        "lon": 126.445267
    },
    {
        "path_id": 28,
        "name": "갈림길",
        "lat": 37.605957,
        "lon": 126.448982
    },
    {
        "path_id": 29,
        "name": "정수사입구",
        "lat": 37.604019,
        "lon": 126.457169
    }
]