{
  "max_ele": 1392.945,
  "total_length_km": "4.3km",
  "total_time": "0시간 53분",
  "track": [
    {
      "path_id": 0,
      "path": [
        {
          "lat": 38.005432,
          "lng": 127.525414
        },
        {
          "lat": 38.001575,
          "lng": 127.525581
        }
      ],
      "color": "#82c521",
      "start_name": "화악터널앞 / 터널입구",
      "length_meter": 450.0,
      "time_minute": 7
    },
    {
      "path_id": 1,
      "path": [
        {
          "lat": 38.001575,
          "lng": 127.525581
        },
        {
          "lat": 38.001366,
          "lng": 127.524635
        }
      ],
      "color": "#09c57e",
      "start_name": "입구주차장",
      "length_meter": 86.1,
      "time_minute": 1
    },
    {
      "path_id": 2,
      "path": [
        {
          "lat": 38.001366,
          "lng": 127.524635
        },
        {
          "lat": 37.989193,
          "lng": 127.500259
        }
      ],
      "color": "#be0abe",
      "start_name": "헬기장",
      "length_meter": 2528.8,
      "time_minute": 31
    },
    {
      "path_id": 3,
      "path": [
        {
          "lat": 37.989193,
          "lng": 127.500259
        },
        {
          "lat": 37.989189,
          "lng": 127.500229
        }
      ],
      "color": "#360d07",
      "start_name": "갈림길",
      "length_meter": 2.7,
      "time_minute": 0
    },
    {
      "path_id": 4,
      "path": [
        {
          "lat": 37.989189,
          "lng": 127.500229
        },
        {
          "lat": 37.996101,
          "lng": 127.489326
        }
      ],
      "color": "#124892",
      "start_name": "전망대",
      "length_meter": 1226.2,
      "time_minute": 15
    }
  ]
}