[
    {
        "name": "장곡사 시내버스 종점",
        "lat": 36.409214,
        "lon": 126.849251
    },
    {
        "name": "버스시간표",
        "lat": 36.409229,
        "lon": 126.849213
    },
    {
        "name": "장곡사 2 주차장",
        "lat": 36.409557,
        "lon": 126.849678
    },
    {
        "name": "공중 화장실",
        "lat": 36.40971,
        "lon": 126.849998
    },
    {
        "name": "청양군종합관광안내도",
        "lat": 36.4095,
        "lon": 126.850067
    },
    {
        "name": "파고라 및 벤취",
        "lat": 36.409496,
        "lon": 126.850227
    },
    {
        "name": "이정표",
        "lat": 36.409298,
        "lon": 126.850166
    },
    {
        "name": "갈림길",
        "lat": 36.40947,
        "lon": 126.85125
    },
    {
        "name": "팔각정",
        "lat": 36.409775,
        "lon": 126.85218
    },
    {
        "name": "장곡1 주차장",
        "lat": 36.409939,
        "lon": 126.852249
    },
    {
        "name": "장곡사 산행입구",
        "lat": 36.410015,
        "lon": 126.852318
    },
    {
        "name": "칠갑산맛집",
        "lat": 36.410446,
        "lon": 126.852303
    },
    {
        "name": "칠갑산골",
        "lat": 36.410446,
        "lon": 126.852303
    },
    {
        "name": "물총칼국수. 마실식당. 마실쉼터",
        "lat": 36.411186,
        "lon": 126.852989
    },
    {
        "name": "산골짜기",
        "lat": 36.411167,
        "lon": 126.853355
    },
    {
        "name": "장곡사 일주문",
        "lat": 36.411079,
        "lon": 126.853859
    },
    {
        "name": "공중화장실",
        "lat": 36.414261,
        "lon": 126.856827
    },
    {
        "name": "칠갑산 꽃피는산골",
        "lat": 36.414539,
        "lon": 126.857536
    },
    {
        "name": "장곡사해우소",
        "lat": 36.417107,
        "lon": 126.858688
    },
    {
        "name": "장곡사 주차장",
        "lat": 36.417168,
        "lon": 126.858948
    },
    {
        "name": "문화재 지킴이",
        "lat": 36.417027,
        "lon": 126.859688
    },
    {
        "name": "갈림길",
        "lat": 36.417107,
        "lon": 126.85965
    },
    {
        "name": "장곡사",
        "lat": 36.417297,
        "lon": 126.859573
    },
    {
        "name": "이정표",
        "lat": 36.417431,
        "lon": 126.860657
    },
    {
        "name": "이정표",
        "lat": 36.416885,
        "lon": 126.860596
    },
    {
        "name": "이정표",
        "lat": 36.416119,
        "lon": 126.861298
    },
    {
        "name": "이정표",
        "lat": 36.416424,
        "lon": 126.86248
    },
    {
        "name": "칠갑산 거북바위",
        "lat": 36.41647,
        "lon": 126.862366
    },
    {
        "name": "통나무 벤취",
        "lat": 36.416481,
        "lon": 126.86245
    },
    {
        "name": "소나무 군락",
        "lat": 36.416481,
        "lon": 126.86245
    },
    {
        "name": "나무둘레에 의자",
        "lat": 36.416325,
        "lon": 126.86631
    },
    {
        "name": "나무둘레에 의자",
        "lat": 36.415745,
        "lon": 126.866638
    },
    {
        "name": "이정표",
        "lat": 36.415302,
        "lon": 126.867249
    },
    {
        "name": "통나무 벤취",
        "lat": 36.415485,
        "lon": 126.870239
    },
    {
        "name": "이정표",
        "lat": 36.413059,
        "lon": 126.872543
    },
    {
        "name": "이정표",
        "lat": 36.41317,
        "lon": 126.87661
    },
    {
        "name": "평상",
        "lat": 36.413155,
        "lon": 126.87899
    },
    {
        "name": "갈림길",
        "lat": 36.411564,
        "lon": 126.882477
    },
    {
        "name": "이정표",
        "lat": 36.411655,
        "lon": 126.883003
    },
    {
        "name": "갈림길",
        "lat": 36.411667,
        "lon": 126.883003
    },
    {
        "name": "평상",
        "lat": 36.411819,
        "lon": 126.88372
    },
    {
        "name": "평상 6개",
        "lat": 36.412663,
        "lon": 126.884544
    },
    {
        "name": "이정표",
        "lat": 36.409164,
        "lon": 126.882889
    },
    {
        "name": "벤취",
        "lat": 36.405926,
        "lon": 126.881821
    },
    {
        "name": "119 구급함",
        "lat": 36.404404,
        "lon": 126.88063
    },
    {
        "name": "이정표",
        "lat": 36.402721,
        "lon": 126.881042
    },
    {
        "name": "칠갑산 삼형제봉 표지석",
        "lat": 36.402718,
        "lon": 126.881035
    },
    {
        "name": "평상",
        "lat": 36.402473,
        "lon": 126.881203
    },
    {
        "name": "평상 1개소 벤취 1개소",
        "lat": 36.402706,
        "lon": 126.880707
    },
    {
        "name": "평상",
        "lat": 36.402687,
        "lon": 126.880356
    },
    {
        "name": "평상",
        "lat": 36.402401,
        "lon": 126.87735
    },
    {
        "name": "이정표",
        "lat": 36.402584,
        "lon": 126.875969
    },
    {
        "name": "평상",
        "lat": 36.403847,
        "lon": 126.870552
    },
    {
        "name": "벤취",
        "lat": 36.404499,
        "lon": 126.865196
    },
    {
        "name": "평상",
        "lat": 36.404564,
        "lon": 126.862022
    },
    {
        "name": "벤취",
        "lat": 36.404003,
        "lon": 126.860405
    },
    {
        "name": "평상",
        "lat": 36.404228,
        "lon": 126.857796
    },
    {
        "name": "벤취",
        "lat": 36.406574,
        "lon": 126.851746
    },
    {
        "name": "이정표",
        "lat": 36.406464,
        "lon": 126.851059
    },
    {
        "name": "이정표",
        "lat": 36.408489,
        "lon": 126.851036
    },
    {
        "name": "삼형제봉~칠갑산정상 등산로 입구",
        "lat": 36.408459,
        "lon": 126.851158
    },
    {
        "name": "장곡사 3 주차장",
        "lat": 36.408791,
        "lon": 126.851776
    },
    {
        "name": "간이화장실",
        "lat": 36.408943,
        "lon": 126.852142
    },
    {
        "name": "둥구나무 밑 쉼터",
        "lat": 36.409363,
        "lon": 126.850594
    }
]