{
    "max_ele": 1553.688,
    "track": [
        {
            "path_id": 1,
            "name": "어평재휴게소주차장",
            "lat": 37.122456,
            "lon": 128.89978,
            "ele": 998.48
        },
        {
            "path_id": 2,
            "name": "주차장화장실",
            "lat": 37.122509,
            "lon": 128.899796,
            "ele": 999.466
        },
        {
            "path_id": 3,
            "name": "휴게소음식점",
            "lat": 37.122551,
            "lon": 128.899628,
            "ele": 996.748
        },
        {
            "path_id": 4,
            "name": "태백산관광안내도",
            "lat": 37.122925,
            "lon": 128.899078,
            "ele": 991.676
        },
        {
            "path_id": 5,
            "name": "갈림길",
            "lat": 37.119949,
            "lon": 128.896515,
            "ele": 1013.107
        },
        {
            "path_id": 6,
            "name": "쉼터",
            "lat": 37.119747,
            "lon": 128.896484,
            "ele": 1014.414
        },
        {
            "path_id": 7,
            "name": "입구안내도",
            "lat": 37.119728,
            "lon": 128.896469,
            "ele": 1014.56
        },
        {
            "path_id": 8,
            "name": "상습조난사고구간",
            "lat": 37.11964,
            "lon": 128.896301,
            "ele": 1016.334
        },
        {
            "path_id": 9,
            "name": "산령각유래",
            "lat": 37.116325,
            "lon": 128.894226,
            "ele": 1143.701
        },
        {
            "path_id": 10,
            "name": "산령각",
            "lat": 37.116291,
            "lon": 128.894165,
            "ele": 1145.673
        },
        {
            "path_id": 11,
            "name": "갈림길",
            "lat": 37.116238,
            "lon": 128.89418,
            "ele": 1151.11
        },
        {
            "path_id": 12,
            "name": "위험안내",
            "lat": 37.113873,
            "lon": 128.895676,
            "ele": 1197.548
        },
        {
            "path_id": 13,
            "name": "출입금지",
            "lat": 37.113445,
            "lon": 128.897079,
            "ele": 1200.766
        },
        {
            "path_id": 14,
            "name": "고추나무",
            "lat": 37.113338,
            "lon": 128.899826,
            "ele": 1203.335
        },
        {
            "path_id": 15,
            "name": "산개벚지나무",
            "lat": 37.113247,
            "lon": 128.900116,
            "ele": 1203.397
        },
        {
            "path_id": 16,
            "name": "까치박달나무",
            "lat": 37.113003,
            "lon": 128.902451,
            "ele": 1197.389
        },
        {
            "path_id": 17,
            "name": "출입금지",
            "lat": 37.111717,
            "lon": 128.906082,
            "ele": 1196.358
        },
        {
            "path_id": 18,
            "name": "갈림길",
            "lat": 37.110474,
            "lon": 128.907333,
            "ele": 1207.041
        },
        {
            "path_id": 19,
            "name": "쉼터",
            "lat": 37.108837,
            "lon": 128.910446,
            "ele": 1262.326
        },
        {
            "path_id": 20,
            "name": "갈림길",
            "lat": 37.108887,
            "lon": 128.910629,
            "ele": 1264.151
        },
        {
            "path_id": 21,
            "name": "멧돼지만났을때",
            "lat": 37.108814,
            "lon": 128.910858,
            "ele": 1267.742
        },
        {
            "path_id": 22,
            "name": "고로쇠나무",
            "lat": 37.108425,
            "lon": 128.911392,
            "ele": 1275.111
        },
        {
            "path_id": 23,
            "name": "갈림길",
            "lat": 37.107357,
            "lon": 128.912613,
            "ele": 1303.996
        },
        {
            "path_id": 25,
            "name": "망경사화장실",
            "lat": 37.099167,
            "lon": 128.919434,
            "ele": 1553.688
        },
        {
            "path_id": 26,
            "name": "갈림길",
            "lat": 37.099194,
            "lon": 128.919418,
            "ele": 1553.556
        },
        {
            "path_id": 28,
            "name": "유일사",
            "lat": 37.108856,
            "lon": 128.910492,
            "ele": 1262.878
        },
        {
            "path_id": 29,
            "name": "갈림길",
            "lat": 37.111706,
            "lon": 128.906006,
            "ele": 1196.029
        },
        {
            "path_id": 30,
            "name": "사길령표지석",
            "lat": 37.119865,
            "lon": 128.896606,
            "ele": 1060.238
        }
    ]
}