[
    {
        "name": "극락전주차장",
        "lat": 36.116108,
        "lon": 128.001495
    },
    {
        "name": "입산통제소",
        "lat": 36.115856,
        "lon": 128.001068
    },
    {
        "name": "황악산이정표",
        "lat": 36.11512,
        "lon": 128.000046
    },
    {
        "name": "망월봉",
        "lat": 36.110046,
        "lon": 127.992935
    },
    {
        "name": "망월봉쉼터",
        "lat": 36.110054,
        "lon": 127.992912
    },
    {
        "name": "갈림길",
        "lat": 36.109711,
        "lon": 127.992714
    },
    {
        "name": "국가지점번호",
        "lat": 36.109028,
        "lon": 127.99128
    },
    {
        "name": "갈림길",
        "lat": 36.109039,
        "lon": 127.991302
    },
    {
        "name": "갈림길쉼터",
        "lat": 36.109035,
        "lon": 127.991302
    },
    {
        "name": "쉼터",
        "lat": 36.108749,
        "lon": 127.989655
    },
    {
        "name": "쉼터",
        "lat": 36.105988,
        "lon": 127.983246
    },
    {
        "name": "신선봉",
        "lat": 36.103855,
        "lon": 127.980324
    },
    {
        "name": "이정표",
        "lat": 36.103863,
        "lon": 127.980309
    },
    {
        "name": "갈림길",
        "lat": 36.103863,
        "lon": 127.980301
    },
    {
        "name": "국가지점번호",
        "lat": 36.104332,
        "lon": 127.977654
    },
    {
        "name": "쉼터",
        "lat": 36.104321,
        "lon": 127.977654
    },
    {
        "name": "쉼터",
        "lat": 36.104851,
        "lon": 127.974174
    },
    {
        "name": "쉼터",
        "lat": 36.105679,
        "lon": 127.97226
    },
    {
        "name": "갈림길",
        "lat": 36.105808,
        "lon": 127.972198
    },
    {
        "name": "국가지점번호",
        "lat": 36.105812,
        "lon": 127.972191
    },
    {
        "name": "내원계곡과 등산로합류점",
        "lat": 36.109535,
        "lon": 127.974953
    },
    {
        "name": "내원계곡폭포",
        "lat": 36.111649,
        "lon": 127.980774
    },
    {
        "name": "내원계곡폭포",
        "lat": 36.112377,
        "lon": 127.9823
    },
    {
        "name": "명적암주차장",
        "lat": 36.116138,
        "lon": 127.99482
    },
    {
        "name": "갈림길",
        "lat": 36.116978,
        "lon": 127.996277
    },
    {
        "name": "입산통제소",
        "lat": 36.117805,
        "lon": 127.999779
    },
    {
        "name": "백두대간안내지도판및황악산등산안내판",
        "lat": 36.117737,
        "lon": 127.99984
    }
]