[
    {
        "path_id": 1,
        "name": "어평재휴게소주차장",
        "lat": 37.122456,
        "lon": 128.89978
    },
    {
        "path_id": 2,
        "name": "주차장화장실",
        "lat": 37.122509,
        "lon": 128.899796
    },
    {
        "path_id": 3,
        "name": "휴게소음식점",
        "lat": 37.122551,
        "lon": 128.899628
    },
    {
        "path_id": 4,
        "name": "태백산관광안내도",
        "lat": 37.122925,
        "lon": 128.899078
    },
    {
        "path_id": 5,
        "name": "갈림길",
        "lat": 37.119949,
        "lon": 128.896515
    },
    {
        "path_id": 7,
        "name": "입구안내도",
        "lat": 37.119728,
        "lon": 128.896469
    },
    {
        "path_id": 8,
        "name": "상습조난사고구간",
        "lat": 37.11964,
        "lon": 128.896301
    },
    {
        "path_id": 9,
        "name": "산령각유래",
        "lat": 37.116325,
        "lon": 128.894226
    },
    {
        "path_id": 10,
        "name": "산령각",
        "lat": 37.116291,
        "lon": 128.894165
    },
    {
        "path_id": 11,
        "name": "갈림길",
        "lat": 37.116238,
        "lon": 128.89418
    },
    {
        "path_id": 12,
        "name": "위험안내",
        "lat": 37.113873,
        "lon": 128.895676
    },
    {
        "path_id": 13,
        "name": "출입금지",
        "lat": 37.113445,
        "lon": 128.897079
    },
    {
        "path_id": 14,
        "name": "고추나무",
        "lat": 37.113338,
        "lon": 128.899826
    },
    {
        "path_id": 15,
        "name": "산개벚지나무",
        "lat": 37.113247,
        "lon": 128.900116
    },
    {
        "path_id": 16,
        "name": "까치박달나무",
        "lat": 37.113003,
        "lon": 128.902451
    },
    {
        "path_id": 17,
        "name": "출입금지",
        "lat": 37.111717,
        "lon": 128.906082
    },
    {
        "path_id": 18,
        "name": "갈림길",
        "lat": 37.110474,
        "lon": 128.907333
    },
    {
        "path_id": 21,
        "name": "멧돼지만났을때",
        "lat": 37.108814,
        "lon": 128.910858
    },
    {
        "path_id": 22,
        "name": "고로쇠나무",
        "lat": 37.108425,
        "lon": 128.911392
    },
    {
        "path_id": 23,
        "name": "갈림길",
        "lat": 37.107357,
        "lon": 128.912613
    },
    {
        "path_id": 25,
        "name": "망경사화장실",
        "lat": 37.099167,
        "lon": 128.919434
    },
    {
        "path_id": 26,
        "name": "갈림길",
        "lat": 37.099194,
        "lon": 128.919418
    },
    {
        "path_id": 28,
        "name": "유일사",
        "lat": 37.108856,
        "lon": 128.910492
    },
    {
        "path_id": 29,
        "name": "갈림길",
        "lat": 37.111706,
        "lon": 128.906006
    },
    {
        "path_id": 30,
        "name": "사길령표지석",
        "lat": 37.119865,
        "lon": 128.896606
    },
    {
        "path_id": 31,
        "name": "갈림길",
        "lat": 37.123077,
        "lon": 128.899078
    }
]