{
    "max_ele": 462.728,
    "min_ele": 51.96,
    "track": [
        {
            "path_id": 1,
            "name": "소형주차장",
            "lat": 35.504105,
            "lon": 126.585999,
            "ele": 52.595
        },
        {
            "path_id": 2,
            "name": "갈림길",
            "lat": 35.504097,
            "lon": 126.585953,
            "ele": 51.96
        },
        {
            "path_id": 3,
            "name": "선운산수련원",
            "lat": 35.504623,
            "lon": 126.584335,
            "ele": 55.619
        },
        {
            "path_id": 4,
            "name": "경수산(경수봉) 들머리",
            "lat": 35.504974,
            "lon": 126.584084,
            "ele": 56.694
        },
        {
            "path_id": 5,
            "name": "갈림길",
            "lat": 35.505623,
            "lon": 126.583664,
            "ele": 57.28
        },
        {
            "path_id": 6,
            "name": "이정표",
            "lat": 35.506443,
            "lon": 126.58358,
            "ele": 57.963
        },
        {
            "path_id": 7,
            "name": "등산시 유의사항",
            "lat": 35.506443,
            "lon": 126.583611,
            "ele": 58.023
        },
        {
            "path_id": 8,
            "name": "국가지점번호",
            "lat": 35.508423,
            "lon": 126.584175,
            "ele": 93.124
        },
        {
            "path_id": 9,
            "name": "야생꽃",
            "lat": 35.510941,
            "lon": 126.585442,
            "ele": 210.081
        },
        {
            "path_id": 10,
            "name": "국가지점번호",
            "lat": 35.513367,
            "lon": 126.585129,
            "ele": 254.149
        },
        {
            "path_id": 11,
            "name": "국가지점번호",
            "lat": 35.515259,
            "lon": 126.584068,
            "ele": 319.623
        },
        {
            "path_id": 12,
            "name": "등산위치도",
            "lat": 35.515278,
            "lon": 126.584076,
            "ele": 320.289
        },
        {
            "path_id": 13,
            "name": "갈림길",
            "lat": 35.51722,
            "lon": 126.583527,
            "ele": 372.383
        },
        {
            "path_id": 14,
            "name": "국가지점번호",
            "lat": 35.5172,
            "lon": 126.583488,
            "ele": 373.761
        },
        {
            "path_id": 15,
            "name": "국가지점번호",
            "lat": 35.517506,
            "lon": 126.581635,
            "ele": 407.963
        },
        {
            "path_id": 16,
            "name": "조릿대 사이길",
            "lat": 35.517475,
            "lon": 126.581467,
            "ele": 411.534
        },
        {
            "path_id": 17,
            "name": "해운",
            "lat": 35.517891,
            "lon": 126.579948,
            "ele": 432.618
        },
        {
            "path_id": 18,
            "name": "닭의장풀-야생꽃",
            "lat": 35.517902,
            "lon": 126.579933,
            "ele": 443.389
        },
        {
            "path_id": 19,
            "name": "야생꽃",
            "lat": 35.518021,
            "lon": 126.579269,
            "ele": 439.333
        },
        {
            "path_id": 20,
            "name": "아침 운해",
            "lat": 35.518013,
            "lon": 126.579201,
            "ele": 438.13
        },
        {
            "path_id": 21,
            "name": "선운산 주변능선들의 운해맞이",
            "lat": 35.518021,
            "lon": 126.579247,
            "ele": 438.69
        },
        {
            "path_id": 22,
            "name": "도",
            "lat": 35.517998,
            "lon": 126.579079,
            "ele": 437.384
        },
        {
            "path_id": 23,
            "name": "국가지점번호",
            "lat": 35.518124,
            "lon": 126.577095,
            "ele": 441.253
        },
        {
            "path_id": 24,
            "name": "경수산 경수봉",
            "lat": 35.518139,
            "lon": 126.57711,
            "ele": 442.135
        },
        {
            "path_id": 25,
            "name": "갈림길",
            "lat": 35.518108,
            "lon": 126.577133,
            "ele": 440.75
        },
        {
            "path_id": 26,
            "name": "정상석2",
            "lat": 35.518215,
            "lon": 126.577019,
            "ele": 453.996
        },
        {
            "path_id": 27,
            "name": "우천시 계단미끄럼주의",
            "lat": 35.517941,
            "lon": 126.576981,
            "ele": 462.728
        },
        {
            "path_id": 28,
            "name": "국가지점번호",
            "lat": 35.51675,
            "lon": 126.57663,
            "ele": 457.852
        },
        {
            "path_id": 29,
            "name": "산모초",
            "lat": 35.516747,
            "lon": 126.57663,
            "ele": 457.718
        },
        {
            "path_id": 30,
            "name": "야생꽃",
            "lat": 35.516205,
            "lon": 126.576645,
            "ele": 451.411
        },
        {
            "path_id": 31,
            "name": "운해",
            "lat": 35.515625,
            "lon": 126.576584,
            "ele": 435.92
        },
        {
            "path_id": 32,
            "name": "국가지점번호",
            "lat": 35.513466,
            "lon": 126.574402,
            "ele": 388.539
        },
        {
            "path_id": 33,
            "name": "국가지점번호",
            "lat": 35.511292,
            "lon": 126.572952,
            "ele": 325.849
        },
        {
            "path_id": 34,
            "name": "국가지점번호",
            "lat": 35.506714,
            "lon": 126.570724,
            "ele": 323.021
        },
        {
            "path_id": 35,
            "name": "국가지점번호",
            "lat": 35.490437,
            "lon": 126.557503,
            "ele": 319.519
        },
        {
            "path_id": 36,
            "name": "이정표",
            "lat": 35.490501,
            "lon": 126.557541,
            "ele": 318.432
        },
        {
            "path_id": 37,
            "name": "개이빨산",
            "lat": 35.490681,
            "lon": 126.556908,
            "ele": 330.38
        },
        {
            "path_id": 38,
            "name": "해리면의 궁산저수지",
            "lat": 35.490715,
            "lon": 126.556923,
            "ele": 339.607
        },
        {
            "path_id": 39,
            "name": "변산 곰소항 방면",
            "lat": 35.490734,
            "lon": 126.5569,
            "ele": 339.963
        },
        {
            "path_id": 40,
            "name": "갈림길",
            "lat": 35.49028,
            "lon": 126.556473,
            "ele": 348.287
        },
        {
            "path_id": 41,
            "name": "국가지점번호",
            "lat": 35.490295,
            "lon": 126.556435,
            "ele": 348.648
        },
        {
            "path_id": 42,
            "name": "견치산",
            "lat": 35.489811,
            "lon": 126.556183,
            "ele": 345.257
        },
        {
            "path_id": 43,
            "name": "테이블",
            "lat": 35.48938,
            "lon": 126.556213,
            "ele": 346.59
        },
        {
            "path_id": 44,
            "name": "테이블벤치",
            "lat": 35.488251,
            "lon": 126.556541,
            "ele": 348.407
        },
        {
            "path_id": 45,
            "name": "국가지점번호",
            "lat": 35.488235,
            "lon": 126.556541,
            "ele": 348.421
        },
        {
            "path_id": 46,
            "name": "이정표",
            "lat": 35.488209,
            "lon": 126.556526,
            "ele": 348.459
        },
        {
            "path_id": 47,
            "name": "대숲길",
            "lat": 35.48698,
            "lon": 126.556564,
            "ele": 347.809
        },
        {
            "path_id": 48,
            "name": "갈림길",
            "lat": 35.48542,
            "lon": 126.558586,
            "ele": 315.516
        },
        {
            "path_id": 49,
            "name": "국가지점번호",
            "lat": 35.485409,
            "lon": 126.558662,
            "ele": 311.101
        },
        {
            "path_id": 50,
            "name": "갈림길",
            "lat": 35.481674,
            "lon": 126.559441,
            "ele": 282.004
        },
        {
            "path_id": 51,
            "name": "국가지점번호",
            "lat": 35.481651,
            "lon": 126.559441,
            "ele": 281.15
        },
        {
            "path_id": 52,
            "name": "통나무테이블",
            "lat": 35.479549,
            "lon": 126.559402,
            "ele": 271.042
        },
        {
            "path_id": 53,
            "name": "낙조대",
            "lat": 35.478172,
            "lon": 126.560127,
            "ele": 278.112
        },
        {
            "path_id": 54,
            "name": "선운산 지질명소 -낙조대",
            "lat": 35.478107,
            "lon": 126.560028,
            "ele": 282.08
        },
        {
            "path_id": 55,
            "name": "이정표",
            "lat": 35.478138,
            "lon": 126.56015,
            "ele": 284.081
        },
        {
            "path_id": 56,
            "name": "테이블",
            "lat": 35.478107,
            "lon": 126.560219,
            "ele": 285.701
        },
        {
            "path_id": 57,
            "name": "테이블",
            "lat": 35.478107,
            "lon": 126.560219,
            "ele": 285.701
        },
        {
            "path_id": 58,
            "name": "갈림길",
            "lat": 35.478104,
            "lon": 126.560219,
            "ele": 285.898
        },
        {
            "path_id": 59,
            "name": "내원궁과 마애불좌상",
            "lat": 35.478138,
            "lon": 126.561394,
            "ele": 304.555
        },
        {
            "path_id": 60,
            "name": "쉼터",
            "lat": 35.478069,
            "lon": 126.561653,
            "ele": 296.693
        },
        {
            "path_id": 61,
            "name": "천마봉",
            "lat": 35.478096,
            "lon": 126.561867,
            "ele": 304.089
        },
        {
            "path_id": 62,
            "name": "내원궁과 동불암지 마애불",
            "lat": 35.478348,
            "lon": 126.561958,
            "ele": 301.927
        },
        {
            "path_id": 63,
            "name": "도솔계곡일대",
            "lat": 35.478325,
            "lon": 126.561974,
            "ele": 302.04
        },
        {
            "path_id": 64,
            "name": "천마봉",
            "lat": 35.478073,
            "lon": 126.561874,
            "ele": 297.304
        },
        {
            "path_id": 65,
            "name": "국가지점번호",
            "lat": 35.47805,
            "lon": 126.560173,
            "ele": 304.271
        },
        {
            "path_id": 66,
            "name": "계단 미끄럼주의",
            "lat": 35.47707,
            "lon": 126.559555,
            "ele": 304.383
        },
        {
            "path_id": 67,
            "name": "낙조대",
            "lat": 35.476788,
            "lon": 126.559692,
            "ele": 303.851
        },
        {
            "path_id": 68,
            "name": "이정표",
            "lat": 35.476681,
            "lon": 126.559624,
            "ele": 304.653
        },
        {
            "path_id": 69,
            "name": "국가지점번호",
            "lat": 35.476681,
            "lon": 126.559616,
            "ele": 304.768
        },
        {
            "path_id": 70,
            "name": "이정표",
            "lat": 35.470261,
            "lon": 126.555428,
            "ele": 311.917
        },
        {
            "path_id": 71,
            "name": "국가지점번호",
            "lat": 35.470196,
            "lon": 126.555511,
            "ele": 312.057
        },
        {
            "path_id": 72,
            "name": "국가지점번호",
            "lat": 35.467564,
            "lon": 126.555794,
            "ele": 309.115
        },
        {
            "path_id": 73,
            "name": "해리면의 평야",
            "lat": 35.46756,
            "lon": 126.555786,
            "ele": 309.15
        },
        {
            "path_id": 74,
            "name": "배맨바위",
            "lat": 35.466122,
            "lon": 126.555733,
            "ele": 313.306
        },
        {
            "path_id": 75,
            "name": "갈림길",
            "lat": 35.465981,
            "lon": 126.555725,
            "ele": 314.901
        },
        {
            "path_id": 76,
            "name": "국가지점번호",
            "lat": 35.465981,
            "lon": 126.555717,
            "ele": 315.074
        },
        {
            "path_id": 77,
            "name": "청룡산",
            "lat": 35.465969,
            "lon": 126.555679,
            "ele": 315.313
        },
        {
            "path_id": 78,
            "name": "해리면 하련의 농경지",
            "lat": 35.465729,
            "lon": 126.556099,
            "ele": 323.137
        },
        {
            "path_id": 79,
            "name": "오이풀-야생화",
            "lat": 35.465641,
            "lon": 126.556351,
            "ele": 326.283
        },
        {
            "path_id": 80,
            "name": "층꽃나무",
            "lat": 35.465393,
            "lon": 126.556961,
            "ele": 328.745
        },
        {
            "path_id": 81,
            "name": "국가지점번호",
            "lat": 35.463993,
            "lon": 126.56041,
            "ele": 320.779
        },
        {
            "path_id": 82,
            "name": "웨이포인트 116",
            "lat": 35.464645,
            "lon": 126.562386,
            "ele": 313.871
        },
        {
            "path_id": 83,
            "name": "웨이포인트 117",
            "lat": 35.464645,
            "lon": 126.562386,
            "ele": 313.871
        },
        {
            "path_id": 84,
            "name": "웨이포인트 118",
            "lat": 35.464645,
            "lon": 126.562386,
            "ele": 313.871
        },
        {
            "path_id": 85,
            "name": "청룡산과배맨바위",
            "lat": 35.464649,
            "lon": 126.562393,
            "ele": 313.873
        },
        {
            "path_id": 86,
            "name": "추락주의",
            "lat": 35.465408,
            "lon": 126.562614,
            "ele": 314.28
        },
        {
            "path_id": 87,
            "name": "갈림길",
            "lat": 35.465805,
            "lon": 126.562698,
            "ele": 318.598
        },
        {
            "path_id": 88,
            "name": "국가지점번호",
            "lat": 35.465824,
            "lon": 126.562691,
            "ele": 319.303
        },
        {
            "path_id": 89,
            "name": "쥐바위봉 클라이밍",
            "lat": 35.465797,
            "lon": 126.562698,
            "ele": 320.419
        },
        {
            "path_id": 90,
            "name": "배맨바위와 천마봉",
            "lat": 35.466026,
            "lon": 126.562943,
            "ele": 328.378
        },
        {
            "path_id": 91,
            "name": "층꽃나무 군락",
            "lat": 35.466461,
            "lon": 126.563293,
            "ele": 334.042
        },
        {
            "path_id": 92,
            "name": "갈림길",
            "lat": 35.46669,
            "lon": 126.563812,
            "ele": 335.156
        },
        {
            "path_id": 93,
            "name": "갈림길",
            "lat": 35.466888,
            "lon": 126.56498,
            "ele": 338.197
        },
        {
            "path_id": 94,
            "name": "국가지점번호",
            "lat": 35.465324,
            "lon": 126.566902,
            "ele": 338.668
        },
        {
            "path_id": 95,
            "name": "도솔제",
            "lat": 35.465191,
            "lon": 126.566925,
            "ele": 338.739
        },
        {
            "path_id": 96,
            "name": "평지리 평지저수지",
            "lat": 35.465015,
            "lon": 126.567268,
            "ele": 339.427
        },
        {
            "path_id": 97,
            "name": "바위",
            "lat": 35.465004,
            "lon": 126.567459,
            "ele": 339.034
        },
        {
            "path_id": 98,
            "name": "국가지점번호",
            "lat": 35.463833,
            "lon": 126.57296,
            "ele": 278.051
        },
        {
            "path_id": 99,
            "name": "갈림길",
            "lat": 35.464046,
            "lon": 126.573257,
            "ele": 270.344
        },
        {
            "path_id": 100,
            "name": "희여계곡",
            "lat": 35.477509,
            "lon": 126.573906,
            "ele": 115.786
        },
        {
            "path_id": 101,
            "name": "이정표",
            "lat": 35.479527,
            "lon": 126.575287,
            "ele": 108.058
        },
        {
            "path_id": 102,
            "name": "갈림길",
            "lat": 35.479542,
            "lon": 126.575317,
            "ele": 107.758
        },
        {
            "path_id": 103,
            "name": "국기봉능선의 사자바위",
            "lat": 35.48399,
            "lon": 126.577614,
            "ele": 93.98
        },
        {
            "path_id": 104,
            "name": "갈림길",
            "lat": 35.48634,
            "lon": 126.577789,
            "ele": 91.845
        },
        {
            "path_id": 105,
            "name": "도솔제",
            "lat": 35.487869,
            "lon": 126.576889,
            "ele": 89.994
        },
        {
            "path_id": 106,
            "name": "국가지점번호",
            "lat": 35.487892,
            "lon": 126.576736,
            "ele": 90.148
        },
        {
            "path_id": 107,
            "name": "갈림길",
            "lat": 35.487915,
            "lon": 126.576866,
            "ele": 90.412
        },
        {
            "path_id": 108,
            "name": "투구바위 능선",
            "lat": 35.487896,
            "lon": 126.57692,
            "ele": 89.641
        },
        {
            "path_id": 109,
            "name": "국민여가캠핑장",
            "lat": 35.502331,
            "lon": 126.583221,
            "ele": 55.462
        },
        {
            "path_id": 110,
            "name": "선운사 유스호스텔",
            "lat": 35.502903,
            "lon": 126.584473,
            "ele": 54.823
        },
        {
            "path_id": 111,
            "name": "고향식당",
            "lat": 35.503529,
            "lon": 126.585373,
            "ele": 53.837
        },
        {
            "path_id": 112,
            "name": "대형주차장",
            "lat": 35.504108,
            "lon": 126.585976,
            "ele": 52.59
        }
    ]
}