[
  {
    "path_id": 0,
    "path": [
      {
        "lat": 35.793415,
        "lng": 128.094452
      },
      {
        "lat": 35.795212,
        "lng": 128.094147
      }
    ],
    "color": "#b20744",
    "start_name": "해인사주차장",
    "length_meter": 201.7,
    "time_minute": 3
  },
  {
    "path_id": 1,
    "path": [
      {
        "lat": 35.795212,
        "lng": 128.094147
      },
      {
        "lat": 35.796276,
        "lng": 128.09494
      }
    ],
    "color": "#538f6b",
    "start_name": "허덕교 화장실",
    "length_meter": 138.2,
    "time_minute": 2
  },
  {
    "path_id": 2,
    "path": [
      {
        "lat": 35.796276,
        "lng": 128.09494
      },
      {
        "lat": 35.79628,
        "lng": 128.094955
      }
    ],
    "color": "#38738f",
    "start_name": "갈림길",
    "length_meter": 1.4,
    "time_minute": 0
  },
  {
    "path_id": 3,
    "path": [
      {
        "lat": 35.79628,
        "lng": 128.094955
      },
      {
        "lat": 35.796978,
        "lng": 128.09549
      }
    ],
    "color": "#072554",
    "start_name": "카페",
    "length_meter": 91.4,
    "time_minute": 1
  },
  {
    "path_id": 4,
    "path": [
      {
        "lat": 35.796978,
        "lng": 128.09549
      },
      {
        "lat": 35.799023,
        "lng": 128.096451
      }
    ],
    "color": "#aeb90f",
    "start_name": "갈림길",
    "length_meter": 243.4,
    "time_minute": 4
  },
  {
    "path_id": 5,
    "path": [
      {
        "lat": 35.799023,
        "lng": 128.096451
      },
      {
        "lat": 35.799713,
        "lng": 128.096207
      }
    ],
    "color": "#0e33c2",
    "start_name": "일주문주차장",
    "length_meter": 79.8,
    "time_minute": 1
  },
  {
    "path_id": 6,
    "path": [
      {
        "lat": 35.799713,
        "lng": 128.096207
      },
      {
        "lat": 35.802166,
        "lng": 128.097092
      }
    ],
    "color": "#8b2aa8",
    "start_name": "갈림길",
    "length_meter": 284.2,
    "time_minute": 4
  },
  {
    "path_id": 7,
    "path": [
      {
        "lat": 35.802166,
        "lng": 128.097092
      },
      {
        "lat": 35.821159,
        "lng": 128.116852
      }
    ],
    "color": "#5ec520",
    "start_name": "토신골탐방로입구",
    "length_meter": 2763.2,
    "time_minute": 46
  },
  {
    "path_id": 8,
    "path": [
      {
        "lat": 35.821159,
        "lng": 128.116852
      },
      {
        "lat": 35.821861,
        "lng": 128.117126
      }
    ],
    "color": "#849f9a",
    "start_name": "갈림길",
    "length_meter": 81.9,
    "time_minute": 1
  },
  {
    "path_id": 9,
    "path": [
      {
        "lat": 35.821861,
        "lng": 128.117126
      },
      {
        "lat": 35.822437,
        "lng": 128.117569
      }
    ],
    "color": "#966b09",
    "start_name": "자연경관 / 너럭바위 조망 / 암벽",
    "length_meter": 86.2,
    "time_minute": 1
  },
  {
    "path_id": 10,
    "path": [
      {
        "lat": 35.822437,
        "lng": 128.117569
      },
      {
        "lat": 35.823547,
        "lng": 128.120499
      }
    ],
    "color": "#4e506e",
    "start_name": "낙석주의",
    "length_meter": 291.6,
    "time_minute": 4
  },
  {
    "path_id": 11,
    "path": [
      {
        "lat": 35.823547,
        "lng": 128.120499
      },
      {
        "lat": 35.822807,
        "lng": 128.11998
      }
    ],
    "color": "#7b21bc",
    "start_name": "가야산 우두봉(상왕봉) / 갈림길",
    "length_meter": 98.2,
    "time_minute": 1
  },
  {
    "path_id": 12,
    "path": [
      {
        "lat": 35.822807,
        "lng": 128.11998
      },
      {
        "lat": 35.808575,
        "lng": 128.102707
      }
    ],
    "color": "#314042",
    "start_name": "봉천대",
    "length_meter": 2220.4,
    "time_minute": 37
  },
  {
    "path_id": 13,
    "path": [
      {
        "lat": 35.808575,
        "lng": 128.102707
      },
      {
        "lat": 35.800396,
        "lng": 128.095917
      }
    ],
    "color": "#3694af",
    "start_name": "밴치",
    "length_meter": 1096.4,
    "time_minute": 18
  },
  {
    "path_id": 14,
    "path": [
      {
        "lat": 35.800396,
        "lng": 128.095917
      },
      {
        "lat": 35.798485,
        "lng": 128.096466
      }
    ],
    "color": "#891f91",
    "start_name": "수다라카페",
    "length_meter": 218.2,
    "time_minute": 3
  }
]