[
    {
        "path_id": 1,
        "name": "우전마을",
        "lat": 35.636925,
        "lon": 127.735756
    },
    {
        "path_id": 2,
        "name": "진석사방댐2호",
        "lat": 35.650478,
        "lon": 127.738022
    },
    {
        "path_id": 3,
        "name": "함양군 종합안내판",
        "lat": 35.650818,
        "lon": 127.738457
    },
    {
        "path_id": 4,
        "name": "황석산 등산 안내도",
        "lat": 35.650642,
        "lon": 127.738937
    },
    {
        "path_id": 5,
        "name": "갈림길",
        "lat": 35.650867,
        "lon": 127.739731
    },
    {
        "path_id": 6,
        "name": "피바위",
        "lat": 35.651279,
        "lon": 127.745163
    },
    {
        "path_id": 7,
        "name": "황석산 정상가는길",
        "lat": 35.649403,
        "lon": 127.745216
    },
    {
        "path_id": 8,
        "name": "황석산 정상가는길",
        "lat": 35.650135,
        "lon": 127.747307
    },
    {
        "path_id": 9,
        "name": "황석산성",
        "lat": 35.650417,
        "lon": 127.747963
    },
    {
        "path_id": 10,
        "name": "갈림길",
        "lat": 35.65366,
        "lon": 127.7519
    },
    {
        "path_id": 11,
        "name": "황석산 관광안내",
        "lat": 35.636818,
        "lon": 127.73568
    }
]