{
    "max_ele": 1128.0,
    "track": [
        {
            "path_id": 1,
            "name": "사설유료주차장",
            "lat": 38.036102,
            "lon": 128.472168,
            "ele": 746.0
        },
        {
            "path_id": 2,
            "name": "매점",
            "lat": 38.036098,
            "lon": 128.472107,
            "ele": 740.0
        },
        {
            "path_id": 3,
            "name": "주차장 화장실",
            "lat": 38.035873,
            "lon": 128.472916,
            "ele": 740.0
        },
        {
            "path_id": 4,
            "name": "외부종자 유입 방지 에어건",
            "lat": 38.036304,
            "lon": 128.471588,
            "ele": 744.0
        },
        {
            "path_id": 5,
            "name": "입구",
            "lat": 38.036438,
            "lon": 128.471298,
            "ele": 746.0
        },
        {
            "path_id": 6,
            "name": "점봉산 생태관리센터",
            "lat": 38.036438,
            "lon": 128.471298,
            "ele": 746.0
        },
        {
            "path_id": 7,
            "name": "외부 종자 유입 방지 에어건",
            "lat": 38.036438,
            "lon": 128.471298,
            "ele": 749.0
        },
        {
            "path_id": 8,
            "name": "폭포",
            "lat": 38.031631,
            "lon": 128.463196,
            "ele": 778.0
        },
        {
            "path_id": 9,
            "name": "갈림길",
            "lat": 38.033512,
            "lon": 128.456528,
            "ele": 815.0
        },
        {
            "path_id": 10,
            "name": "쉼터",
            "lat": 38.033775,
            "lon": 128.456238,
            "ele": 824.0
        },
        {
            "path_id": 11,
            "name": "곰배령 끝집 등",
            "lat": 38.035477,
            "lon": 128.45433,
            "ele": 821.0
        },
        {
            "path_id": 12,
            "name": "사설 매점 화장실",
            "lat": 38.035515,
            "lon": 128.454224,
            "ele": 818.0
        },
        {
            "path_id": 13,
            "name": "쉼터",
            "lat": 38.037895,
            "lon": 128.450943,
            "ele": 840.0
        },
        {
            "path_id": 14,
            "name": "폭포",
            "lat": 38.03846,
            "lon": 128.444672,
            "ele": 897.0
        },
        {
            "path_id": 15,
            "name": "쉼터",
            "lat": 38.036495,
            "lon": 128.44101,
            "ele": 938.0
        },
        {
            "path_id": 20,
            "name": "갈림길",
            "lat": 38.027786,
            "lon": 128.433029,
            "ele": 1123.0
        },
        {
            "path_id": 21,
            "name": "곰배령 정상 조망점",
            "lat": 38.027752,
            "lon": 128.432831,
            "ele": 1128.0
        },
        {
            "path_id": 22,
            "name": "곰배령 정상",
            "lat": 38.027935,
            "lon": 128.432312,
            "ele": 1128.0
        }
    ]
}