{
    "max_ele": 622.0,
    "track": [
        {
            "path_id": 1,
            "name": "팔영산 등산안내도",
            "lat": 34.639889,
            "lon": 127.450142,
            "ele": 31.0
        },
        {
            "path_id": 2,
            "name": "팔영산 곡강",
            "lat": 34.639938,
            "lon": 127.45015,
            "ele": 39.0
        },
        {
            "path_id": 3,
            "name": "팔영산 곡강 주차장",
            "lat": 34.639797,
            "lon": 127.450104,
            "ele": 32.0
        },
        {
            "path_id": 4,
            "name": "팔영산 선녀봉경유입구",
            "lat": 34.639141,
            "lon": 127.450813,
            "ele": 24.0
        },
        {
            "path_id": 5,
            "name": "탐방로 안내도",
            "lat": 34.63715,
            "lon": 127.448883,
            "ele": 68.0
        },
        {
            "path_id": 6,
            "name": "갈림길",
            "lat": 34.635769,
            "lon": 127.448761,
            "ele": 110.0
        },
        {
            "path_id": 9,
            "name": "낙석주위",
            "lat": 34.633404,
            "lon": 127.447975,
            "ele": 181.0
        },
        {
            "path_id": 10,
            "name": "목구조목",
            "lat": 34.631508,
            "lon": 127.44693,
            "ele": 292.0
        },
        {
            "path_id": 11,
            "name": "갈림길",
            "lat": 34.63229,
            "lon": 127.444717,
            "ele": 371.0
        },
        {
            "path_id": 12,
            "name": "선녀1봉",
            "lat": 34.632393,
            "lon": 127.443962,
            "ele": 415.0
        },
        {
            "path_id": 14,
            "name": "선녀봉 2봉 쥥터",
            "lat": 34.630619,
            "lon": 127.441353,
            "ele": 497.0
        },
        {
            "path_id": 15,
            "name": "팔영산 선녀봉",
            "lat": 34.629562,
            "lon": 127.439445,
            "ele": 543.0
        },
        {
            "path_id": 16,
            "name": "선녀봉에서 성주봉쪽으로",
            "lat": 34.629398,
            "lon": 127.439415,
            "ele": 542.0
        },
        {
            "path_id": 17,
            "name": "갈림길",
            "lat": 34.629097,
            "lon": 127.439224,
            "ele": 528.0
        },
        {
            "path_id": 18,
            "name": "목구조목",
            "lat": 34.62912,
            "lon": 127.439217,
            "ele": 526.0
        },
        {
            "path_id": 21,
            "name": "갈림길",
            "lat": 34.627182,
            "lon": 127.433182,
            "ele": 484.0
        },
        {
            "path_id": 22,
            "name": "칠봉과팔봉사이",
            "lat": 34.620781,
            "lon": 127.43103,
            "ele": 612.0
        },
        {
            "path_id": 23,
            "name": "팔영산 8봉",
            "lat": 34.619579,
            "lon": 127.43177,
            "ele": 622.0
        }
    ]
}