{
  "max_ele": 860.983,
  "total_length_km": "5.9km",
  "total_time": "1시간 14분",
  "track": [
    {
      "path_id": 0,
      "path": [
        {
          "lat": 36.145107,
          "lng": 127.305603
        },
        {
          "lat": 36.144611,
          "lng": 127.305252
        }
      ],
      "color": "#978a03",
      "start_name": "수락리정류장 / 수락리종점 화장실 / 대둔산식당 매점",
      "length_meter": 72.2,
      "time_minute": 1
    },
    {
      "path_id": 1,
      "path": [
        {
          "lat": 36.144611,
          "lng": 127.305252
        },
        {
          "lat": 36.143913,
          "lng": 127.304939
        }
      ],
      "color": "#1b4770",
      "start_name": "금강식당 / 수락계곡",
      "length_meter": 82.6,
      "time_minute": 1
    },
    {
      "path_id": 2,
      "path": [
        {
          "lat": 36.143913,
          "lng": 127.304939
        },
        {
          "lat": 36.142536,
          "lng": 127.304199
        }
      ],
      "color": "#4753ab",
      "start_name": "수락계곡주차장 / 수락계곡주차장 화장실",
      "length_meter": 167.9,
      "time_minute": 2
    },
    {
      "path_id": 3,
      "path": [
        {
          "lat": 36.142536,
          "lng": 127.304199
        },
        {
          "lat": 36.14246,
          "lng": 127.304298
        }
      ],
      "color": "#340611",
      "start_name": "등산안내도",
      "length_meter": 12.3,
      "time_minute": 0
    },
    {
      "path_id": 4,
      "path": [
        {
          "lat": 36.14246,
          "lng": 127.304298
        },
        {
          "lat": 36.1394,
          "lng": 127.303299
        }
      ],
      "color": "#084148",
      "start_name": "주차장위 정자 / 갈림길",
      "length_meter": 352.1,
      "time_minute": 5
    },
    {
      "path_id": 5,
      "path": [
        {
          "lat": 36.1394,
          "lng": 127.303299
        },
        {
          "lat": 36.137108,
          "lng": 127.304451
        }
      ],
      "color": "#73b166",
      "start_name": "대둔산도립공원 탐방지원센터 / 갈림길 / 승전교",
      "length_meter": 275.7,
      "time_minute": 4
    },
    {
      "path_id": 6,
      "path": [
        {
          "lat": 36.137108,
          "lng": 127.304451
        },
        {
          "lat": 36.136227,
          "lng": 127.305824
        }
      ],
      "color": "#03364d",
      "start_name": "중간 쉼터 / 반딧불서식지?",
      "length_meter": 157.6,
      "time_minute": 2
    },
    {
      "path_id": 7,
      "path": [
        {
          "lat": 36.136227,
          "lng": 127.305824
        },
        {
          "lat": 36.135323,
          "lng": 127.306465
        }
      ],
      "color": "#bb2991",
      "start_name": "대둔산승전탑 주차장",
      "length_meter": 115.8,
      "time_minute": 1
    },
    {
      "path_id": 8,
      "path": [
        {
          "lat": 36.135323,
          "lng": 127.306465
        },
        {
          "lat": 36.131798,
          "lng": 127.307579
        }
      ],
      "color": "#2a7c47",
      "start_name": "갈림길",
      "length_meter": 404.5,
      "time_minute": 5
    },
    {
      "path_id": 9,
      "path": [
        {
          "lat": 36.131798,
          "lng": 127.307579
        },
        {
          "lat": 36.131126,
          "lng": 127.307709
        }
      ],
      "color": "#481417",
      "start_name": "꼬깔바위",
      "length_meter": 75.6,
      "time_minute": 0
    },
    {
      "path_id": 10,
      "path": [
        {
          "lat": 36.131126,
          "lng": 127.307709
        },
        {
          "lat": 36.127419,
          "lng": 127.313568
        }
      ],
      "color": "#02731a",
      "start_name": "수락폭포 / 갈림길",
      "length_meter": 671.3,
      "time_minute": 10
    },
    {
      "path_id": 11,
      "path": [
        {
          "lat": 36.127419,
          "lng": 127.313568
        },
        {
          "lat": 36.124512,
          "lng": 127.317604
        }
      ],
      "color": "#530614",
      "start_name": "낙조대  능선배경",
      "length_meter": 485.7,
      "time_minute": 6
    },
    {
      "path_id": 12,
      "path": [
        {
          "lat": 36.124512,
          "lng": 127.317604
        },
        {
          "lat": 36.124691,
          "lng": 127.320518
        }
      ],
      "color": "#ac9358",
      "start_name": "갈림길",
      "length_meter": 262.5,
      "time_minute": 3
    },
    {
      "path_id": 13,
      "path": [
        {
          "lat": 36.124691,
          "lng": 127.320518
        },
        {
          "lat": 36.125149,
          "lng": 127.321243
        }
      ],
      "color": "#ad735c",
      "start_name": "정상 / 갈림길",
      "length_meter": 82.7,
      "time_minute": 1
    },
    {
      "path_id": 14,
      "path": [
        {
          "lat": 36.125149,
          "lng": 127.321243
        },
        {
          "lat": 36.12635,
          "lng": 127.323105
        }
      ],
      "color": "#8ea8b8",
      "start_name": "사거리쉼터",
      "length_meter": 214.0,
      "time_minute": 2
    },
    {
      "path_id": 15,
      "path": [
        {
          "lat": 36.12635,
          "lng": 127.323105
        },
        {
          "lat": 36.127831,
          "lng": 127.323326
        }
      ],
      "color": "#9d8cb6",
      "start_name": "칠성봉",
      "length_meter": 165.9,
      "time_minute": 2
    },
    {
      "path_id": 16,
      "path": [
        {
          "lat": 36.127831,
          "lng": 127.323326
        },
        {
          "lat": 36.129463,
          "lng": 127.32296
        }
      ],
      "color": "#3e8f8e",
      "start_name": "갈림길",
      "length_meter": 184.4,
      "time_minute": 2
    },
    {
      "path_id": 17,
      "path": [
        {
          "lat": 36.129463,
          "lng": 127.32296
        },
        {
          "lat": 36.129871,
          "lng": 127.322403
        }
      ],
      "color": "#191402",
      "start_name": "간이화장실 / 낙조산장 / 논산 수락리 마애불",
      "length_meter": 70.2,
      "time_minute": 1
    },
    {
      "path_id": 18,
      "path": [
        {
          "lat": 36.129871,
          "lng": 127.322403
        },
        {
          "lat": 36.12838,
          "lng": 127.319916
        }
      ],
      "color": "#b7495f",
      "start_name": "낙조산장 앞 데크",
      "length_meter": 278.2,
      "time_minute": 3
    },
    {
      "path_id": 19,
      "path": [
        {
          "lat": 36.12838,
          "lng": 127.319916
        },
        {
          "lat": 36.128342,
          "lng": 127.319733
        }
      ],
      "color": "#1d41aa",
      "start_name": "허둔장군절터 벤치",
      "length_meter": 17.0,
      "time_minute": 0
    },
    {
      "path_id": 20,
      "path": [
        {
          "lat": 36.128342,
          "lng": 127.319733
        },
        {
          "lat": 36.128742,
          "lng": 127.312065
        }
      ],
      "color": "#2929b8",
      "start_name": "허둔장군절터",
      "length_meter": 690.1,
      "time_minute": 8
    },
    {
      "path_id": 21,
      "path": [
        {
          "lat": 36.128742,
          "lng": 127.312065
        },
        {
          "lat": 36.129566,
          "lng": 127.311356
        }
      ],
      "color": "#2a4d95",
      "start_name": "갈림길",
      "length_meter": 111.6,
      "time_minute": 1
    },
    {
      "path_id": 22,
      "path": [
        {
          "lat": 36.129566,
          "lng": 127.311356
        },
        {
          "lat": 36.135429,
          "lng": 127.306496
        }
      ],
      "color": "#5f191a",
      "start_name": "석천암",
      "length_meter": 784.6,
      "time_minute": 9
    },
    {
      "path_id": 23,
      "path": [
        {
          "lat": 36.135429,
          "lng": 127.306496
        },
        {
          "lat": 36.137062,
          "lng": 127.307167
        }
      ],
      "color": "#0857ad",
      "start_name": "선녀폭포",
      "length_meter": 191.3,
      "time_minute": 2
    }
  ]
}