{
  "max_ele": 913.302,
  "total_length_km": "6.6km",
  "total_time": "1시간 21분",
  "start_name": "산정호수화장실",
  "end_name": "비선폭포",
  "track": [
    {
      "path_id": 0,
      "path": [
        {
          "lat": 38.067619,
          "lng": 127.325066
        },
        {
          "lat": 38.068504,
          "lng": 127.325447
        }
      ],
      "color": "#7f89c3",
      "start_name": "산정호수화장실 / 산정호수식당 / 산정호수매점 / 안내소 / 상동주차장",
      "length_meter": 115.0,
      "time_minute": 1
    },
    {
      "path_id": 1,
      "path": [
        {
          "lat": 38.068504,
          "lng": 127.325447
        },
        {
          "lat": 38.067596,
          "lng": 127.328758
        }
      ],
      "color": "#737dc0",
      "start_name": "명성산입구",
      "length_meter": 306.9,
      "time_minute": 3
    },
    {
      "path_id": 2,
      "path": [
        {
          "lat": 38.067596,
          "lng": 127.328758
        },
        {
          "lat": 38.074516,
          "lng": 127.340317
        }
      ],
      "color": "#9303b0",
      "start_name": "갈림길",
      "length_meter": 1271.2,
      "time_minute": 15
    },
    {
      "path_id": 3,
      "path": [
        {
          "lat": 38.074516,
          "lng": 127.340317
        },
        {
          "lat": 38.081059,
          "lng": 127.344009
        }
      ],
      "color": "#801fb7",
      "start_name": "등룡폭포 / 등룡폭포쉼터",
      "length_meter": 805.0,
      "time_minute": 13
    },
    {
      "path_id": 4,
      "path": [
        {
          "lat": 38.081059,
          "lng": 127.344009
        },
        {
          "lat": 38.080406,
          "lng": 127.341095
        }
      ],
      "color": "#be2266",
      "start_name": "쉼터",
      "length_meter": 265.2,
      "time_minute": 3
    },
    {
      "path_id": 5,
      "path": [
        {
          "lat": 38.080406,
          "lng": 127.341095
        },
        {
          "lat": 38.080036,
          "lng": 127.340523
        }
      ],
      "color": "#2d923b",
      "start_name": "갈림길 / 억새바람길",
      "length_meter": 65.3,
      "time_minute": 1
    },
    {
      "path_id": 6,
      "path": [
        {
          "lat": 38.080036,
          "lng": 127.340523
        },
        {
          "lat": 38.080032,
          "lng": 127.340508
        }
      ],
      "color": "#517863",
      "start_name": "억새길포토존",
      "length_meter": 1.4,
      "time_minute": 0
    },
    {
      "path_id": 7,
      "path": [
        {
          "lat": 38.080032,
          "lng": 127.340508
        },
        {
          "lat": 38.07991,
          "lng": 127.339485
        }
      ],
      "color": "#3a5d60",
      "start_name": "명성산억새길경관",
      "length_meter": 90.6,
      "time_minute": 1
    },
    {
      "path_id": 8,
      "path": [
        {
          "lat": 38.07991,
          "lng": 127.339485
        },
        {
          "lat": 38.081181,
          "lng": 127.336884
        }
      ],
      "color": "#6e998b",
      "start_name": "갈림길",
      "length_meter": 268.0,
      "time_minute": 3
    },
    {
      "path_id": 9,
      "path": [
        {
          "lat": 38.081181,
          "lng": 127.336884
        },
        {
          "lat": 38.09166,
          "lng": 127.338776
        }
      ],
      "color": "#0db741",
      "start_name": "팔각정 / 명성산 / 우체통",
      "length_meter": 1221.2,
      "time_minute": 20
    },
    {
      "path_id": 10,
      "path": [
        {
          "lat": 38.09166,
          "lng": 127.338776
        },
        {
          "lat": 38.080379,
          "lng": 127.33577
        }
      ],
      "color": "#74af18",
      "start_name": "삼각봉",
      "length_meter": 1281.7,
      "time_minute": 16
    },
    {
      "path_id": 11,
      "path": [
        {
          "lat": 38.080379,
          "lng": 127.33577
        },
        {
          "lat": 38.078056,
          "lng": 127.333939
        }
      ],
      "color": "#7f3a27",
      "start_name": "쉬는곳",
      "length_meter": 304.0,
      "time_minute": 3
    },
    {
      "path_id": 12,
      "path": [
        {
          "lat": 38.078056,
          "lng": 127.333939
        },
        {
          "lat": 38.073051,
          "lng": 127.333488
        }
      ],
      "color": "#aaaf54",
      "start_name": "갈림길",
      "length_meter": 557.9,
      "time_minute": 6
    }
  ]
}