{
  "max_ele": 913.302,
  "track": [
    {
      "path_id": 0,
      "path": [
        {
          "lat": 38.067619,
          "lng": 127.325066
        },
        {
          "lat": 38.068504,
          "lng": 127.325447
        }
      ],
      "color": "#616b21",
      "start_name": "산정호수화장실 / 산정호수식당 / 산정호수매점 / 안내소 / 상동주차장",
      "length_meter": 115.0,
      "time_minute": 1
    },
    {
      "path_id": 1,
      "path": [
        {
          "lat": 38.068504,
          "lng": 127.325447
        },
        {
          "lat": 38.067596,
          "lng": 127.328758
        }
      ],
      "color": "#ab959d",
      "start_name": "명성산입구",
      "length_meter": 306.9,
      "time_minute": 5
    },
    {
      "path_id": 2,
      "path": [
        {
          "lat": 38.067596,
          "lng": 127.328758
        },
        {
          "lat": 38.074516,
          "lng": 127.340317
        }
      ],
      "color": "#02a4ac",
      "start_name": "갈림길",
      "length_meter": 1271.2,
      "time_minute": 21
    },
    {
      "path_id": 3,
      "path": [
        {
          "lat": 38.074516,
          "lng": 127.340317
        },
        {
          "lat": 38.081059,
          "lng": 127.344009
        }
      ],
      "color": "#7fb546",
      "start_name": "등룡폭포 / 등룡폭포쉼터",
      "length_meter": 805.0,
      "time_minute": 13
    },
    {
      "path_id": 4,
      "path": [
        {
          "lat": 38.081059,
          "lng": 127.344009
        },
        {
          "lat": 38.080406,
          "lng": 127.341095
        }
      ],
      "color": "#aa8592",
      "start_name": "쉼터",
      "length_meter": 265.2,
      "time_minute": 4
    },
    {
      "path_id": 5,
      "path": [
        {
          "lat": 38.080406,
          "lng": 127.341095
        },
        {
          "lat": 38.080036,
          "lng": 127.340523
        }
      ],
      "color": "#529153",
      "start_name": "갈림길 / 억새바람길",
      "length_meter": 65.3,
      "time_minute": 1
    },
    {
      "path_id": 6,
      "path": [
        {
          "lat": 38.080036,
          "lng": 127.340523
        },
        {
          "lat": 38.080032,
          "lng": 127.340508
        }
      ],
      "color": "#0a54bf",
      "start_name": "억새길포토존",
      "length_meter": 1.4,
      "time_minute": 0
    },
    {
      "path_id": 7,
      "path": [
        {
          "lat": 38.080032,
          "lng": 127.340508
        },
        {
          "lat": 38.07991,
          "lng": 127.339485
        }
      ],
      "color": "#8f826f",
      "start_name": "명성산억새길경관",
      "length_meter": 90.6,
      "time_minute": 1
    },
    {
      "path_id": 8,
      "path": [
        {
          "lat": 38.07991,
          "lng": 127.339485
        },
        {
          "lat": 38.081181,
          "lng": 127.336884
        }
      ],
      "color": "#1b6301",
      "start_name": "갈림길",
      "length_meter": 268.0,
      "time_minute": 4
    },
    {
      "path_id": 9,
      "path": [
        {
          "lat": 38.081181,
          "lng": 127.336884
        },
        {
          "lat": 38.081516,
          "lng": 127.336212
        }
      ],
      "color": "#225a42",
      "start_name": "팔각정",
      "length_meter": 69.6,
      "time_minute": 1
    },
    {
      "path_id": 10,
      "path": [
        {
          "lat": 38.081516,
          "lng": 127.336212
        },
        {
          "lat": 38.09166,
          "lng": 127.338776
        }
      ],
      "color": "#160458",
      "start_name": "명성산 / 우체통",
      "length_meter": 1151.6,
      "time_minute": 19
    },
    {
      "path_id": 11,
      "path": [
        {
          "lat": 38.09166,
          "lng": 127.338776
        },
        {
          "lat": 38.080379,
          "lng": 127.33577
        }
      ],
      "color": "#a24713",
      "start_name": "삼각봉",
      "length_meter": 1281.7,
      "time_minute": 21
    },
    {
      "path_id": 12,
      "path": [
        {
          "lat": 38.080379,
          "lng": 127.33577
        },
        {
          "lat": 38.078056,
          "lng": 127.333939
        }
      ],
      "color": "#48b9b8",
      "start_name": "쉬는곳",
      "length_meter": 304.0,
      "time_minute": 5
    },
    {
      "path_id": 13,
      "path": [
        {
          "lat": 38.078056,
          "lng": 127.333939
        },
        {
          "lat": 38.073051,
          "lng": 127.333488
        }
      ],
      "color": "#4c6884",
      "start_name": "갈림길",
      "length_meter": 557.9,
      "time_minute": 9
    }
  ]
}