{
  "max_ele": 923.184,
  "total_length_km": "9.4km",
  "total_time": "1시간 58분",
  "track": [
    {
      "path_id": 0,
      "path": [
        {
          "lat": 36.268757,
          "lng": 129.235977
        },
        {
          "lat": 36.271721,
          "lng": 129.243866
        }
      ],
      "color": "#854d8a",
      "start_name": "공중화장실 / 하옥계곡 매점",
      "length_meter": 781.0,
      "time_minute": 12
    },
    {
      "path_id": 1,
      "path": [
        {
          "lat": 36.271721,
          "lng": 129.243866
        },
        {
          "lat": 36.272522,
          "lng": 129.245728
        }
      ],
      "color": "#551eb7",
      "start_name": "상옥리 조망권",
      "length_meter": 189.2,
      "time_minute": 2
    },
    {
      "path_id": 2,
      "path": [
        {
          "lat": 36.272522,
          "lng": 129.245728
        },
        {
          "lat": 36.273151,
          "lng": 129.246399
        }
      ],
      "color": "#926f7e",
      "start_name": "능선정상 쉼터 / 가는잎그늘사초 군락지 / 큰소나무",
      "length_meter": 92.8,
      "time_minute": 1
    },
    {
      "path_id": 3,
      "path": [
        {
          "lat": 36.273151,
          "lng": 129.246399
        },
        {
          "lat": 36.273636,
          "lng": 129.247253
        }
      ],
      "color": "#0cc5c6",
      "start_name": "큰굴참나무",
      "length_meter": 93.6,
      "time_minute": 1
    },
    {
      "path_id": 4,
      "path": [
        {
          "lat": 36.273636,
          "lng": 129.247253
        },
        {
          "lat": 36.273415,
          "lng": 129.248123
        }
      ],
      "color": "#1f4115",
      "start_name": "능선정상 쉼터 / 산갈나무 군락지",
      "length_meter": 83.5,
      "time_minute": 1
    },
    {
      "path_id": 5,
      "path": [
        {
          "lat": 36.273415,
          "lng": 129.248123
        },
        {
          "lat": 36.273064,
          "lng": 129.249191
        }
      ],
      "color": "#5da36d",
      "start_name": "단풍나무 군락지",
      "length_meter": 103.4,
      "time_minute": 1
    },
    {
      "path_id": 6,
      "path": [
        {
          "lat": 36.273064,
          "lng": 129.249191
        },
        {
          "lat": 36.272945,
          "lng": 129.251389
        }
      ],
      "color": "#403c5a",
      "start_name": "겨우살이 / 하옥계곡",
      "length_meter": 200.2,
      "time_minute": 3
    },
    {
      "path_id": 7,
      "path": [
        {
          "lat": 36.272945,
          "lng": 129.251389
        },
        {
          "lat": 36.272758,
          "lng": 129.254196
        }
      ],
      "color": "#1e9f59",
      "start_name": "미역줄나무 군락지",
      "length_meter": 252.5,
      "time_minute": 3
    },
    {
      "path_id": 8,
      "path": [
        {
          "lat": 36.272758,
          "lng": 129.254196
        },
        {
          "lat": 36.269928,
          "lng": 129.26088
        }
      ],
      "color": "#275b3f",
      "start_name": "단풍나무  군락지",
      "length_meter": 676.8,
      "time_minute": 8
    },
    {
      "path_id": 9,
      "path": [
        {
          "lat": 36.269928,
          "lng": 129.26088
        },
        {
          "lat": 36.268318,
          "lng": 129.261093
        }
      ],
      "color": "#35b695",
      "start_name": "내연산삼지봉, 동대산 조망권",
      "length_meter": 180.0,
      "time_minute": 2
    },
    {
      "path_id": 10,
      "path": [
        {
          "lat": 36.268318,
          "lng": 129.261093
        },
        {
          "lat": 36.268429,
          "lng": 129.262589
        }
      ],
      "color": "#024286",
      "start_name": "갈림길",
      "length_meter": 134.7,
      "time_minute": 1
    },
    {
      "path_id": 11,
      "path": [
        {
          "lat": 36.268429,
          "lng": 129.262589
        },
        {
          "lat": 36.273697,
          "lng": 129.269836
        }
      ],
      "color": "#814240",
      "start_name": "하옥계곡",
      "length_meter": 874.8,
      "time_minute": 10
    },
    {
      "path_id": 12,
      "path": [
        {
          "lat": 36.273697,
          "lng": 129.269836
        },
        {
          "lat": 36.274292,
          "lng": 129.270859
        }
      ],
      "color": "#3f16bb",
      "start_name": "신갈나무 군락지",
      "length_meter": 113.1,
      "time_minute": 1
    },
    {
      "path_id": 13,
      "path": [
        {
          "lat": 36.274292,
          "lng": 129.270859
        },
        {
          "lat": 36.274517,
          "lng": 129.27179
        }
      ],
      "color": "#0b4058",
      "start_name": "능선정상 쉼터",
      "length_meter": 87.1,
      "time_minute": 1
    },
    {
      "path_id": 14,
      "path": [
        {
          "lat": 36.274517,
          "lng": 129.27179
        },
        {
          "lat": 36.274582,
          "lng": 129.275925
        }
      ],
      "color": "#7b4478",
      "start_name": "천남성",
      "length_meter": 370.7,
      "time_minute": 4
    },
    {
      "path_id": 15,
      "path": [
        {
          "lat": 36.274582,
          "lng": 129.275925
        },
        {
          "lat": 36.275688,
          "lng": 129.2854
        }
      ],
      "color": "#9f877e",
      "start_name": "능선정상 쉼터",
      "length_meter": 858.2,
      "time_minute": 10
    },
    {
      "path_id": 16,
      "path": [
        {
          "lat": 36.275688,
          "lng": 129.2854
        },
        {
          "lat": 36.278557,
          "lng": 129.289413
        }
      ],
      "color": "#222938",
      "start_name": "가는잎그늘사초  군락지",
      "length_meter": 480.8,
      "time_minute": 6
    },
    {
      "path_id": 17,
      "path": [
        {
          "lat": 36.278557,
          "lng": 129.289413
        },
        {
          "lat": 36.274464,
          "lng": 129.279419
        }
      ],
      "color": "#089822",
      "start_name": "철쭉 군락지 / 내연산삼지봉",
      "length_meter": 1052.1,
      "time_minute": 17
    },
    {
      "path_id": 18,
      "path": [
        {
          "lat": 36.274464,
          "lng": 129.279419
        },
        {
          "lat": 36.270504,
          "lng": 129.26886
        }
      ],
      "color": "#59b98d",
      "start_name": "보경사 계곡",
      "length_meter": 1044.0,
      "time_minute": 13
    },
    {
      "path_id": 19,
      "path": [
        {
          "lat": 36.270504,
          "lng": 129.26886
        },
        {
          "lat": 36.272964,
          "lng": 129.252335
        }
      ],
      "color": "#9125bb",
      "start_name": "갈림길",
      "length_meter": 1506.5,
      "time_minute": 18
    },
    {
      "path_id": 20,
      "path": [
        {
          "lat": 36.272964,
          "lng": 129.252335
        },
        {
          "lat": 36.272968,
          "lng": 129.249359
        }
      ],
      "color": "#517c8c",
      "start_name": "큰 팥배나무",
      "length_meter": 266.8,
      "time_minute": 3
    }
  ]
}