[
  {
    "path_id": 0,
    "path": [
      {
        "lat": 36.220364,
        "lng": 129.257355
      },
      {
        "lat": 36.223064,
        "lng": 129.254974
      }
    ],
    "color": "#91d0ef",
    "start_name": "정자 / 갈림길",
    "length_meter": 373.6,
    "time_minute": 6
  },
  {
    "path_id": 1,
    "path": [
      {
        "lat": 36.223064,
        "lng": 129.254974
      },
      {
        "lat": 36.224697,
        "lng": 129.252396
      }
    ],
    "color": "#c219c8",
    "start_name": "벤치쉼터",
    "length_meter": 294.0,
    "time_minute": 4
  },
  {
    "path_id": 2,
    "path": [
      {
        "lat": 36.224697,
        "lng": 129.252396
      },
      {
        "lat": 36.230438,
        "lng": 129.248001
      }
    ],
    "color": "#e2814d",
    "start_name": "매봉 / 상옥 / 내연산 능선 / 소나무  숲",
    "length_meter": 758.1,
    "time_minute": 12
  },
  {
    "path_id": 3,
    "path": [
      {
        "lat": 36.230438,
        "lng": 129.248001
      },
      {
        "lat": 36.231186,
        "lng": 129.247772
      }
    ],
    "color": "#9da1f3",
    "start_name": "갈림길 / 벤치쉼터",
    "length_meter": 85.9,
    "time_minute": 1
  },
  {
    "path_id": 4,
    "path": [
      {
        "lat": 36.231186,
        "lng": 129.247772
      },
      {
        "lat": 36.2384,
        "lng": 129.244614
      }
    ],
    "color": "#2a875e",
    "start_name": "굴참나무군락지",
    "length_meter": 850.7,
    "time_minute": 14
  },
  {
    "path_id": 5,
    "path": [
      {
        "lat": 36.2384,
        "lng": 129.244614
      },
      {
        "lat": 36.239418,
        "lng": 129.246033
      }
    ],
    "color": "#7c3c87",
    "start_name": "갈림길",
    "length_meter": 170.3,
    "time_minute": 2
  },
  {
    "path_id": 6,
    "path": [
      {
        "lat": 36.239418,
        "lng": 129.246033
      },
      {
        "lat": 36.238873,
        "lng": 129.249908
      }
    ],
    "color": "#ec24ff",
    "start_name": "담비  흔적",
    "length_meter": 352.8,
    "time_minute": 5
  },
  {
    "path_id": 7,
    "path": [
      {
        "lat": 36.238873,
        "lng": 129.249908
      },
      {
        "lat": 36.239231,
        "lng": 129.252914
      }
    ],
    "color": "#a59f3b",
    "start_name": "벤치쉼터",
    "length_meter": 272.5,
    "time_minute": 4
  },
  {
    "path_id": 8,
    "path": [
      {
        "lat": 36.239231,
        "lng": 129.252914
      },
      {
        "lat": 36.240623,
        "lng": 129.255325
      }
    ],
    "color": "#96a06f",
    "start_name": "갈림길 / 벤치쉼터",
    "length_meter": 266.0,
    "time_minute": 4
  },
  {
    "path_id": 9,
    "path": [
      {
        "lat": 36.240623,
        "lng": 129.255325
      },
      {
        "lat": 36.240841,
        "lng": 129.255951
      }
    ],
    "color": "#f4040b",
    "start_name": "미역줄나무  군락",
    "length_meter": 61.2,
    "time_minute": 1
  },
  {
    "path_id": 10,
    "path": [
      {
        "lat": 36.240841,
        "lng": 129.255951
      },
      {
        "lat": 36.241428,
        "lng": 129.256958
      }
    ],
    "color": "#13bd70",
    "start_name": "갈림길 / 벤치쉼터",
    "length_meter": 111.9,
    "time_minute": 1
  },
  {
    "path_id": 11,
    "path": [
      {
        "lat": 36.241428,
        "lng": 129.256958
      },
      {
        "lat": 36.245152,
        "lng": 129.256271
      }
    ],
    "color": "#29d8fe",
    "start_name": "참꽃나무 군락지",
    "length_meter": 418.6,
    "time_minute": 6
  },
  {
    "path_id": 12,
    "path": [
      {
        "lat": 36.245152,
        "lng": 129.256271
      },
      {
        "lat": 36.25489,
        "lng": 129.260071
      }
    ],
    "color": "#eb1552",
    "start_name": "정자쉼터 / 갈림길",
    "length_meter": 1136.2,
    "time_minute": 18
  },
  {
    "path_id": 13,
    "path": [
      {
        "lat": 36.25489,
        "lng": 129.260071
      },
      {
        "lat": 36.262394,
        "lng": 129.260178
      }
    ],
    "color": "#2ae09c",
    "start_name": "동해바다 조망",
    "length_meter": 834.5,
    "time_minute": 13
  },
  {
    "path_id": 14,
    "path": [
      {
        "lat": 36.262394,
        "lng": 129.260178
      },
      {
        "lat": 36.263374,
        "lng": 129.258514
      }
    ],
    "color": "#de44d6",
    "start_name": "갈림길",
    "length_meter": 184.7,
    "time_minute": 3
  },
  {
    "path_id": 15,
    "path": [
      {
        "lat": 36.263374,
        "lng": 129.258514
      },
      {
        "lat": 36.263332,
        "lng": 129.258499
      }
    ],
    "color": "#f857f6",
    "start_name": "동해바다",
    "length_meter": 4.9,
    "time_minute": 0
  }
]