[
  {
    "path_id": 0,
    "path": [
      {
        "lat": 36.250694,
        "lng": 129.318146
      },
      {
        "lat": 36.251362,
        "lng": 129.317749
      }
    ],
    "color": "#5d1985",
    "start_name": "보경사  주차장 / 보경사 입구",
    "length_meter": 130.1,
    "time_minute": 2
  },
  {
    "path_id": 1,
    "path": [
      {
        "lat": 36.251362,
        "lng": 129.317749
      },
      {
        "lat": 36.259338,
        "lng": 129.305359
      }
    ],
    "color": "#be2299",
    "start_name": "보경사 화장실 / 보경사 / 내연산 보경사 안내도 / 보경사 포토존",
    "length_meter": 1432.6,
    "time_minute": 23
  },
  {
    "path_id": 2,
    "path": [
      {
        "lat": 36.259338,
        "lng": 129.305359
      },
      {
        "lat": 36.263691,
        "lng": 129.298676
      }
    ],
    "color": "#9a368e",
    "start_name": "갓부처",
    "length_meter": 770.3,
    "time_minute": 12
  },
  {
    "path_id": 3,
    "path": [
      {
        "lat": 36.263691,
        "lng": 129.298676
      },
      {
        "lat": 36.264668,
        "lng": 129.298706
      }
    ],
    "color": "#222526",
    "start_name": "갈림길",
    "length_meter": 108.7,
    "time_minute": 1
  },
  {
    "path_id": 4,
    "path": [
      {
        "lat": 36.264668,
        "lng": 129.298706
      },
      {
        "lat": 36.265308,
        "lng": 129.299362
      }
    ],
    "color": "#2a1671",
    "start_name": "굴참나무군락지",
    "length_meter": 92.3,
    "time_minute": 1
  },
  {
    "path_id": 5,
    "path": [
      {
        "lat": 36.265308,
        "lng": 129.299362
      },
      {
        "lat": 36.269569,
        "lng": 129.302521
      }
    ],
    "color": "#348ab3",
    "start_name": "집터",
    "length_meter": 552.0,
    "time_minute": 9
  },
  {
    "path_id": 6,
    "path": [
      {
        "lat": 36.269569,
        "lng": 129.302521
      },
      {
        "lat": 36.270432,
        "lng": 129.299789
      }
    ],
    "color": "#1d647e",
    "start_name": "갈림길",
    "length_meter": 263.1,
    "time_minute": 4
  },
  {
    "path_id": 7,
    "path": [
      {
        "lat": 36.270432,
        "lng": 129.299789
      },
      {
        "lat": 36.271358,
        "lng": 129.294434
      }
    ],
    "color": "#322458",
    "start_name": "굴참나무군락지",
    "length_meter": 491.0,
    "time_minute": 8
  },
  {
    "path_id": 8,
    "path": [
      {
        "lat": 36.271358,
        "lng": 129.294434
      },
      {
        "lat": 36.265305,
        "lng": 129.293701
      }
    ],
    "color": "#090144",
    "start_name": "서어나무군락지",
    "length_meter": 676.3,
    "time_minute": 11
  },
  {
    "path_id": 9,
    "path": [
      {
        "lat": 36.265305,
        "lng": 129.293701
      },
      {
        "lat": 36.264599,
        "lng": 129.29332
      }
    ],
    "color": "#9c9dc7",
    "start_name": "동해바다 조망권",
    "length_meter": 85.6,
    "time_minute": 1
  },
  {
    "path_id": 10,
    "path": [
      {
        "lat": 36.264599,
        "lng": 129.29332
      },
      {
        "lat": 36.264847,
        "lng": 129.294617
      }
    ],
    "color": "#74203a",
    "start_name": "우척봉과 능선  조망권",
    "length_meter": 119.5,
    "time_minute": 1
  },
  {
    "path_id": 11,
    "path": [
      {
        "lat": 36.264847,
        "lng": 129.294617
      },
      {
        "lat": 36.264626,
        "lng": 129.295151
      }
    ],
    "color": "#b0a695",
    "start_name": "앞쪽 우척봉 / 바위 넓은 장소 / 넓은 평지",
    "length_meter": 56.7,
    "time_minute": 0
  },
  {
    "path_id": 12,
    "path": [
      {
        "lat": 36.264626,
        "lng": 129.295151
      },
      {
        "lat": 36.263214,
        "lng": 129.297745
      }
    ],
    "color": "#ba9c89",
    "start_name": "청하골",
    "length_meter": 280.6,
    "time_minute": 4
  },
  {
    "path_id": 13,
    "path": [
      {
        "lat": 36.263214,
        "lng": 129.297745
      },
      {
        "lat": 36.259289,
        "lng": 129.301514
      }
    ],
    "color": "#911881",
    "start_name": "갈림길",
    "length_meter": 552.0,
    "time_minute": 9
  },
  {
    "path_id": 14,
    "path": [
      {
        "lat": 36.259289,
        "lng": 129.301514
      },
      {
        "lat": 36.260647,
        "lng": 129.301483
      }
    ],
    "color": "#48050b",
    "start_name": "선일대",
    "length_meter": 151.0,
    "time_minute": 2
  },
  {
    "path_id": 15,
    "path": [
      {
        "lat": 36.260647,
        "lng": 129.301483
      },
      {
        "lat": 36.250347,
        "lng": 129.318848
      }
    ],
    "color": "#8d8692",
    "start_name": "연산구름다리",
    "length_meter": 1932.9,
    "time_minute": 32
  },
  {
    "path_id": 16,
    "path": [
      {
        "lat": 36.250347,
        "lng": 129.318848
      },
      {
        "lat": 36.250484,
        "lng": 129.318771
      }
    ],
    "color": "#7a5597",
    "start_name": "신라식당 / GS25",
    "length_meter": 21.3,
    "time_minute": 0
  }
]