{
  "max_ele": 668.341,
  "total_length_km": "7.0km",
  "total_time": "1시간 27분",
  "track": [
    {
      "path_id": 0,
      "path": [
        {
          "lat": 36.245705,
          "lng": 129.319473
        },
        {
          "lat": 36.24913,
          "lng": 129.31987
        }
      ],
      "color": "#5d145c",
      "start_name": "보경사군립공원안내소",
      "length_meter": 382.5,
      "time_minute": 4
    },
    {
      "path_id": 1,
      "path": [
        {
          "lat": 36.24913,
          "lng": 129.31987
        },
        {
          "lat": 36.249794,
          "lng": 129.319366
        }
      ],
      "color": "#bdc3b1",
      "start_name": "포항시관광안내소",
      "length_meter": 86.6,
      "time_minute": 1
    },
    {
      "path_id": 2,
      "path": [
        {
          "lat": 36.249794,
          "lng": 129.319366
        },
        {
          "lat": 36.249855,
          "lng": 129.319305
        }
      ],
      "color": "#bd684f",
      "start_name": "gs25",
      "length_meter": 8.7,
      "time_minute": 0
    },
    {
      "path_id": 3,
      "path": [
        {
          "lat": 36.249855,
          "lng": 129.319305
        },
        {
          "lat": 36.252819,
          "lng": 129.316803
        }
      ],
      "color": "#33b72e",
      "start_name": "연산온천",
      "length_meter": 398.7,
      "time_minute": 4
    },
    {
      "path_id": 4,
      "path": [
        {
          "lat": 36.252819,
          "lng": 129.316803
        },
        {
          "lat": 36.256721,
          "lng": 129.310074
        }
      ],
      "color": "#4f7f3a",
      "start_name": "갈림길",
      "length_meter": 743.2,
      "time_minute": 9
    },
    {
      "path_id": 5,
      "path": [
        {
          "lat": 36.256721,
          "lng": 129.310074
        },
        {
          "lat": 36.259506,
          "lng": 129.310196
        }
      ],
      "color": "#6ac7c4",
      "start_name": "쌍폭포  조망",
      "length_meter": 309.9,
      "time_minute": 3
    },
    {
      "path_id": 6,
      "path": [
        {
          "lat": 36.259506,
          "lng": 129.310196
        },
        {
          "lat": 36.260582,
          "lng": 129.310913
        }
      ],
      "color": "#08670a",
      "start_name": "갈림길",
      "length_meter": 135.8,
      "time_minute": 1
    },
    {
      "path_id": 7,
      "path": [
        {
          "lat": 36.260582,
          "lng": 129.310913
        },
        {
          "lat": 36.261772,
          "lng": 129.310883
        }
      ],
      "color": "#b3158b",
      "start_name": "굴참나무군락지 / 왕소나무",
      "length_meter": 132.5,
      "time_minute": 2
    },
    {
      "path_id": 8,
      "path": [
        {
          "lat": 36.261772,
          "lng": 129.310883
        },
        {
          "lat": 36.263901,
          "lng": 129.312134
        }
      ],
      "color": "#5a21c7",
      "start_name": "능선 쉼터",
      "length_meter": 262.0,
      "time_minute": 3
    },
    {
      "path_id": 9,
      "path": [
        {
          "lat": 36.263901,
          "lng": 129.312134
        },
        {
          "lat": 36.267765,
          "lng": 129.308151
        }
      ],
      "color": "#2cac3a",
      "start_name": "소나무군락지",
      "length_meter": 558.7,
      "time_minute": 6
    },
    {
      "path_id": 10,
      "path": [
        {
          "lat": 36.267765,
          "lng": 129.308151
        },
        {
          "lat": 36.278442,
          "lng": 129.292389
        }
      ],
      "color": "#c5596e",
      "start_name": "문수봉",
      "length_meter": 1845.6,
      "time_minute": 23
    },
    {
      "path_id": 11,
      "path": [
        {
          "lat": 36.278442,
          "lng": 129.292389
        },
        {
          "lat": 36.266777,
          "lng": 129.308899
        }
      ],
      "color": "#3d448a",
      "start_name": "갈림길",
      "length_meter": 1968.0,
      "time_minute": 24
    },
    {
      "path_id": 12,
      "path": [
        {
          "lat": 36.266777,
          "lng": 129.308899
        },
        {
          "lat": 36.26638,
          "lng": 129.31073
        }
      ],
      "color": "#2b4633",
      "start_name": "식수대",
      "length_meter": 170.0,
      "time_minute": 2
    }
  ]
}