[
    {
        "name": "팔영산  등산안내도",
        "lat": 34.639889,
        "lon": 127.450142
    },
    {
        "name": "팔영산  곡강",
        "lat": 34.639938,
        "lon": 127.45015
    },
    {
        "name": "팔영산  곡강 주차장",
        "lat": 34.639797,
        "lon": 127.450104
    },
    {
        "name": "팔영산 선녀봉경유입구",
        "lat": 34.639141,
        "lon": 127.450813
    },
    {
        "name": "탐방로 안내도",
        "lat": 34.63715,
        "lon": 127.448883
    },
    {
        "name": "갈림길",
        "lat": 34.635769,
        "lon": 127.448761
    },
    {
        "name": "갈림길",
        "lat": 34.633953,
        "lon": 127.448341
    },
    {
        "name": "갈림길",
        "lat": 34.633446,
        "lon": 127.447983
    },
    {
        "name": "낙석주위",
        "lat": 34.633404,
        "lon": 127.447975
    },
    {
        "name": "목구조목",
        "lat": 34.631508,
        "lon": 127.44693
    },
    {
        "name": "갈림길",
        "lat": 34.63229,
        "lon": 127.444717
    },
    {
        "name": "선녀1봉",
        "lat": 34.632393,
        "lon": 127.443962
    },
    {
        "name": "추락위험",
        "lat": 34.630947,
        "lon": 127.442612
    },
    {
        "name": "선녀봉 2봉 쥥터",
        "lat": 34.630619,
        "lon": 127.441353
    },
    {
        "name": "팔영산 선녀봉",
        "lat": 34.629562,
        "lon": 127.439445
    },
    {
        "name": "선녀봉에서 성주봉쪽으로",
        "lat": 34.629398,
        "lon": 127.439415
    },
    {
        "name": "갈림길",
        "lat": 34.629097,
        "lon": 127.439224
    },
    {
        "name": "목구조목",
        "lat": 34.62912,
        "lon": 127.439217
    },
    {
        "name": "목구조목",
        "lat": 34.627274,
        "lon": 127.433815
    },
    {
        "name": "목구조목",
        "lat": 34.62719,
        "lon": 127.433189
    },
    {
        "name": "갈림길",
        "lat": 34.627182,
        "lon": 127.433182
    },
    {
        "name": "칠봉과팔봉사이",
        "lat": 34.620781,
        "lon": 127.43103
    },
    {
        "name": "팔영산 8봉",
        "lat": 34.619579,
        "lon": 127.43177
    },
    {
        "name": "갈림길",
        "lat": 34.619095,
        "lon": 127.43177
    },
    {
        "name": "목구조목",
        "lat": 34.619087,
        "lon": 127.43177
    },
    {
        "name": "갈림길",
        "lat": 34.623272,
        "lon": 127.426369
    },
    {
        "name": "팔영산 캠핑장  주차장",
        "lat": 34.636951,
        "lon": 127.417015
    },
    {
        "name": "팔영산 탐방센터 주차장",
        "lat": 34.641624,
        "lon": 127.413948
    },
    {
        "name": "팔영산  탐방센터",
        "lat": 34.641628,
        "lon": 127.414063
    },
    {
        "name": "고흥군 내버스 증강장",
        "lat": 34.641624,
        "lon": 127.414215
    }
]