{
    "max_ele": 1027.406,
    "track": [
        {
            "path_id": 1,
            "name": "헐티재 주차장",
            "lat": 35.729458,
            "lon": 128.561035,
            "ele": 555.518
        },
        {
            "path_id": 2,
            "name": "헐티재",
            "lat": 35.729465,
            "lon": 128.561005,
            "ele": 555.548
        },
        {
            "path_id": 3,
            "name": "청도  문화재 정보",
            "lat": 35.729362,
            "lon": 128.560791,
            "ele": 555.212
        },
        {
            "path_id": 4,
            "name": "헐티재 등산로 입구",
            "lat": 35.729282,
            "lon": 128.559998,
            "ele": 554.624
        },
        {
            "path_id": 5,
            "name": "뷰 맛집",
            "lat": 35.72731,
            "lon": 128.555389,
            "ele": 676.357
        },
        {
            "path_id": 6,
            "name": "뷰 맛집2",
            "lat": 35.723644,
            "lon": 128.548477,
            "ele": 735.697
        },
        {
            "path_id": 7,
            "name": "포토존1",
            "lat": 35.723644,
            "lon": 128.548477,
            "ele": 736.539
        },
        {
            "path_id": 8,
            "name": "용천봉",
            "lat": 35.722122,
            "lon": 128.546112,
            "ele": 780.57
        },
        {
            "path_id": 9,
            "name": "갈림길",
            "lat": 35.71767,
            "lon": 128.538422,
            "ele": 873.145
        },
        {
            "path_id": 12,
            "name": "오산 주차장",
            "lat": 35.71711,
            "lon": 128.555634,
            "ele": 457.617
        },
        {
            "path_id": 13,
            "name": "남여 화장실",
            "lat": 35.717594,
            "lon": 128.555862,
            "ele": 437.163
        },
        {
            "path_id": 14,
            "name": "비슬산 용천사",
            "lat": 35.718559,
            "lon": 128.556503,
            "ele": 421.553
        }
    ]
}