{
    "max_ele": 1203.815,
    "track": [
        {
            "path_id": 1,
            "name": "성남종점",
            "lat": 37.280529,
            "lon": 128.086029,
            "ele": 458.865
        },
        {
            "path_id": 2,
            "name": "종점주차장",
            "lat": 37.280499,
            "lon": 128.086151,
            "ele": 456.835
        },
        {
            "path_id": 3,
            "name": "상원산장식당",
            "lat": 37.280701,
            "lon": 128.085846,
            "ele": 458.658
        },
        {
            "path_id": 4,
            "name": "성남탐방지원센터",
            "lat": 37.280998,
            "lon": 128.085434,
            "ele": 462.647
        },
        {
            "path_id": 5,
            "name": "탐방지원센터 화장실",
            "lat": 37.281063,
            "lon": 128.085312,
            "ele": 468.092
        },
        {
            "path_id": 6,
            "name": "계곡물",
            "lat": 37.281307,
            "lon": 128.085052,
            "ele": 466.839
        },
        {
            "path_id": 7,
            "name": "임시주차장",
            "lat": 37.293766,
            "lon": 128.074097,
            "ele": 560.408
        },
        {
            "path_id": 8,
            "name": "바위와 작은폭포",
            "lat": 37.29417,
            "lon": 128.069656,
            "ele": 608.249
        },
        {
            "path_id": 9,
            "name": "상원사탐방로 시작점 주차장",
            "lat": 37.293961,
            "lon": 128.069061,
            "ele": 610.653
        },
        {
            "path_id": 10,
            "name": "치악산국립공원 알림마당",
            "lat": 37.294125,
            "lon": 128.069061,
            "ele": 611.949
        },
        {
            "path_id": 12,
            "name": "계곡",
            "lat": 37.294281,
            "lon": 128.067368,
            "ele": 630.297
        },
        {
            "path_id": 15,
            "name": "의자 2개",
            "lat": 37.297531,
            "lon": 128.064377,
            "ele": 700.366
        },
        {
            "path_id": 16,
            "name": "경치",
            "lat": 37.298119,
            "lon": 128.063324,
            "ele": 708.474
        },
        {
            "path_id": 18,
            "name": "상원사 샘터 폐쇄",
            "lat": 37.304718,
            "lon": 128.054428,
            "ele": 1032.611
        },
        {
            "path_id": 19,
            "name": "상원사 조망처",
            "lat": 37.305843,
            "lon": 128.054108,
            "ele": 1076.886
        },
        {
            "path_id": 20,
            "name": "자연경관",
            "lat": 37.306229,
            "lon": 128.053558,
            "ele": 1100.03
        },
        {
            "path_id": 21,
            "name": "상원사 경내 식수",
            "lat": 37.306541,
            "lon": 128.053665,
            "ele": 1107.287
        },
        {
            "path_id": 22,
            "name": "상원사 석탑 및 광배",
            "lat": 37.306442,
            "lon": 128.054047,
            "ele": 1108.856
        },
        {
            "path_id": 24,
            "name": "까치전설의 종",
            "lat": 37.306538,
            "lon": 128.054108,
            "ele": 1111.431
        },
        {
            "path_id": 25,
            "name": "상원사",
            "lat": 37.306656,
            "lon": 128.053879,
            "ele": 0.0
        },
        {
            "path_id": 26,
            "name": "관광자원",
            "lat": 37.306637,
            "lon": 128.053223,
            "ele": 1126.681
        },
        {
            "path_id": 27,
            "name": "상으ㅓㄴ사내",
            "lat": 37.306286,
            "lon": 128.053452,
            "ele": 1112.123
        },
        {
            "path_id": 28,
            "name": "상원사 경내",
            "lat": 37.3064,
            "lon": 128.053711,
            "ele": 1100.522
        },
        {
            "path_id": 29,
            "name": "상원사 바깥 화장실",
            "lat": 37.305965,
            "lon": 128.053787,
            "ele": 1098.422
        },
        {
            "path_id": 30,
            "name": "쉼터",
            "lat": 37.305496,
            "lon": 128.051498,
            "ele": 1144.066
        },
        {
            "path_id": 31,
            "name": "갈림길",
            "lat": 37.30566,
            "lon": 128.051331,
            "ele": 1138.893
        },
        {
            "path_id": 32,
            "name": "바위",
            "lat": 37.30703,
            "lon": 128.050659,
            "ele": 0.0
        },
        {
            "path_id": 33,
            "name": "초망처",
            "lat": 37.307152,
            "lon": 128.051788,
            "ele": 1197.573
        },
        {
            "path_id": 34,
            "name": "조망처",
            "lat": 37.307354,
            "lon": 128.051804,
            "ele": 1202.808
        },
        {
            "path_id": 35,
            "name": "치악산 남대봉 1,181m",
            "lat": 37.307823,
            "lon": 128.051987,
            "ele": 1203.815
        },
        {
            "path_id": 36,
            "name": "남대봉안전센터",
            "lat": 37.308208,
            "lon": 128.052139,
            "ele": 1203.252
        },
        {
            "path_id": 38,
            "name": "종주능선 전망대",
            "lat": 37.311581,
            "lon": 128.047791,
            "ele": 1172.276
        },
        {
            "path_id": 40,
            "name": "원주시내 조망처",
            "lat": 37.312691,
            "lon": 128.047302,
            "ele": 1168.339
        },
        {
            "path_id": 41,
            "name": "갈림길",
            "lat": 37.313347,
            "lon": 128.045685,
            "ele": 1148.923
        },
        {
            "path_id": 42,
            "name": "쉼터",
            "lat": 37.327667,
            "lon": 128.035751,
            "ele": 1002.943
        },
        {
            "path_id": 43,
            "name": "의자",
            "lat": 37.330711,
            "lon": 128.034546,
            "ele": 1060.049
        },
        {
            "path_id": 44,
            "name": "향로봉 삼각점",
            "lat": 37.330978,
            "lon": 128.034363,
            "ele": 1065.045
        },
        {
            "path_id": 45,
            "name": "향로봉안전센터",
            "lat": 37.330986,
            "lon": 128.034134,
            "ele": 1059.347
        },
        {
            "path_id": 46,
            "name": "향로봉 1,043",
            "lat": 37.331032,
            "lon": 128.033875,
            "ele": 1063.301
        },
        {
            "path_id": 47,
            "name": "향로봉전망대",
            "lat": 37.331089,
            "lon": 128.033813,
            "ele": 1064.949
        },
        {
            "path_id": 48,
            "name": "갈림길",
            "lat": 37.332954,
            "lon": 128.033066,
            "ele": 1040.992
        },
        {
            "path_id": 49,
            "name": "보문사",
            "lat": 37.333797,
            "lon": 128.026535,
            "ele": 0.0
        },
        {
            "path_id": 51,
            "name": "자연경관",
            "lat": 37.333214,
            "lon": 128.026672,
            "ele": 674.039
        },
        {
            "path_id": 52,
            "name": "행구동탐방지원센타",
            "lat": 37.333252,
            "lon": 128.01442,
            "ele": 439.59
        }
    ]
}