[
  {
    "path_id": 0,
    "path": [
      {
        "lat": 35.303749,
        "lng": 127.749046
      },
      {
        "lat": 35.306065,
        "lng": 127.748276
      }
    ],
    "color": "#2c3292",
    "start_name": "지리산 / 화장실 / 중산리 탐방센타",
    "length_meter": 301.9,
    "time_minute": 5
  },
  {
    "path_id": 1,
    "path": [
      {
        "lat": 35.306065,
        "lng": 127.748276
      },
      {
        "lat": 35.31321,
        "lng": 127.741898
      }
    ],
    "color": "#62bb82",
    "start_name": "갈림길",
    "length_meter": 982.9,
    "time_minute": 16
  },
  {
    "path_id": 2,
    "path": [
      {
        "lat": 35.31321,
        "lng": 127.741898
      },
      {
        "lat": 35.314259,
        "lng": 127.741272
      }
    ],
    "color": "#bf0924",
    "start_name": "칼바위",
    "length_meter": 129.7,
    "time_minute": 2
  },
  {
    "path_id": 3,
    "path": [
      {
        "lat": 35.314259,
        "lng": 127.741272
      },
      {
        "lat": 35.314873,
        "lng": 127.740982
      }
    ],
    "color": "#87d986",
    "start_name": "갈림길",
    "length_meter": 73.2,
    "time_minute": 1
  },
  {
    "path_id": 4,
    "path": [
      {
        "lat": 35.314873,
        "lng": 127.740982
      },
      {
        "lat": 35.315472,
        "lng": 127.74057
      }
    ],
    "color": "#f8bde1",
    "start_name": "돌계단",
    "length_meter": 76.4,
    "time_minute": 1
  },
  {
    "path_id": 5,
    "path": [
      {
        "lat": 35.315472,
        "lng": 127.74057
      },
      {
        "lat": 35.319378,
        "lng": 127.740242
      }
    ],
    "color": "#7179d3",
    "start_name": "데크계단 / 거리목",
    "length_meter": 436.1,
    "time_minute": 7
  },
  {
    "path_id": 6,
    "path": [
      {
        "lat": 35.319378,
        "lng": 127.740242
      },
      {
        "lat": 35.319874,
        "lng": 127.739464
      }
    ],
    "color": "#616921",
    "start_name": "데크계단",
    "length_meter": 89.6,
    "time_minute": 1
  },
  {
    "path_id": 7,
    "path": [
      {
        "lat": 35.319874,
        "lng": 127.739464
      },
      {
        "lat": 35.327251,
        "lng": 127.737343
      }
    ],
    "color": "#7c4159",
    "start_name": "망바위",
    "length_meter": 842.6,
    "time_minute": 14
  },
  {
    "path_id": 8,
    "path": [
      {
        "lat": 35.327251,
        "lng": 127.737343
      },
      {
        "lat": 35.327175,
        "lng": 127.736801
      }
    ],
    "color": "#9ba21b",
    "start_name": "대피소 / 화장실 / 갈림길",
    "length_meter": 72.3,
    "time_minute": 1
  },
  {
    "path_id": 9,
    "path": [
      {
        "lat": 35.327175,
        "lng": 127.736801
      },
      {
        "lat": 35.326935,
        "lng": 127.736084
      }
    ],
    "color": "#7ad032",
    "start_name": "법계사 / 갈림길",
    "length_meter": 74.5,
    "time_minute": 1
  },
  {
    "path_id": 10,
    "path": [
      {
        "lat": 35.326935,
        "lng": 127.736084
      },
      {
        "lat": 35.333046,
        "lng": 127.732742
      }
    ],
    "color": "#e5bc59",
    "start_name": "조망터",
    "length_meter": 744.1,
    "time_minute": 12
  },
  {
    "path_id": 11,
    "path": [
      {
        "lat": 35.333046,
        "lng": 127.732742
      },
      {
        "lat": 35.336449,
        "lng": 127.727867
      }
    ],
    "color": "#42f8d7",
    "start_name": "개선문 / 위치목",
    "length_meter": 589.0,
    "time_minute": 9
  },
  {
    "path_id": 12,
    "path": [
      {
        "lat": 35.336449,
        "lng": 127.727867
      },
      {
        "lat": 35.335403,
        "lng": 127.723686
      }
    ],
    "color": "#984391",
    "start_name": "자연경관 / 갈림길 / 통천문",
    "length_meter": 396.8,
    "time_minute": 6
  },
  {
    "path_id": 13,
    "path": [
      {
        "lat": 35.335403,
        "lng": 127.723686
      },
      {
        "lat": 35.334869,
        "lng": 127.721046
      }
    ],
    "color": "#543b45",
    "start_name": "조망터",
    "length_meter": 246.7,
    "time_minute": 4
  },
  {
    "path_id": 14,
    "path": [
      {
        "lat": 35.334869,
        "lng": 127.721046
      },
      {
        "lat": 35.332512,
        "lng": 127.716469
      }
    ],
    "color": "#372b61",
    "start_name": "제석봉 / 조망터",
    "length_meter": 492.9,
    "time_minute": 8
  },
  {
    "path_id": 15,
    "path": [
      {
        "lat": 35.332512,
        "lng": 127.716469
      },
      {
        "lat": 35.328861,
        "lng": 127.71299
      }
    ],
    "color": "#ee12e3",
    "start_name": "갈림길 / 장터목 / 화장실",
    "length_meter": 515.0,
    "time_minute": 8
  },
  {
    "path_id": 16,
    "path": [
      {
        "lat": 35.328861,
        "lng": 127.71299
      },
      {
        "lat": 35.328045,
        "lng": 127.710526
      }
    ],
    "color": "#b433fd",
    "start_name": "거리목",
    "length_meter": 241.2,
    "time_minute": 4
  },
  {
    "path_id": 17,
    "path": [
      {
        "lat": 35.328045,
        "lng": 127.710526
      },
      {
        "lat": 35.317829,
        "lng": 127.70266
      }
    ],
    "color": "#4eadc1",
    "start_name": "연하봉",
    "length_meter": 1341.5,
    "time_minute": 22
  },
  {
    "path_id": 18,
    "path": [
      {
        "lat": 35.317829,
        "lng": 127.70266
      },
      {
        "lat": 35.316044,
        "lng": 127.700233
      }
    ],
    "color": "#c05005",
    "start_name": "119 긴급구조 넘버01-44",
    "length_meter": 296.5,
    "time_minute": 4
  },
  {
    "path_id": 19,
    "path": [
      {
        "lat": 35.316044,
        "lng": 127.700233
      },
      {
        "lat": 35.309189,
        "lng": 127.692131
      }
    ],
    "color": "#6749e0",
    "start_name": "촛대봉 / 갈림길",
    "length_meter": 1073.8,
    "time_minute": 17
  },
  {
    "path_id": 20,
    "path": [
      {
        "lat": 35.309189,
        "lng": 127.692131
      },
      {
        "lat": 35.285034,
        "lng": 127.718338
      }
    ],
    "color": "#6fe01b",
    "start_name": "데크길",
    "length_meter": 3587.6,
    "time_minute": 59
  }
]