[
  {
    "path_id": 0,
    "path": [
      {
        "lat": 35.336895,
        "lng": 127.730614
      },
      {
        "lat": 35.341099,
        "lng": 127.732666
      }
    ],
    "color": "#cac5d3",
    "start_name": "천왕봉정상 / 갈림길",
    "length_meter": 503.2,
    "time_minute": 8
  },
  {
    "path_id": 1,
    "path": [
      {
        "lat": 35.341099,
        "lng": 127.732666
      },
      {
        "lat": 35.342342,
        "lng": 127.73365
      }
    ],
    "color": "#398ab9",
    "start_name": "현위치",
    "length_meter": 164.5,
    "time_minute": 2
  },
  {
    "path_id": 2,
    "path": [
      {
        "lat": 35.342342,
        "lng": 127.73365
      },
      {
        "lat": 35.342888,
        "lng": 127.733688
      }
    ],
    "color": "#20d902",
    "start_name": "중봉",
    "length_meter": 60.8,
    "time_minute": 1
  },
  {
    "path_id": 3,
    "path": [
      {
        "lat": 35.342888,
        "lng": 127.733688
      },
      {
        "lat": 35.343117,
        "lng": 127.734795
      }
    ],
    "color": "#31f83c",
    "start_name": "구상나무",
    "length_meter": 103.6,
    "time_minute": 1
  },
  {
    "path_id": 4,
    "path": [
      {
        "lat": 35.343117,
        "lng": 127.734795
      },
      {
        "lat": 35.343151,
        "lng": 127.737053
      }
    ],
    "color": "#f30d2f",
    "start_name": "급경사  너덜길",
    "length_meter": 204.8,
    "time_minute": 3
  },
  {
    "path_id": 5,
    "path": [
      {
        "lat": 35.343151,
        "lng": 127.737053
      },
      {
        "lat": 35.343422,
        "lng": 127.741028
      }
    ],
    "color": "#88ba6a",
    "start_name": "중봉안전쉼터 / 국가지점",
    "length_meter": 363.6,
    "time_minute": 6
  },
  {
    "path_id": 6,
    "path": [
      {
        "lat": 35.343422,
        "lng": 127.741028
      },
      {
        "lat": 35.343044,
        "lng": 127.742966
      }
    ],
    "color": "#55274a",
    "start_name": "국가지점",
    "length_meter": 180.7,
    "time_minute": 3
  },
  {
    "path_id": 7,
    "path": [
      {
        "lat": 35.343044,
        "lng": 127.742966
      },
      {
        "lat": 35.341686,
        "lng": 127.745583
      }
    ],
    "color": "#407730",
    "start_name": "써리봉",
    "length_meter": 281.3,
    "time_minute": 4
  },
  {
    "path_id": 8,
    "path": [
      {
        "lat": 35.341686,
        "lng": 127.745583
      },
      {
        "lat": 35.342186,
        "lng": 127.748817
      }
    ],
    "color": "#35e803",
    "start_name": "국가지점",
    "length_meter": 298.6,
    "time_minute": 4
  },
  {
    "path_id": 9,
    "path": [
      {
        "lat": 35.342186,
        "lng": 127.748817
      },
      {
        "lat": 35.345264,
        "lng": 127.750389
      }
    ],
    "color": "#88bb25",
    "start_name": "국가지점",
    "length_meter": 370.8,
    "time_minute": 6
  },
  {
    "path_id": 10,
    "path": [
      {
        "lat": 35.345264,
        "lng": 127.750389
      },
      {
        "lat": 35.347092,
        "lng": 127.750473
      }
    ],
    "color": "#cf7551",
    "start_name": "국가지점",
    "length_meter": 203.4,
    "time_minute": 3
  },
  {
    "path_id": 11,
    "path": [
      {
        "lat": 35.347092,
        "lng": 127.750473
      },
      {
        "lat": 35.347988,
        "lng": 127.749741
      }
    ],
    "color": "#bca4eb",
    "start_name": "국가지점",
    "length_meter": 119.7,
    "time_minute": 1
  },
  {
    "path_id": 12,
    "path": [
      {
        "lat": 35.347988,
        "lng": 127.749741
      },
      {
        "lat": 35.348537,
        "lng": 127.750633
      }
    ],
    "color": "#478231",
    "start_name": "치밭목샘",
    "length_meter": 101.3,
    "time_minute": 1
  },
  {
    "path_id": 13,
    "path": [
      {
        "lat": 35.348537,
        "lng": 127.750633
      },
      {
        "lat": 35.34832,
        "lng": 127.753067
      }
    ],
    "color": "#febbd6",
    "start_name": "치밭목대피소 / 갈림길",
    "length_meter": 227.6,
    "time_minute": 3
  },
  {
    "path_id": 14,
    "path": [
      {
        "lat": 35.34832,
        "lng": 127.753067
      },
      {
        "lat": 35.347435,
        "lng": 127.755714
      }
    ],
    "color": "#602846",
    "start_name": "국가지점 / 국가지점",
    "length_meter": 259.5,
    "time_minute": 4
  },
  {
    "path_id": 15,
    "path": [
      {
        "lat": 35.347435,
        "lng": 127.755714
      },
      {
        "lat": 35.346802,
        "lng": 127.760361
      }
    ],
    "color": "#346542",
    "start_name": "국가지점",
    "length_meter": 427.3,
    "time_minute": 7
  },
  {
    "path_id": 16,
    "path": [
      {
        "lat": 35.346802,
        "lng": 127.760361
      },
      {
        "lat": 35.349373,
        "lng": 127.763718
      }
    ],
    "color": "#9738f2",
    "start_name": "국가지점",
    "length_meter": 417.6,
    "time_minute": 6
  },
  {
    "path_id": 17,
    "path": [
      {
        "lat": 35.349373,
        "lng": 127.763718
      },
      {
        "lat": 35.350166,
        "lng": 127.763786
      }
    ],
    "color": "#05949b",
    "start_name": "국가지점",
    "length_meter": 88.4,
    "time_minute": 1
  },
  {
    "path_id": 18,
    "path": [
      {
        "lat": 35.350166,
        "lng": 127.763786
      },
      {
        "lat": 35.351639,
        "lng": 127.767731
      }
    ],
    "color": "#9b70e6",
    "start_name": "갈림길 / 새재갈림길쉼터",
    "length_meter": 393.5,
    "time_minute": 6
  },
  {
    "path_id": 19,
    "path": [
      {
        "lat": 35.351639,
        "lng": 127.767731
      },
      {
        "lat": 35.352783,
        "lng": 127.771744
      }
    ],
    "color": "#5f15c3",
    "start_name": "국가지점",
    "length_meter": 385.5,
    "time_minute": 6
  },
  {
    "path_id": 20,
    "path": [
      {
        "lat": 35.352783,
        "lng": 127.771744
      },
      {
        "lat": 35.351845,
        "lng": 127.775986
      }
    ],
    "color": "#2c51dc",
    "start_name": "국가지점",
    "length_meter": 398.6,
    "time_minute": 6
  },
  {
    "path_id": 21,
    "path": [
      {
        "lat": 35.351845,
        "lng": 127.775986
      },
      {
        "lat": 35.352112,
        "lng": 127.779236
      }
    ],
    "color": "#408084",
    "start_name": "국가지점",
    "length_meter": 296.2,
    "time_minute": 4
  },
  {
    "path_id": 22,
    "path": [
      {
        "lat": 35.352112,
        "lng": 127.779236
      },
      {
        "lat": 35.354385,
        "lng": 127.78112
      }
    ],
    "color": "#9ae57d",
    "start_name": "국가지점",
    "length_meter": 305.1,
    "time_minute": 5
  },
  {
    "path_id": 23,
    "path": [
      {
        "lat": 35.354385,
        "lng": 127.78112
      },
      {
        "lat": 35.355602,
        "lng": 127.786278
      }
    ],
    "color": "#04530a",
    "start_name": "국가지점",
    "length_meter": 487.0,
    "time_minute": 8
  },
  {
    "path_id": 24,
    "path": [
      {
        "lat": 35.355602,
        "lng": 127.786278
      },
      {
        "lat": 35.357964,
        "lng": 127.790596
      }
    ],
    "color": "#083f3d",
    "start_name": "국가지점",
    "length_meter": 471.5,
    "time_minute": 7
  },
  {
    "path_id": 25,
    "path": [
      {
        "lat": 35.357964,
        "lng": 127.790596
      },
      {
        "lat": 35.360088,
        "lng": 127.793503
      }
    ],
    "color": "#622a0d",
    "start_name": "국가지점",
    "length_meter": 353.9,
    "time_minute": 5
  },
  {
    "path_id": 26,
    "path": [
      {
        "lat": 35.360088,
        "lng": 127.793503
      },
      {
        "lat": 35.36219,
        "lng": 127.794769
      }
    ],
    "color": "#55e5b4",
    "start_name": "국가지점",
    "length_meter": 260.4,
    "time_minute": 4
  },
  {
    "path_id": 27,
    "path": [
      {
        "lat": 35.36219,
        "lng": 127.794769
      },
      {
        "lat": 35.363037,
        "lng": 127.796135
      }
    ],
    "color": "#1d872c",
    "start_name": "대원사쪽  등산로  들날머리 / 갈림길",
    "length_meter": 182.4,
    "time_minute": 3
  },
  {
    "path_id": 28,
    "path": [
      {
        "lat": 35.363037,
        "lng": 127.796135
      },
      {
        "lat": 35.361938,
        "lng": 127.798164
      }
    ],
    "color": "#7a278b",
    "start_name": "갈림길",
    "length_meter": 220.9,
    "time_minute": 3
  },
  {
    "path_id": 29,
    "path": [
      {
        "lat": 35.361938,
        "lng": 127.798164
      },
      {
        "lat": 35.356384,
        "lng": 127.807556
      }
    ],
    "color": "#26c344",
    "start_name": "긴장과  민박",
    "length_meter": 1052.0,
    "time_minute": 17
  },
  {
    "path_id": 30,
    "path": [
      {
        "lat": 35.356384,
        "lng": 127.807556
      },
      {
        "lat": 35.355743,
        "lng": 127.807541
      }
    ],
    "color": "#0a9743",
    "start_name": "대원사화장실",
    "length_meter": 71.3,
    "time_minute": 1
  },
  {
    "path_id": 31,
    "path": [
      {
        "lat": 35.355743,
        "lng": 127.807541
      },
      {
        "lat": 35.355915,
        "lng": 127.810127
      }
    ],
    "color": "#a20d6a",
    "start_name": "대원사",
    "length_meter": 235.3,
    "time_minute": 3
  },
  {
    "path_id": 32,
    "path": [
      {
        "lat": 35.355915,
        "lng": 127.810127
      },
      {
        "lat": 35.357113,
        "lng": 127.812904
      }
    ],
    "color": "#15f1f2",
    "start_name": "대원사일주문 / 대원사계곡길전망대",
    "length_meter": 297.9,
    "time_minute": 4
  },
  {
    "path_id": 33,
    "path": [
      {
        "lat": 35.357113,
        "lng": 127.812904
      },
      {
        "lat": 35.355156,
        "lng": 127.812218
      }
    ],
    "color": "#9232a9",
    "start_name": "맹세아골화장실 / 맹세사골주차장",
    "length_meter": 248.3,
    "time_minute": 4
  },
  {
    "path_id": 34,
    "path": [
      {
        "lat": 35.355156,
        "lng": 127.812218
      },
      {
        "lat": 35.35334,
        "lng": 127.811684
      }
    ],
    "color": "#10d857",
    "start_name": "갈림길 / 대원사계곡  포토존",
    "length_meter": 218.2,
    "time_minute": 3
  },
  {
    "path_id": 35,
    "path": [
      {
        "lat": 35.35334,
        "lng": 127.811684
      },
      {
        "lat": 35.352489,
        "lng": 127.811996
      }
    ],
    "color": "#55ea3d",
    "start_name": "쉼터",
    "length_meter": 98.8,
    "time_minute": 1
  },
  {
    "path_id": 36,
    "path": [
      {
        "lat": 35.352489,
        "lng": 127.811996
      },
      {
        "lat": 35.351147,
        "lng": 127.81337
      }
    ],
    "color": "#877cfe",
    "start_name": "쉼터",
    "length_meter": 194.4,
    "time_minute": 3
  },
  {
    "path_id": 37,
    "path": [
      {
        "lat": 35.351147,
        "lng": 127.81337
      },
      {
        "lat": 35.352154,
        "lng": 127.815216
      }
    ],
    "color": "#c4ab48",
    "start_name": "화장실 / 쉼터",
    "length_meter": 208.4,
    "time_minute": 3
  },
  {
    "path_id": 38,
    "path": [
      {
        "lat": 35.352154,
        "lng": 127.815216
      },
      {
        "lat": 35.350739,
        "lng": 127.816521
      }
    ],
    "color": "#47a6d8",
    "start_name": "쉼터",
    "length_meter": 196.9,
    "time_minute": 3
  },
  {
    "path_id": 39,
    "path": [
      {
        "lat": 35.350739,
        "lng": 127.816521
      },
      {
        "lat": 35.350346,
        "lng": 127.816711
      }
    ],
    "color": "#9bec6b",
    "start_name": "갈림길 / 대원사계곡길  탐방지원센터",
    "length_meter": 61.5,
    "time_minute": 1
  },
  {
    "path_id": 40,
    "path": [
      {
        "lat": 35.350346,
        "lng": 127.816711
      },
      {
        "lat": 35.349865,
        "lng": 127.816811
      }
    ],
    "color": "#e88d4d",
    "start_name": "갈림길 / 갈림길",
    "length_meter": 63.3,
    "time_minute": 1
  },
  {
    "path_id": 41,
    "path": [
      {
        "lat": 35.349865,
        "lng": 127.816811
      },
      {
        "lat": 35.349884,
        "lng": 127.816742
      }
    ],
    "color": "#5efcf0",
    "start_name": "대원사  시외버스 승차장",
    "length_meter": 6.6,
    "time_minute": 0
  }
]