[
  {
    "path_id": 0,
    "path": [
      {
        "lat": 35.336895,
        "lng": 127.730614
      },
      {
        "lat": 35.341099,
        "lng": 127.732666
      }
    ],
    "color": "#801330",
    "start_name": "천왕봉정상 / 갈림길",
    "length_meter": 503.2,
    "time_minute": 8
  },
  {
    "path_id": 1,
    "path": [
      {
        "lat": 35.341099,
        "lng": 127.732666
      },
      {
        "lat": 35.342342,
        "lng": 127.73365
      }
    ],
    "color": "#658caf",
    "start_name": "현위치",
    "length_meter": 164.5,
    "time_minute": 2
  },
  {
    "path_id": 2,
    "path": [
      {
        "lat": 35.342342,
        "lng": 127.73365
      },
      {
        "lat": 35.342888,
        "lng": 127.733688
      }
    ],
    "color": "#b9a10e",
    "start_name": "중봉",
    "length_meter": 60.8,
    "time_minute": 1
  },
  {
    "path_id": 3,
    "path": [
      {
        "lat": 35.342888,
        "lng": 127.733688
      },
      {
        "lat": 35.343117,
        "lng": 127.734795
      }
    ],
    "color": "#002780",
    "start_name": "구상나무",
    "length_meter": 103.6,
    "time_minute": 1
  },
  {
    "path_id": 4,
    "path": [
      {
        "lat": 35.343117,
        "lng": 127.734795
      },
      {
        "lat": 35.343151,
        "lng": 127.737053
      }
    ],
    "color": "#568376",
    "start_name": "급경사  너덜길",
    "length_meter": 204.8,
    "time_minute": 3
  },
  {
    "path_id": 5,
    "path": [
      {
        "lat": 35.343151,
        "lng": 127.737053
      },
      {
        "lat": 35.343044,
        "lng": 127.742966
      }
    ],
    "color": "#b57d2f",
    "start_name": "중봉안전쉼터 / 국가지점",
    "length_meter": 538.8,
    "time_minute": 8
  },
  {
    "path_id": 6,
    "path": [
      {
        "lat": 35.343044,
        "lng": 127.742966
      },
      {
        "lat": 35.341686,
        "lng": 127.745583
      }
    ],
    "color": "#abb087",
    "start_name": "써리봉",
    "length_meter": 281.3,
    "time_minute": 4
  },
  {
    "path_id": 7,
    "path": [
      {
        "lat": 35.341686,
        "lng": 127.745583
      },
      {
        "lat": 35.347988,
        "lng": 127.749741
      }
    ],
    "color": "#5e7f2c",
    "start_name": "국가지점",
    "length_meter": 795.8,
    "time_minute": 13
  },
  {
    "path_id": 8,
    "path": [
      {
        "lat": 35.347988,
        "lng": 127.749741
      },
      {
        "lat": 35.348537,
        "lng": 127.750633
      }
    ],
    "color": "#55b99a",
    "start_name": "치밭목샘",
    "length_meter": 101.3,
    "time_minute": 1
  },
  {
    "path_id": 9,
    "path": [
      {
        "lat": 35.348537,
        "lng": 127.750633
      },
      {
        "lat": 35.34832,
        "lng": 127.753067
      }
    ],
    "color": "#765112",
    "start_name": "치밭목대피소 / 갈림길",
    "length_meter": 227.6,
    "time_minute": 3
  },
  {
    "path_id": 10,
    "path": [
      {
        "lat": 35.34832,
        "lng": 127.753067
      },
      {
        "lat": 35.350166,
        "lng": 127.763786
      }
    ],
    "color": "#0f444f",
    "start_name": "국가지점",
    "length_meter": 993.6,
    "time_minute": 16
  },
  {
    "path_id": 11,
    "path": [
      {
        "lat": 35.350166,
        "lng": 127.763786
      },
      {
        "lat": 35.351639,
        "lng": 127.767731
      }
    ],
    "color": "#7a62be",
    "start_name": "갈림길",
    "length_meter": 393.5,
    "time_minute": 6
  },
  {
    "path_id": 12,
    "path": [
      {
        "lat": 35.351639,
        "lng": 127.767731
      },
      {
        "lat": 35.36219,
        "lng": 127.794769
      }
    ],
    "color": "#95bca2",
    "start_name": "국가지점",
    "length_meter": 2718.2,
    "time_minute": 45
  },
  {
    "path_id": 13,
    "path": [
      {
        "lat": 35.36219,
        "lng": 127.794769
      },
      {
        "lat": 35.361938,
        "lng": 127.798164
      }
    ],
    "color": "#a56baf",
    "start_name": "대원사쪽  등산로  들날머리 / 갈림길",
    "length_meter": 338.0,
    "time_minute": 5
  },
  {
    "path_id": 14,
    "path": [
      {
        "lat": 35.361938,
        "lng": 127.798164
      },
      {
        "lat": 35.356384,
        "lng": 127.807556
      }
    ],
    "color": "#954f04",
    "start_name": "긴장과  민박",
    "length_meter": 1052.0,
    "time_minute": 17
  },
  {
    "path_id": 15,
    "path": [
      {
        "lat": 35.356384,
        "lng": 127.807556
      },
      {
        "lat": 35.355743,
        "lng": 127.807541
      }
    ],
    "color": "#a55215",
    "start_name": "대원사화장실",
    "length_meter": 71.3,
    "time_minute": 1
  },
  {
    "path_id": 16,
    "path": [
      {
        "lat": 35.355743,
        "lng": 127.807541
      },
      {
        "lat": 35.355915,
        "lng": 127.810127
      }
    ],
    "color": "#1b7e8c",
    "start_name": "대원사",
    "length_meter": 235.3,
    "time_minute": 3
  },
  {
    "path_id": 17,
    "path": [
      {
        "lat": 35.355915,
        "lng": 127.810127
      },
      {
        "lat": 35.357113,
        "lng": 127.812904
      }
    ],
    "color": "#6b2928",
    "start_name": "대원사일주문 / 대원사계곡길전망대",
    "length_meter": 297.9,
    "time_minute": 4
  },
  {
    "path_id": 18,
    "path": [
      {
        "lat": 35.357113,
        "lng": 127.812904
      },
      {
        "lat": 35.356804,
        "lng": 127.81321
      }
    ],
    "color": "#1c1f8c",
    "start_name": "맹세아골화장실",
    "length_meter": 44.2,
    "time_minute": 0
  },
  {
    "path_id": 19,
    "path": [
      {
        "lat": 35.356804,
        "lng": 127.81321
      },
      {
        "lat": 35.355156,
        "lng": 127.812218
      }
    ],
    "color": "#b99799",
    "start_name": "맹세사골주차장",
    "length_meter": 204.1,
    "time_minute": 3
  },
  {
    "path_id": 20,
    "path": [
      {
        "lat": 35.355156,
        "lng": 127.812218
      },
      {
        "lat": 35.351147,
        "lng": 127.81337
      }
    ],
    "color": "#65a070",
    "start_name": "갈림길 / 대원사계곡  포토존",
    "length_meter": 478.6,
    "time_minute": 7
  },
  {
    "path_id": 21,
    "path": [
      {
        "lat": 35.351147,
        "lng": 127.81337
      },
      {
        "lat": 35.350739,
        "lng": 127.816521
      }
    ],
    "color": "#1c08ab",
    "start_name": "화장실",
    "length_meter": 289.4,
    "time_minute": 4
  },
  {
    "path_id": 22,
    "path": [
      {
        "lat": 35.350739,
        "lng": 127.816521
      },
      {
        "lat": 35.350433,
        "lng": 127.816437
      }
    ],
    "color": "#009d3d",
    "start_name": "갈림길",
    "length_meter": 34.9,
    "time_minute": 0
  },
  {
    "path_id": 23,
    "path": [
      {
        "lat": 35.350433,
        "lng": 127.816437
      },
      {
        "lat": 35.349865,
        "lng": 127.816811
      }
    ],
    "color": "#017f37",
    "start_name": "대원사계곡길  탐방지원센터 / 갈림길",
    "length_meter": 80.9,
    "time_minute": 1
  },
  {
    "path_id": 24,
    "path": [
      {
        "lat": 35.349865,
        "lng": 127.816811
      },
      {
        "lat": 35.349884,
        "lng": 127.816742
      }
    ],
    "color": "#809540",
    "start_name": "대원사  시외버스 승차장",
    "length_meter": 6.6,
    "time_minute": 0
  }
]