[
  {
    "path_id": 0,
    "path": [
      {
        "lat": 35.303749,
        "lng": 127.749046
      },
      {
        "lat": 35.303642,
        "lng": 127.749107
      }
    ],
    "color": "#f87b47",
    "start_point_name": "지리산",
    "length": 13,
    "time": "0"
  },
  {
    "path_id": 1,
    "path": [
      {
        "lat": 35.303642,
        "lng": 127.749107
      },
      {
        "lat": 35.303776,
        "lng": 127.749245
      }
    ],
    "color": "#10e1fd",
    "start_point_name": "화장실",
    "length": 19,
    "time": "0"
  },
  {
    "path_id": 2,
    "path": [
      {
        "lat": 35.303776,
        "lng": 127.749245
      },
      {
        "lat": 35.306065,
        "lng": 127.748276
      }
    ],
    "color": "#d2cd44",
    "start_point_name": "중산리 탐방센타",
    "length": 269,
    "time": "4"
  },
  {
    "path_id": 3,
    "path": [
      {
        "lat": 35.306065,
        "lng": 127.748276
      },
      {
        "lat": 35.31321,
        "lng": 127.741898
      }
    ],
    "color": "#c423ef",
    "start_point_name": "갈림길",
    "length": 982,
    "time": "16"
  },
  {
    "path_id": 4,
    "path": [
      {
        "lat": 35.31321,
        "lng": 127.741898
      },
      {
        "lat": 35.314259,
        "lng": 127.741272
      }
    ],
    "color": "#267a83",
    "start_point_name": "칼바위",
    "length": 129,
    "time": "2"
  },
  {
    "path_id": 5,
    "path": [
      {
        "lat": 35.314259,
        "lng": 127.741272
      },
      {
        "lat": 35.314873,
        "lng": 127.740982
      }
    ],
    "color": "#1a5274",
    "start_point_name": "갈림길",
    "length": 73,
    "time": "1"
  },
  {
    "path_id": 6,
    "path": [
      {
        "lat": 35.314873,
        "lng": 127.740982
      },
      {
        "lat": 35.315472,
        "lng": 127.74057
      }
    ],
    "color": "#3f31df",
    "start_point_name": "돌계단",
    "length": 76,
    "time": "1"
  },
  {
    "path_id": 7,
    "path": [
      {
        "lat": 35.315472,
        "lng": 127.74057
      },
      {
        "lat": 35.315834,
        "lng": 127.740456
      }
    ],
    "color": "#6b7a00",
    "start_point_name": "데크계단",
    "length": 41,
    "time": "0"
  },
  {
    "path_id": 8,
    "path": [
      {
        "lat": 35.315834,
        "lng": 127.740456
      },
      {
        "lat": 35.319378,
        "lng": 127.740242
      }
    ],
    "color": "#cfaf08",
    "start_point_name": "거리목",
    "length": 394,
    "time": "6"
  },
  {
    "path_id": 9,
    "path": [
      {
        "lat": 35.319378,
        "lng": 127.740242
      },
      {
        "lat": 35.319874,
        "lng": 127.739464
      }
    ],
    "color": "#6b3201",
    "start_point_name": "데크계단",
    "length": 89,
    "time": "1"
  },
  {
    "path_id": 10,
    "path": [
      {
        "lat": 35.319874,
        "lng": 127.739464
      },
      {
        "lat": 35.326492,
        "lng": 127.738762
      }
    ],
    "color": "#09c1f1",
    "start_point_name": "망바위",
    "length": 738,
    "time": "12"
  },
  {
    "path_id": 11,
    "path": [
      {
        "lat": 35.326492,
        "lng": 127.738762
      },
      {
        "lat": 35.327251,
        "lng": 127.737343
      }
    ],
    "color": "#fc7c8a",
    "start_point_name": "조망점",
    "length": 153,
    "time": "2"
  },
  {
    "path_id": 12,
    "path": [
      {
        "lat": 35.327251,
        "lng": 127.737343
      },
      {
        "lat": 35.327126,
        "lng": 127.737419
      }
    ],
    "color": "#95a4d0",
    "start_point_name": "대피소",
    "length": 15,
    "time": "0"
  },
  {
    "path_id": 13,
    "path": [
      {
        "lat": 35.327126,
        "lng": 127.737419
      },
      {
        "lat": 35.327145,
        "lng": 127.737381
      }
    ],
    "color": "#f10310",
    "start_point_name": "화장실",
    "length": 4,
    "time": "0"
  },
  {
    "path_id": 14,
    "path": [
      {
        "lat": 35.327145,
        "lng": 127.737381
      },
      {
        "lat": 35.327175,
        "lng": 127.736801
      }
    ],
    "color": "#e6fade",
    "start_point_name": "갈림길",
    "length": 52,
    "time": "0"
  },
  {
    "path_id": 15,
    "path": [
      {
        "lat": 35.327175,
        "lng": 127.736801
      },
      {
        "lat": 35.327202,
        "lng": 127.736801
      }
    ],
    "color": "#595cb2",
    "start_point_name": "법계사",
    "length": 3,
    "time": "0"
  },
  {
    "path_id": 16,
    "path": [
      {
        "lat": 35.327202,
        "lng": 127.736801
      },
      {
        "lat": 35.326935,
        "lng": 127.736084
      }
    ],
    "color": "#d61de0",
    "start_point_name": "갈림길",
    "length": 71,
    "time": "1"
  },
  {
    "path_id": 17,
    "path": [
      {
        "lat": 35.326935,
        "lng": 127.736084
      },
      {
        "lat": 35.329727,
        "lng": 127.735527
      }
    ],
    "color": "#fa9bc3",
    "start_point_name": "조망터",
    "length": 314,
    "time": "5"
  },
  {
    "path_id": 18,
    "path": [
      {
        "lat": 35.329727,
        "lng": 127.735527
      },
      {
        "lat": 35.331589,
        "lng": 127.7341
      }
    ],
    "color": "#11a85b",
    "start_point_name": "쉼터",
    "length": 244,
    "time": "4"
  },
  {
    "path_id": 19,
    "path": [
      {
        "lat": 35.331589,
        "lng": 127.7341
      },
      {
        "lat": 35.333046,
        "lng": 127.732742
      }
    ],
    "color": "#1e12c4",
    "start_point_name": "쉼터",
    "length": 203,
    "time": "3"
  },
  {
    "path_id": 20,
    "path": [
      {
        "lat": 35.333046,
        "lng": 127.732742
      },
      {
        "lat": 35.333511,
        "lng": 127.732513
      }
    ],
    "color": "#a00d5b",
    "start_point_name": "개선문",
    "length": 55,
    "time": "0"
  },
  {
    "path_id": 21,
    "path": [
      {
        "lat": 35.333511,
        "lng": 127.732513
      },
      {
        "lat": 35.333817,
        "lng": 127.731766
      }
    ],
    "color": "#0db57c",
    "start_point_name": "위치목",
    "length": 75,
    "time": "1"
  },
  {
    "path_id": 22,
    "path": [
      {
        "lat": 35.333817,
        "lng": 127.731766
      },
      {
        "lat": 35.336449,
        "lng": 127.727867
      }
    ],
    "color": "#b06611",
    "start_point_name": "조망점",
    "length": 459,
    "time": "7"
  },
  {
    "path_id": 23,
    "path": [
      {
        "lat": 35.336449,
        "lng": 127.727867
      },
      {
        "lat": 35.336361,
        "lng": 127.727409
      }
    ],
    "color": "#20fdd3",
    "start_point_name": "자연경관",
    "length": 42,
    "time": "0"
  },
  {
    "path_id": 24,
    "path": [
      {
        "lat": 35.336361,
        "lng": 127.727409
      },
      {
        "lat": 35.336338,
        "lng": 127.727348
      }
    ],
    "color": "#68f4a7",
    "start_point_name": "갈림길",
    "length": 6,
    "time": "0"
  },
  {
    "path_id": 25,
    "path": [
      {
        "lat": 35.336338,
        "lng": 127.727348
      },
      {
        "lat": 35.335403,
        "lng": 127.723686
      }
    ],
    "color": "#442d44",
    "start_point_name": "통천문",
    "length": 348,
    "time": "5"
  },
  {
    "path_id": 26,
    "path": [
      {
        "lat": 35.335403,
        "lng": 127.723686
      },
      {
        "lat": 35.334869,
        "lng": 127.721046
      }
    ],
    "color": "#9e571b",
    "start_point_name": "조망터",
    "length": 246,
    "time": "4"
  },
  {
    "path_id": 27,
    "path": [
      {
        "lat": 35.334869,
        "lng": 127.721046
      },
      {
        "lat": 35.334873,
        "lng": 127.720932
      }
    ],
    "color": "#78f3b1",
    "start_point_name": "제석봉",
    "length": 10,
    "time": "0"
  },
  {
    "path_id": 28,
    "path": [
      {
        "lat": 35.334873,
        "lng": 127.720932
      },
      {
        "lat": 35.332512,
        "lng": 127.716469
      }
    ],
    "color": "#75bcf6",
    "start_point_name": "조망터",
    "length": 482,
    "time": "8"
  },
  {
    "path_id": 29,
    "path": [
      {
        "lat": 35.332512,
        "lng": 127.716469
      },
      {
        "lat": 35.332344,
        "lng": 127.716217
      }
    ],
    "color": "#019ade",
    "start_point_name": "갈림길",
    "length": 29,
    "time": "0"
  },
  {
    "path_id": 30,
    "path": [
      {
        "lat": 35.332344,
        "lng": 127.716217
      },
      {
        "lat": 35.332294,
        "lng": 127.716164
      }
    ],
    "color": "#ca435a",
    "start_point_name": "장터목",
    "length": 7,
    "time": "0"
  },
  {
    "path_id": 31,
    "path": [
      {
        "lat": 35.332294,
        "lng": 127.716164
      },
      {
        "lat": 35.328861,
        "lng": 127.71299
      }
    ],
    "color": "#cd5dfd",
    "start_point_name": "화장실",
    "length": 478,
    "time": "7"
  },
  {
    "path_id": 32,
    "path": [
      {
        "lat": 35.328861,
        "lng": 127.71299
      },
      {
        "lat": 35.328045,
        "lng": 127.710526
      }
    ],
    "color": "#37e7cf",
    "start_point_name": "거리목",
    "length": 241,
    "time": "4"
  },
  {
    "path_id": 33,
    "path": [
      {
        "lat": 35.328045,
        "lng": 127.710526
      },
      {
        "lat": 35.317829,
        "lng": 127.70266
      }
    ],
    "color": "#b2d019",
    "start_point_name": "연하봉",
    "length": 1341,
    "time": "22"
  },
  {
    "path_id": 34,
    "path": [
      {
        "lat": 35.317829,
        "lng": 127.70266
      },
      {
        "lat": 35.316044,
        "lng": 127.700233
      }
    ],
    "color": "#bd8649",
    "start_point_name": "119 긴급구조 넘버01-44",
    "length": 296,
    "time": "4"
  },
  {
    "path_id": 35,
    "path": [
      {
        "lat": 35.316044,
        "lng": 127.700233
      },
      {
        "lat": 35.316128,
        "lng": 127.700027
      }
    ],
    "color": "#a24bad",
    "start_point_name": "촛대봉",
    "length": 20,
    "time": "0"
  },
  {
    "path_id": 36,
    "path": [
      {
        "lat": 35.316128,
        "lng": 127.700027
      },
      {
        "lat": 35.31797,
        "lng": 127.693306
      }
    ],
    "color": "#6f3f1e",
    "start_point_name": "갈림길",
    "length": 643,
    "time": "10"
  },
  {
    "path_id": 37,
    "path": [
      {
        "lat": 35.31797,
        "lng": 127.693306
      },
      {
        "lat": 35.317146,
        "lng": 127.693298
      }
    ],
    "color": "#42954f",
    "start_point_name": "갈림길",
    "length": 91,
    "time": "1"
  },
  {
    "path_id": 38,
    "path": [
      {
        "lat": 35.317146,
        "lng": 127.693298
      },
      {
        "lat": 35.314487,
        "lng": 127.691139
      }
    ],
    "color": "#ea60a9",
    "start_point_name": "갈림길",
    "length": 354,
    "time": "5"
  },
  {
    "path_id": 39,
    "path": [
      {
        "lat": 35.314487,
        "lng": 127.691139
      },
      {
        "lat": 35.314487,
        "lng": 127.691139
      }
    ],
    "color": "#19b3e2",
    "start_point_name": "갈림길",
    "length": 0,
    "time": "0"
  },
  {
    "path_id": 40,
    "path": [
      {
        "lat": 35.314487,
        "lng": 127.691139
      },
      {
        "lat": 35.309189,
        "lng": 127.692131
      }
    ],
    "color": "#49f92b",
    "start_point_name": "갈림길",
    "length": 595,
    "time": "9"
  },
  {
    "path_id": 41,
    "path": [
      {
        "lat": 35.309189,
        "lng": 127.692131
      },
      {
        "lat": 35.307377,
        "lng": 127.693817
      }
    ],
    "color": "#fd7d2c",
    "start_point_name": "데크길",
    "length": 252,
    "time": "4"
  },
  {
    "path_id": 42,
    "path": [
      {
        "lat": 35.307377,
        "lng": 127.693817
      },
      {
        "lat": 35.285034,
        "lng": 127.718338
      }
    ],
    "color": "#c3738a",
    "start_point_name": "데크길",
    "length": 3335,
    "time": "55"
  }
]