{
  "max_ele": 910.832,
  "track": [
    {
      "path_id": 1,
      "name": "시내버스 축령산자연휴양림",
      "lat": 37.752541,
      "lon": 127.30883,
      "ele": 297.386
    },
    {
      "path_id": 2,
      "name": "슈퍼",
      "lat": 37.752563,
      "lon": 127.308884,
      "ele": 298.422
    },
    {
      "path_id": 3,
      "name": "축령산 계곡가든",
      "lat": 37.75267,
      "lon": 127.30883,
      "ele": 293.866
    },
    {
      "path_id": 4,
      "name": "축령산 계곡가든",
      "lat": 37.752712,
      "lon": 127.308899,
      "ele": 292.76
    },
    {
      "path_id": 5,
      "name": "축령산 자연휴양림",
      "lat": 37.752728,
      "lon": 127.308914,
      "ele": 294.271
    },
    {
      "path_id": 6,
      "name": "축령산 자연휴양림",
      "lat": 37.753403,
      "lon": 127.310493,
      "ele": 319.114
    },
    {
      "path_id": 7,
      "name": "축령산 자연휴양림",
      "lat": 37.753414,
      "lon": 127.310555,
      "ele": 316.38
    },
    {
      "path_id": 8,
      "name": "나무벤치",
      "lat": 37.754208,
      "lon": 127.31398,
      "ele": 370.874
    },
    {
      "path_id": 9,
      "name": "나무벤치",
      "lat": 37.755024,
      "lon": 127.314926,
      "ele": 382.18
    },
    {
      "path_id": 10,
      "name": "정상 삼거리 갈림길",
      "lat": 37.752773,
      "lon": 127.334007,
      "ele": 904.963
    },
    {
      "path_id": 11,
      "name": "축령산 정상 886.2m",
      "lat": 37.752712,
      "lon": 127.334023,
      "ele": 910.832
    },
    {
      "path_id": 12,
      "name": "헬기장",
      "lat": 37.751217,
      "lon": 127.332024,
      "ele": 885.365
    },
    {
      "path_id": 13,
      "name": "조망점",
      "lat": 37.749413,
      "lon": 127.330261,
      "ele": 871.904
    },
    {
      "path_id": 14,
      "name": "갈림길",
      "lat": 37.749367,
      "lon": 127.330093,
      "ele": 868.921
    },
    {
      "path_id": 15,
      "name": "남이바위",
      "lat": 37.748859,
      "lon": 127.328583,
      "ele": 860.926
    },
    {
      "path_id": 16,
      "name": "남이바위",
      "lat": 37.748802,
      "lon": 127.328545,
      "ele": 866.742
    }
  ]
}
