{
    "max_ele": 969.865,
    "track": [
        {
            "path_id": 1,
            "name": "광덕산 정류장",
            "lat": 38.101665,
            "lon": 127.443695,
            "ele": 634.216
        },
        {
            "path_id": 2,
            "name": "광덕고개",
            "lat": 38.099846,
            "lon": 127.443733,
            "ele": 647.258
        },
        {
            "path_id": 3,
            "name": "고개 쉼터",
            "lat": 38.090691,
            "lon": 127.445412,
            "ele": 758.375
        },
        {
            "path_id": 4,
            "name": "헬기장",
            "lat": 38.084938,
            "lon": 127.446037,
            "ele": 749.273
        },
        {
            "path_id": 5,
            "name": "언덕",
            "lat": 38.082451,
            "lon": 127.446648,
            "ele": 801.421
        },
        {
            "path_id": 6,
            "name": "쉼터",
            "lat": 38.080013,
            "lon": 127.447182,
            "ele": 882.054
        },
        {
            "path_id": 7,
            "name": "백운산",
            "lat": 38.074852,
            "lon": 127.444565,
            "ele": 918.009
        },
        {
            "path_id": 8,
            "name": "삼각봉",
            "lat": 38.067657,
            "lon": 127.446724,
            "ele": 938.901
        },
        {
            "path_id": 9,
            "name": "쉼터",
            "lat": 38.067593,
            "lon": 127.446754,
            "ele": 941.966
        },
        {
            "path_id": 10,
            "name": "도마치봉",
            "lat": 38.058552,
            "lon": 127.44384,
            "ele": 969.865
        },
        {
            "path_id": 11,
            "name": "황룡사 사거리",
            "lat": 38.060486,
            "lon": 127.434608,
            "ele": 727.017
        },
        {
            "path_id": 12,
            "name": "향적봉",
            "lat": 38.060337,
            "lon": 127.431488,
            "ele": 804.338
        },
        {
            "path_id": 13,
            "name": "쉼터",
            "lat": 38.05793,
            "lon": 127.427666,
            "ele": 776.302
        },
        {
            "path_id": 14,
            "name": "흥룡사 가는길",
            "lat": 38.057854,
            "lon": 127.425377,
            "ele": 711.786
        },
        {
            "path_id": 15,
            "name": "흥룡봉",
            "lat": 38.057812,
            "lon": 127.424446,
            "ele": 753.01
        },
        {
            "path_id": 16,
            "name": "헬기장",
            "lat": 38.057877,
            "lon": 127.423965,
            "ele": 751.056
        },
        {
            "path_id": 17,
            "name": "649봉",
            "lat": 38.060379,
            "lon": 127.417709,
            "ele": 607.945
        },
        {
            "path_id": 18,
            "name": "계곡",
            "lat": 38.069088,
            "lon": 127.414993,
            "ele": 322.058
        },
        {
            "path_id": 19,
            "name": "안내 표지판",
            "lat": 38.068981,
            "lon": 127.414421,
            "ele": 325.683
        },
        {
            "path_id": 20,
            "name": "화장실",
            "lat": 38.070965,
            "lon": 127.41037,
            "ele": 293.583
        },
        {
            "path_id": 21,
            "name": "흥룡사 사찰",
            "lat": 38.070938,
            "lon": 127.410622,
            "ele": 292.303
        },
        {
            "path_id": 22,
            "name": "흥룡사 주차장",
            "lat": 38.072224,
            "lon": 127.409714,
            "ele": 281.298
        },
        {
            "path_id": 23,
            "name": "주차장 안내",
            "lat": 38.072586,
            "lon": 127.409599,
            "ele": 277.861
        },
        {
            "path_id": 24,
            "name": "백운산 계곡",
            "lat": 38.073212,
            "lon": 127.409058,
            "ele": 277.863
        }
    ]
}