[
  {
    "path_id": 0,
    "path": [
      {
        "lat": 34.484497,
        "lng": 126.649338
      },
      {
        "lat": 34.485191,
        "lng": 126.64901
      }
    ],
    "color": "#b39507",
    "start_name": "오소재  화장실 / 오소재  약수터",
    "length_meter": 102.1,
    "time_minute": 1
  },
  {
    "path_id": 1,
    "path": [
      {
        "lat": 34.485191,
        "lng": 126.64901
      },
      {
        "lat": 34.485252,
        "lng": 126.649017
      }
    ],
    "color": "#9cc763",
    "start_name": "오소재  주차장 / 오소재 탐방로",
    "length_meter": 7.4,
    "time_minute": 0
  },
  {
    "path_id": 2,
    "path": [
      {
        "lat": 34.485252,
        "lng": 126.649017
      },
      {
        "lat": 34.479668,
        "lng": 126.639015
      }
    ],
    "color": "#b9b40b",
    "start_name": "두륜산  아내도 / 갈림길",
    "length_meter": 1108.4,
    "time_minute": 18
  },
  {
    "path_id": 3,
    "path": [
      {
        "lat": 34.479668,
        "lng": 126.639015
      },
      {
        "lat": 34.477665,
        "lng": 126.634781
      }
    ],
    "color": "#032f53",
    "start_name": "쉼터",
    "length_meter": 447.5,
    "time_minute": 7
  },
  {
    "path_id": 4,
    "path": [
      {
        "lat": 34.477665,
        "lng": 126.634781
      },
      {
        "lat": 34.477669,
        "lng": 126.634819
      }
    ],
    "color": "#ab2f2d",
    "start_name": "오심재 쉼터",
    "length_meter": 3.5,
    "time_minute": 0
  },
  {
    "path_id": 5,
    "path": [
      {
        "lat": 34.477669,
        "lng": 126.634819
      },
      {
        "lat": 34.475281,
        "lng": 126.634651
      }
    ],
    "color": "#36772a",
    "start_name": "오심재두륜산 도립공원 안내도 / 갈림길",
    "length_meter": 267.2,
    "time_minute": 4
  },
  {
    "path_id": 6,
    "path": [
      {
        "lat": 34.475281,
        "lng": 126.634651
      },
      {
        "lat": 34.475296,
        "lng": 126.634659
      }
    ],
    "color": "#b51326",
    "start_name": "흔들바위",
    "length_meter": 1.8,
    "time_minute": 0
  },
  {
    "path_id": 7,
    "path": [
      {
        "lat": 34.475296,
        "lng": 126.634659
      },
      {
        "lat": 34.474136,
        "lng": 126.635544
      }
    ],
    "color": "#8e3528",
    "start_name": "흔들바위 바위",
    "length_meter": 152.4,
    "time_minute": 2
  },
  {
    "path_id": 8,
    "path": [
      {
        "lat": 34.474136,
        "lng": 126.635544
      },
      {
        "lat": 34.473335,
        "lng": 126.636726
      }
    ],
    "color": "#435a4f",
    "start_name": "갈림길",
    "length_meter": 140.3,
    "time_minute": 2
  },
  {
    "path_id": 9,
    "path": [
      {
        "lat": 34.473335,
        "lng": 126.636726
      },
      {
        "lat": 34.471867,
        "lng": 126.637566
      }
    ],
    "color": "#3a5120",
    "start_name": "노승봉 / 노승봉 조망점",
    "length_meter": 183.9,
    "time_minute": 3
  },
  {
    "path_id": 10,
    "path": [
      {
        "lat": 34.471867,
        "lng": 126.637566
      },
      {
        "lat": 34.469303,
        "lng": 126.63533
      }
    ],
    "color": "#c30e60",
    "start_name": "두륜산 (가련봉)",
    "length_meter": 351.1,
    "time_minute": 5
  },
  {
    "path_id": 11,
    "path": [
      {
        "lat": 34.469303,
        "lng": 126.63533
      },
      {
        "lat": 34.467426,
        "lng": 126.634521
      }
    ],
    "color": "#27974d",
    "start_name": "만일재 / 갈림길 / 웨이포인트 22",
    "length_meter": 226.5,
    "time_minute": 3
  },
  {
    "path_id": 12,
    "path": [
      {
        "lat": 34.467426,
        "lng": 126.634521
      },
      {
        "lat": 34.467922,
        "lng": 126.63504
      }
    ],
    "color": "#5daf4e",
    "start_name": "구름다리",
    "length_meter": 72.8,
    "time_minute": 1
  },
  {
    "path_id": 13,
    "path": [
      {
        "lat": 34.467922,
        "lng": 126.63504
      },
      {
        "lat": 34.467565,
        "lng": 126.634301
      }
    ],
    "color": "#14a7bf",
    "start_name": "두륜봉",
    "length_meter": 78.5,
    "time_minute": 1
  },
  {
    "path_id": 14,
    "path": [
      {
        "lat": 34.467565,
        "lng": 126.634301
      },
      {
        "lat": 34.470875,
        "lng": 126.633972
      }
    ],
    "color": "#6b3a59",
    "start_name": "웨이포인트 25 / 갈림길",
    "length_meter": 369.5,
    "time_minute": 6
  },
  {
    "path_id": 15,
    "path": [
      {
        "lat": 34.470875,
        "lng": 126.633972
      },
      {
        "lat": 34.471046,
        "lng": 126.633659
      }
    ],
    "color": "#1199a2",
    "start_name": "만일암지 오층석탑",
    "length_meter": 34.4,
    "time_minute": 0
  },
  {
    "path_id": 16,
    "path": [
      {
        "lat": 34.471046,
        "lng": 126.633659
      },
      {
        "lat": 34.474308,
        "lng": 126.630821
      }
    ],
    "color": "#669999",
    "start_name": "천년수",
    "length_meter": 446.4,
    "time_minute": 7
  }
]