{
  "max_ele": 415.0,
  "total_length_km": "6.8km",
  "total_time": "1시간 24분",
  "start_name": "갈림길",
  "end_name": "케이블카 승강장",
  "track": [
    {
      "path_id": 0,
      "path": [
        {
          "lat": 34.468334,
          "lng": 126.627914
        },
        {
          "lat": 34.468201,
          "lng": 126.624176
        }
      ],
      "color": "#4caab7",
      "start_name": "갈림길",
      "length_meter": 343.0,
      "time_minute": 4
    },
    {
      "path_id": 1,
      "path": [
        {
          "lat": 34.468201,
          "lng": 126.624176
        },
        {
          "lat": 34.472305,
          "lng": 126.620041
        }
      ],
      "color": "#72133e",
      "start_name": "목구조목",
      "length_meter": 593.2,
      "time_minute": 7
    },
    {
      "path_id": 2,
      "path": [
        {
          "lat": 34.472305,
          "lng": 126.620041
        },
        {
          "lat": 34.473625,
          "lng": 126.617775
        }
      ],
      "color": "#48562b",
      "start_name": "갈림길",
      "length_meter": 254.3,
      "time_minute": 3
    },
    {
      "path_id": 3,
      "path": [
        {
          "lat": 34.473625,
          "lng": 126.617775
        },
        {
          "lat": 34.475555,
          "lng": 126.616676
        }
      ],
      "color": "#6ba368",
      "start_name": "목구조목",
      "length_meter": 237.1,
      "time_minute": 2
    },
    {
      "path_id": 4,
      "path": [
        {
          "lat": 34.475555,
          "lng": 126.616676
        },
        {
          "lat": 34.475281,
          "lng": 126.621445
        }
      ],
      "color": "#99258d",
      "start_name": "갈림길",
      "length_meter": 438.2,
      "time_minute": 5
    },
    {
      "path_id": 5,
      "path": [
        {
          "lat": 34.475281,
          "lng": 126.621445
        },
        {
          "lat": 34.475792,
          "lng": 126.627739
        }
      ],
      "color": "#1ac511",
      "start_name": "목구조목 / 갈림길",
      "length_meter": 583.3,
      "time_minute": 9
    },
    {
      "path_id": 6,
      "path": [
        {
          "lat": 34.475792,
          "lng": 126.627739
        },
        {
          "lat": 34.475552,
          "lng": 126.6297
        }
      ],
      "color": "#a4c324",
      "start_name": "목구조목",
      "length_meter": 181.7,
      "time_minute": 2
    },
    {
      "path_id": 7,
      "path": [
        {
          "lat": 34.475552,
          "lng": 126.6297
        },
        {
          "lat": 34.476391,
          "lng": 126.625473
        }
      ],
      "color": "#392b33",
      "start_name": "갈림길",
      "length_meter": 398.5,
      "time_minute": 4
    },
    {
      "path_id": 8,
      "path": [
        {
          "lat": 34.476391,
          "lng": 126.625473
        },
        {
          "lat": 34.477238,
          "lng": 126.61348
        }
      ],
      "color": "#6f6e81",
      "start_name": "목구조목",
      "length_meter": 1103.4,
      "time_minute": 13
    },
    {
      "path_id": 9,
      "path": [
        {
          "lat": 34.477238,
          "lng": 126.61348
        },
        {
          "lat": 34.480877,
          "lng": 126.61425
        }
      ],
      "color": "#8b3c7d",
      "start_name": "대흥사  일주문 / 대흥사  입구",
      "length_meter": 438.5,
      "time_minute": 7
    },
    {
      "path_id": 10,
      "path": [
        {
          "lat": 34.480877,
          "lng": 126.61425
        },
        {
          "lat": 34.489361,
          "lng": 126.6147
        }
      ],
      "color": "#c3644a",
      "start_name": "웨이포인트 41",
      "length_meter": 944.3,
      "time_minute": 11
    },
    {
      "path_id": 11,
      "path": [
        {
          "lat": 34.489361,
          "lng": 126.6147
        },
        {
          "lat": 34.496521,
          "lng": 126.625259
        }
      ],
      "color": "#7c9413",
      "start_name": "산책로 화장실",
      "length_meter": 1253.1,
      "time_minute": 15
    }
  ]
}