[
  {
    "path_id": 0,
    "path": [
      {
        "lat": 34.468334,
        "lng": 126.627914
      },
      {
        "lat": 34.468201,
        "lng": 126.624176
      }
    ],
    "color": "#2a6604",
    "start_name": "갈림길",
    "length_meter": 343.0,
    "time_minute": 5
  },
  {
    "path_id": 1,
    "path": [
      {
        "lat": 34.468201,
        "lng": 126.624176
      },
      {
        "lat": 34.472305,
        "lng": 126.620041
      }
    ],
    "color": "#1ea3b3",
    "start_name": "목구조목",
    "length_meter": 593.2,
    "time_minute": 9
  },
  {
    "path_id": 2,
    "path": [
      {
        "lat": 34.472305,
        "lng": 126.620041
      },
      {
        "lat": 34.473625,
        "lng": 126.617775
      }
    ],
    "color": "#9f5489",
    "start_name": "갈림길",
    "length_meter": 254.3,
    "time_minute": 4
  },
  {
    "path_id": 3,
    "path": [
      {
        "lat": 34.473625,
        "lng": 126.617775
      },
      {
        "lat": 34.475555,
        "lng": 126.616676
      }
    ],
    "color": "#7dc6b8",
    "start_name": "목구조목",
    "length_meter": 237.1,
    "time_minute": 3
  },
  {
    "path_id": 4,
    "path": [
      {
        "lat": 34.475555,
        "lng": 126.616676
      },
      {
        "lat": 34.475281,
        "lng": 126.621445
      }
    ],
    "color": "#373510",
    "start_name": "갈림길",
    "length_meter": 438.2,
    "time_minute": 7
  },
  {
    "path_id": 5,
    "path": [
      {
        "lat": 34.475281,
        "lng": 126.621445
      },
      {
        "lat": 34.475792,
        "lng": 126.627739
      }
    ],
    "color": "#2758b5",
    "start_name": "목구조목 / 갈림길",
    "length_meter": 583.3,
    "time_minute": 9
  },
  {
    "path_id": 6,
    "path": [
      {
        "lat": 34.475792,
        "lng": 126.627739
      },
      {
        "lat": 34.475552,
        "lng": 126.6297
      }
    ],
    "color": "#b0006e",
    "start_name": "목구조목",
    "length_meter": 181.7,
    "time_minute": 3
  },
  {
    "path_id": 7,
    "path": [
      {
        "lat": 34.475552,
        "lng": 126.6297
      },
      {
        "lat": 34.476391,
        "lng": 126.625473
      }
    ],
    "color": "#2b6039",
    "start_name": "갈림길",
    "length_meter": 398.5,
    "time_minute": 6
  },
  {
    "path_id": 8,
    "path": [
      {
        "lat": 34.476391,
        "lng": 126.625473
      },
      {
        "lat": 34.477238,
        "lng": 126.61348
      }
    ],
    "color": "#9d4a08",
    "start_name": "목구조목",
    "length_meter": 1103.4,
    "time_minute": 18
  },
  {
    "path_id": 9,
    "path": [
      {
        "lat": 34.477238,
        "lng": 126.61348
      },
      {
        "lat": 34.477695,
        "lng": 126.613007
      }
    ],
    "color": "#1d9bbf",
    "start_name": "대흥사  일주문",
    "length_meter": 66.8,
    "time_minute": 1
  },
  {
    "path_id": 10,
    "path": [
      {
        "lat": 34.477695,
        "lng": 126.613007
      },
      {
        "lat": 34.480877,
        "lng": 126.61425
      }
    ],
    "color": "#048427",
    "start_name": "대흥사  입구",
    "length_meter": 371.7,
    "time_minute": 6
  },
  {
    "path_id": 11,
    "path": [
      {
        "lat": 34.480877,
        "lng": 126.61425
      },
      {
        "lat": 34.489361,
        "lng": 126.6147
      }
    ],
    "color": "#927710",
    "start_name": "웨이포인트 41",
    "length_meter": 944.3,
    "time_minute": 15
  },
  {
    "path_id": 12,
    "path": [
      {
        "lat": 34.489361,
        "lng": 126.6147
      },
      {
        "lat": 34.496521,
        "lng": 126.625259
      }
    ],
    "color": "#75c316",
    "start_name": "산책로 화장실",
    "length_meter": 1253.1,
    "time_minute": 20
  }
]