{
    "max_ele": 610.021,
    "track": [
        {
            "path_id": 1,
            "name": "지하철역",
            "lat": 37.947926,
            "lon": 127.061279,
            "ele": 60.963
        },
        {
            "path_id": 2,
            "name": "소요맛거리(식당가)",
            "lat": 37.947876,
            "lon": 127.061485,
            "ele": 63.412
        },
        {
            "path_id": 3,
            "name": "소요산 신흥(맛집)",
            "lat": 37.946541,
            "lon": 127.064461,
            "ele": 71.115
        },
        {
            "path_id": 4,
            "name": "소요산 관광지 주차장",
            "lat": 37.946461,
            "lon": 127.064766,
            "ele": 69.066
        },
        {
            "path_id": 5,
            "name": "주차장 식당가",
            "lat": 37.94619,
            "lon": 127.065392,
            "ele": 71.742
        },
        {
            "path_id": 6,
            "name": "주차장화장실",
            "lat": 37.945805,
            "lon": 127.066093,
            "ele": 70.789
        },
        {
            "path_id": 7,
            "name": "소요산관광매점",
            "lat": 37.94558,
            "lon": 127.06707,
            "ele": 76.76
        },
        {
            "path_id": 8,
            "name": "소요산관광매점 화장실(모범화장실)",
            "lat": 37.946018,
            "lon": 127.069199,
            "ele": 82.477
        },
        {
            "path_id": 9,
            "name": "소요산 입구",
            "lat": 37.94611,
            "lon": 127.069359,
            "ele": 83.7
        },
        {
            "path_id": 10,
            "name": "소요산 관광 지원센터",
            "lat": 37.94622,
            "lon": 127.069511,
            "ele": 84.831
        },
        {
            "path_id": 11,
            "name": "지원센터 화장실",
            "lat": 37.946487,
            "lon": 127.069435,
            "ele": 86.534
        },
        {
            "path_id": 12,
            "name": "소요산 방문기념 포토존",
            "lat": 37.94688,
            "lon": 127.070091,
            "ele": 86.9
        },
        {
            "path_id": 13,
            "name": "요석공원",
            "lat": 37.947048,
            "lon": 127.070709,
            "ele": 89.901
        },
        {
            "path_id": 14,
            "name": "요석교 식당가",
            "lat": 37.94717,
            "lon": 127.071259,
            "ele": 90.716
        },
        {
            "path_id": 15,
            "name": "요석궁지 포토존",
            "lat": 37.947079,
            "lon": 127.073639,
            "ele": 100.7
        },
        {
            "path_id": 16,
            "name": "매표소(들머리)",
            "lat": 37.947018,
            "lon": 127.074417,
            "ele": 106.154
        },
        {
            "path_id": 17,
            "name": "계곡쉼터",
            "lat": 37.94664,
            "lon": 127.075935,
            "ele": 109.919
        },
        {
            "path_id": 18,
            "name": "마-마트 쉼터",
            "lat": 37.946102,
            "lon": 127.08194,
            "ele": 141.886
        },
        {
            "path_id": 19,
            "name": "일주문 화장실",
            "lat": 37.946068,
            "lon": 127.082077,
            "ele": 143.331
        },
        {
            "path_id": 20,
            "name": "Ma-Mart (소요산점)",
            "lat": 37.945984,
            "lon": 127.082359,
            "ele": 146.385
        },
        {
            "path_id": 21,
            "name": "소요산자재암 일주문",
            "lat": 37.945892,
            "lon": 127.082695,
            "ele": 148.792
        },
        {
            "path_id": 22,
            "name": "일주문 약수터",
            "lat": 37.94569,
            "lon": 127.082993,
            "ele": 146.444
        },
        {
            "path_id": 23,
            "name": "갈림길",
            "lat": 37.945511,
            "lon": 127.083313,
            "ele": 153.097
        },
        {
            "path_id": 24,
            "name": "원효굴",
            "lat": 37.945415,
            "lon": 127.083664,
            "ele": 152.474
        },
        {
            "path_id": 25,
            "name": "원효폭포",
            "lat": 37.945465,
            "lon": 127.083382,
            "ele": 151.204
        },
        {
            "path_id": 26,
            "name": "금강문",
            "lat": 37.945229,
            "lon": 127.083862,
            "ele": 168.673
        },
        {
            "path_id": 27,
            "name": "원효대",
            "lat": 37.945244,
            "lon": 127.083855,
            "ele": 174.059
        },
        {
            "path_id": 28,
            "name": "백운암화장실",
            "lat": 37.9454,
            "lon": 127.084915,
            "ele": 172.161
        },
        {
            "path_id": 29,
            "name": "자재암 해우소",
            "lat": 37.945496,
            "lon": 127.08564,
            "ele": 189.771
        },
        {
            "path_id": 30,
            "name": "자재암",
            "lat": 37.945633,
            "lon": 127.086182,
            "ele": 192.123
        },
        {
            "path_id": 31,
            "name": "나한전",
            "lat": 37.945557,
            "lon": 127.086578,
            "ele": 192.037
        },
        {
            "path_id": 32,
            "name": "원효샘",
            "lat": 37.945541,
            "lon": 127.086685,
            "ele": 191.841
        },
        {
            "path_id": 33,
            "name": "갈림길",
            "lat": 37.945553,
            "lon": 127.087234,
            "ele": 217.711
        },
        {
            "path_id": 34,
            "name": "낙석주의 구간",
            "lat": 37.946148,
            "lon": 127.089027,
            "ele": 310.384
        },
        {
            "path_id": 37,
            "name": "갈림길",
            "lat": 37.94825,
            "lon": 127.08918,
            "ele": 436.5
        },
        {
            "path_id": 38,
            "name": "하백운대",
            "lat": 37.948254,
            "lon": 127.089218,
            "ele": 440.437
        },
        {
            "path_id": 39,
            "name": "중백운대",
            "lat": 37.948448,
            "lon": 127.092995,
            "ele": 492.816
        },
        {
            "path_id": 40,
            "name": "중백운대 전망",
            "lat": 37.94846,
            "lon": 127.093048,
            "ele": 493.248
        },
        {
            "path_id": 41,
            "name": "갈림길",
            "lat": 37.948612,
            "lon": 127.095459,
            "ele": 519.598
        },
        {
            "path_id": 43,
            "name": "상백운대 정상",
            "lat": 37.947002,
            "lon": 127.096382,
            "ele": 541.897
        },
        {
            "path_id": 44,
            "name": "칼바위 산책로 우회",
            "lat": 37.944572,
            "lon": 127.09623,
            "ele": 537.409
        },
        {
            "path_id": 45,
            "name": "낙석주의 구간",
            "lat": 37.942013,
            "lon": 127.093613,
            "ele": 462.33
        },
        {
            "path_id": 46,
            "name": "갈림길",
            "lat": 37.941711,
            "lon": 127.093163,
            "ele": 451.274
        },
        {
            "path_id": 49,
            "name": "나한대",
            "lat": 37.939377,
            "lon": 127.090103,
            "ele": 557.879
        },
        {
            "path_id": 50,
            "name": "소요산 의상대",
            "lat": 37.938522,
            "lon": 127.088104,
            "ele": 577.874
        },
        {
            "path_id": 51,
            "name": "갈림길",
            "lat": 37.938412,
            "lon": 127.087929,
            "ele": 610.021
        },
        {
            "path_id": 52,
            "name": "의상대 계단(상)",
            "lat": 37.938141,
            "lon": 127.087776,
            "ele": 581.652
        },
        {
            "path_id": 53,
            "name": "야생동물 보호구역",
            "lat": 37.937382,
            "lon": 127.085449,
            "ele": 524.449
        },
        {
            "path_id": 54,
            "name": "낙석주의 구간",
            "lat": 37.937687,
            "lon": 127.08239,
            "ele": 497.757
        },
        {
            "path_id": 55,
            "name": "갈림길",
            "lat": 37.93774,
            "lon": 127.081505,
            "ele": 494.121
        },
        {
            "path_id": 56,
            "name": "의상대 전경",
            "lat": 37.938122,
            "lon": 127.079315,
            "ele": 541.339
        },
        {
            "path_id": 57,
            "name": "공주봉",
            "lat": 37.938377,
            "lon": 127.078056,
            "ele": 558.722
        },
        {
            "path_id": 58,
            "name": "공주봉 쉼터",
            "lat": 37.93848,
            "lon": 127.078178,
            "ele": 548.714
        },
        {
            "path_id": 59,
            "name": "넖은 바위",
            "lat": 37.940971,
            "lon": 127.079094,
            "ele": 458.425
        },
        {
            "path_id": 60,
            "name": "갈림길",
            "lat": 37.94508,
            "lon": 127.083443,
            "ele": 156.118
        }
    ]
}