{
    "max_ele": 1257.2,
    "track": [
        {
            "path_id": 1,
            "name": "장안산(들머리 무룡고개)",
            "lat": 35.644196,
            "lon": 127.61631,
            "ele": 932.055
        },
        {
            "path_id": 4,
            "name": "벽계쉼터",
            "lat": 35.643829,
            "lon": 127.616257,
            "ele": 907.876
        },
        {
            "path_id": 5,
            "name": "갈림길",
            "lat": 35.643379,
            "lon": 127.616165,
            "ele": 909.79
        },
        {
            "path_id": 6,
            "name": "장안산입구",
            "lat": 35.643341,
            "lon": 127.616226,
            "ele": 912.553
        },
        {
            "path_id": 7,
            "name": "갈림길",
            "lat": 35.643585,
            "lon": 127.613579,
            "ele": 924.775
        },
        {
            "path_id": 8,
            "name": "쉼터",
            "lat": 35.643448,
            "lon": 127.612816,
            "ele": 933.987
        },
        {
            "path_id": 9,
            "name": "갈림길",
            "lat": 35.643238,
            "lon": 127.612244,
            "ele": 939.854
        },
        {
            "path_id": 10,
            "name": "갈림길",
            "lat": 35.637806,
            "lon": 127.60437,
            "ele": 1062.924
        },
        {
            "path_id": 11,
            "name": "쉼터",
            "lat": 35.637821,
            "lon": 127.604355,
            "ele": 1065.763
        },
        {
            "path_id": 12,
            "name": "조망터",
            "lat": 35.634937,
            "lon": 127.603676,
            "ele": 1097.706
        },
        {
            "path_id": 13,
            "name": "조망터",
            "lat": 35.634937,
            "lon": 127.603676,
            "ele": 1097.706
        },
        {
            "path_id": 16,
            "name": "쉼터",
            "lat": 35.629917,
            "lon": 127.597137,
            "ele": 1151.52
        },
        {
            "path_id": 17,
            "name": "데크계단",
            "lat": 35.629219,
            "lon": 127.595795,
            "ele": 1158.466
        },
        {
            "path_id": 18,
            "name": "헬리포트",
            "lat": 35.629162,
            "lon": 127.595116,
            "ele": 1234.083
        },
        {
            "path_id": 19,
            "name": "갈림길",
            "lat": 35.629047,
            "lon": 127.595024,
            "ele": 1243.812
        },
        {
            "path_id": 20,
            "name": "감시카메라",
            "lat": 35.629036,
            "lon": 127.595131,
            "ele": 1239.06
        },
        {
            "path_id": 21,
            "name": "장안산",
            "lat": 35.629086,
            "lon": 127.595222,
            "ele": 1173.914
        },
        {
            "path_id": 22,
            "name": "갈림길",
            "lat": 35.626667,
            "lon": 127.593552,
            "ele": 1257.2
        },
        {
            "path_id": 23,
            "name": "하봉",
            "lat": 35.619705,
            "lon": 127.590462,
            "ele": 1255.22
        },
        {
            "path_id": 24,
            "name": "갈림길",
            "lat": 35.619301,
            "lon": 127.590286,
            "ele": 1254.701
        },
        {
            "path_id": 25,
            "name": "밧줄구간",
            "lat": 35.619553,
            "lon": 127.585258,
            "ele": 1156.715
        },
        {
            "path_id": 26,
            "name": "거리목",
            "lat": 35.624043,
            "lon": 127.575943,
            "ele": 939.408
        },
        {
            "path_id": 27,
            "name": "쉼터",
            "lat": 35.624043,
            "lon": 127.575386,
            "ele": 930.315
        },
        {
            "path_id": 28,
            "name": "갈림길",
            "lat": 35.624138,
            "lon": 127.575356,
            "ele": 928.375
        },
        {
            "path_id": 29,
            "name": "거리목",
            "lat": 35.628799,
            "lon": 127.569244,
            "ele": 885.789
        },
        {
            "path_id": 32,
            "name": "날머리(범연동)",
            "lat": 35.619705,
            "lon": 127.562256,
            "ele": 728.482
        }
    ]
}