[
  {
    "path_id": 0,
    "path": [
      {
        "lat": 35.408741,
        "lng": 127.06794
      },
      {
        "lat": 35.408962,
        "lng": 127.067741
      }
    ],
    "color": "#1fab62",
    "start_name": "여성전용화장실 / 흡연부스 / 강천산 입구",
    "length_meter": 82.9,
    "time_minute": 1
  },
  {
    "path_id": 1,
    "path": [
      {
        "lat": 35.408962,
        "lng": 127.067741
      },
      {
        "lat": 35.40876,
        "lng": 127.067017
      }
    ],
    "color": "#73e801",
    "start_name": "매표소 / 화장실",
    "length_meter": 70.8,
    "time_minute": 1
  },
  {
    "path_id": 2,
    "path": [
      {
        "lat": 35.40876,
        "lng": 127.067017
      },
      {
        "lat": 35.408306,
        "lng": 127.066719
      }
    ],
    "color": "#926c57",
    "start_name": "안내도 / 포토존 / 자연경관",
    "length_meter": 71.0,
    "time_minute": 1
  },
  {
    "path_id": 3,
    "path": [
      {
        "lat": 35.408306,
        "lng": 127.066719
      },
      {
        "lat": 35.407795,
        "lng": 127.065849
      }
    ],
    "color": "#f02ea9",
    "start_name": "종합안내도 / 야생동물",
    "length_meter": 99.2,
    "time_minute": 1
  },
  {
    "path_id": 4,
    "path": [
      {
        "lat": 35.407795,
        "lng": 127.065849
      },
      {
        "lat": 35.407475,
        "lng": 127.065231
      }
    ],
    "color": "#9e6b94",
    "start_name": "병풍폭포 / 화장실 / 포토존",
    "length_meter": 68.4,
    "time_minute": 1
  },
  {
    "path_id": 5,
    "path": [
      {
        "lat": 35.407475,
        "lng": 127.065231
      },
      {
        "lat": 35.406887,
        "lng": 127.064705
      }
    ],
    "color": "#94b8a1",
    "start_name": "병풍폭포앞쉼터 / 발씻는곳",
    "length_meter": 81.2,
    "time_minute": 1
  },
  {
    "path_id": 6,
    "path": [
      {
        "lat": 35.406887,
        "lng": 127.064705
      },
      {
        "lat": 35.408932,
        "lng": 127.05986
      }
    ],
    "color": "#1a0481",
    "start_name": "자연경관 / 갈림길 / 너덜등산로",
    "length_meter": 503.3,
    "time_minute": 8
  },
  {
    "path_id": 7,
    "path": [
      {
        "lat": 35.408932,
        "lng": 127.05986
      },
      {
        "lat": 35.410427,
        "lng": 127.057686
      }
    ],
    "color": "#8366cb",
    "start_name": "자연경관",
    "length_meter": 257.8,
    "time_minute": 4
  },
  {
    "path_id": 8,
    "path": [
      {
        "lat": 35.410427,
        "lng": 127.057686
      },
      {
        "lat": 35.407303,
        "lng": 127.053314
      }
    ],
    "color": "#02c676",
    "start_name": "갈림길",
    "length_meter": 526.9,
    "time_minute": 8
  },
  {
    "path_id": 9,
    "path": [
      {
        "lat": 35.407303,
        "lng": 127.053314
      },
      {
        "lat": 35.406643,
        "lng": 127.050781
      }
    ],
    "color": "#27c879",
    "start_name": "깃대봉",
    "length_meter": 241.0,
    "time_minute": 4
  },
  {
    "path_id": 10,
    "path": [
      {
        "lat": 35.406643,
        "lng": 127.050781
      },
      {
        "lat": 35.405746,
        "lng": 127.048058
      }
    ],
    "color": "#56c3d8",
    "start_name": "단풍나무",
    "length_meter": 266.2,
    "time_minute": 4
  },
  {
    "path_id": 11,
    "path": [
      {
        "lat": 35.405746,
        "lng": 127.048058
      },
      {
        "lat": 35.40358,
        "lng": 127.047615
      }
    ],
    "color": "#fc257f",
    "start_name": "걷기좋은 능선길",
    "length_meter": 244.2,
    "time_minute": 4
  },
  {
    "path_id": 12,
    "path": [
      {
        "lat": 35.40358,
        "lng": 127.047615
      },
      {
        "lat": 35.396866,
        "lng": 127.041046
      }
    ],
    "color": "#e7af45",
    "start_name": "갈림길",
    "length_meter": 954.9,
    "time_minute": 15
  },
  {
    "path_id": 13,
    "path": [
      {
        "lat": 35.396866,
        "lng": 127.041046
      },
      {
        "lat": 35.394482,
        "lng": 127.037521
      }
    ],
    "color": "#944592",
    "start_name": "자연경관",
    "length_meter": 415.2,
    "time_minute": 6
  },
  {
    "path_id": 14,
    "path": [
      {
        "lat": 35.394482,
        "lng": 127.037521
      },
      {
        "lat": 35.394283,
        "lng": 127.038528
      }
    ],
    "color": "#a1d0c1",
    "start_name": "갈림길 / 호수",
    "length_meter": 100.3,
    "time_minute": 1
  },
  {
    "path_id": 15,
    "path": [
      {
        "lat": 35.394283,
        "lng": 127.038528
      },
      {
        "lat": 35.393814,
        "lng": 127.043373
      }
    ],
    "color": "#03e68b",
    "start_name": "자연경관",
    "length_meter": 442.3,
    "time_minute": 7
  },
  {
    "path_id": 16,
    "path": [
      {
        "lat": 35.393814,
        "lng": 127.043373
      },
      {
        "lat": 35.393692,
        "lng": 127.044174
      }
    ],
    "color": "#107191",
    "start_name": "강천호 댐 / 갈림길",
    "length_meter": 73.9,
    "time_minute": 1
  },
  {
    "path_id": 17,
    "path": [
      {
        "lat": 35.393692,
        "lng": 127.044174
      },
      {
        "lat": 35.393402,
        "lng": 127.044044
      }
    ],
    "color": "#4e8b56",
    "start_name": "강천호 / 자연경관",
    "length_meter": 62.8,
    "time_minute": 1
  },
  {
    "path_id": 18,
    "path": [
      {
        "lat": 35.393402,
        "lng": 127.044044
      },
      {
        "lat": 35.39286,
        "lng": 127.045685
      }
    ],
    "color": "#f62822",
    "start_name": "위험지역 / 자연경관",
    "length_meter": 165.5,
    "time_minute": 2
  },
  {
    "path_id": 19,
    "path": [
      {
        "lat": 35.39286,
        "lng": 127.045685
      },
      {
        "lat": 35.393326,
        "lng": 127.04628
      }
    ],
    "color": "#12af35",
    "start_name": "갈림길 / 자연경관",
    "length_meter": 81.8,
    "time_minute": 1
  },
  {
    "path_id": 20,
    "path": [
      {
        "lat": 35.393326,
        "lng": 127.04628
      },
      {
        "lat": 35.393951,
        "lng": 127.04715
      }
    ],
    "color": "#9aa21d",
    "start_name": "화장실 / 사랑공원 돌탑 / 자연경관",
    "length_meter": 109.7,
    "time_minute": 1
  },
  {
    "path_id": 21,
    "path": [
      {
        "lat": 35.393951,
        "lng": 127.04715
      },
      {
        "lat": 35.394749,
        "lng": 127.047768
      }
    ],
    "color": "#e4f07f",
    "start_name": "구장군폭포 / 자연경관",
    "length_meter": 105.6,
    "time_minute": 1
  },
  {
    "path_id": 22,
    "path": [
      {
        "lat": 35.394749,
        "lng": 127.047768
      },
      {
        "lat": 35.395004,
        "lng": 127.04969
      }
    ],
    "color": "#c65d41",
    "start_name": "고압전기시설",
    "length_meter": 176.5,
    "time_minute": 2
  },
  {
    "path_id": 23,
    "path": [
      {
        "lat": 35.395004,
        "lng": 127.04969
      },
      {
        "lat": 35.395336,
        "lng": 127.050674
      }
    ],
    "color": "#8fa19b",
    "start_name": "단풍길",
    "length_meter": 96.5,
    "time_minute": 1
  },
  {
    "path_id": 24,
    "path": [
      {
        "lat": 35.395336,
        "lng": 127.050674
      },
      {
        "lat": 35.395996,
        "lng": 127.051888
      }
    ],
    "color": "#a49173",
    "start_name": "자연경관",
    "length_meter": 132.3,
    "time_minute": 2
  },
  {
    "path_id": 25,
    "path": [
      {
        "lat": 35.395996,
        "lng": 127.051888
      },
      {
        "lat": 35.3965,
        "lng": 127.054344
      }
    ],
    "color": "#2486a1",
    "start_name": "화장실 / 갈림길 / 현수교아래 공원 쉼터",
    "length_meter": 231.1,
    "time_minute": 3
  },
  {
    "path_id": 26,
    "path": [
      {
        "lat": 35.3965,
        "lng": 127.054344
      },
      {
        "lat": 35.397652,
        "lng": 127.056076
      }
    ],
    "color": "#f3ccb5",
    "start_name": "갈림길 / 포토존",
    "length_meter": 203.6,
    "time_minute": 3
  },
  {
    "path_id": 27,
    "path": [
      {
        "lat": 35.397652,
        "lng": 127.056076
      },
      {
        "lat": 35.398407,
        "lng": 127.055931
      }
    ],
    "color": "#3e20af",
    "start_name": "강천사 모과나무 / 갈림길 / 순창 삼인대 / 절의탑",
    "length_meter": 91.8,
    "time_minute": 1
  },
  {
    "path_id": 28,
    "path": [
      {
        "lat": 35.398407,
        "lng": 127.055931
      },
      {
        "lat": 35.398972,
        "lng": 127.056099
      }
    ],
    "color": "#a341e3",
    "start_name": "강천사 / 강천사 소소원",
    "length_meter": 65.5,
    "time_minute": 1
  }
]