[
    {
        "path_id": 1,
        "name": "북한산성입구",
        "lat": 37.658173,
        "lon": 126.946442
    },
    {
        "path_id": 2,
        "name": "북한산성유료주차장",
        "lat": 37.656425,
        "lon": 126.948273
    },
    {
        "path_id": 3,
        "name": "안내소",
        "lat": 37.655254,
        "lon": 126.949341
    },
    {
        "path_id": 4,
        "name": "북한산성화장실",
        "lat": 37.655098,
        "lon": 126.949608
    },
    {
        "path_id": 5,
        "name": "갈림길 5",
        "lat": 37.654812,
        "lon": 126.950577
    },
    {
        "path_id": 6,
        "name": "야생화",
        "lat": 37.654709,
        "lon": 126.953293
    },
    {
        "path_id": 7,
        "name": "수구정화장실",
        "lat": 37.654827,
        "lon": 126.953316
    },
    {
        "path_id": 8,
        "name": "서암사",
        "lat": 37.656097,
        "lon": 126.955475
    },
    {
        "path_id": 9,
        "name": "갈림길 9",
        "lat": 37.653194,
        "lon": 126.961342
    },
    {
        "path_id": 10,
        "name": "북한동역사관옆화장실",
        "lat": 37.652672,
        "lon": 126.961952
    },
    {
        "path_id": 11,
        "name": "보리사",
        "lat": 37.652779,
        "lon": 126.962753
    },
    {
        "path_id": 12,
        "name": "개연폭포",
        "lat": 37.65369,
        "lon": 126.964867
    },
    {
        "path_id": 13,
        "name": "갈림길 16",
        "lat": 37.654312,
        "lon": 126.967285
    },
    {
        "path_id": 14,
        "name": "대동사약수터",
        "lat": 37.655251,
        "lon": 126.970039
    },
    {
        "path_id": 15,
        "name": "사찰 대동사",
        "lat": 37.655514,
        "lon": 126.970238
    },
    {
        "path_id": 16,
        "name": "백운대중턱쉄터",
        "lat": 37.65617,
        "lon": 126.975098
    },
    {
        "path_id": 17,
        "name": "예전약수암터",
        "lat": 37.656864,
        "lon": 126.975929
    },
    {
        "path_id": 18,
        "name": "사고위험지구",
        "lat": 37.6572,
        "lon": 126.978661
    },
    {
        "path_id": 19,
        "name": "갈림길 22",
        "lat": 37.657383,
        "lon": 126.978996
    },
    {
        "path_id": 20,
        "name": "백운동암문",
        "lat": 37.657646,
        "lon": 126.979378
    },
    {
        "path_id": 21,
        "name": "갈림길 24",
        "lat": 37.657616,
        "lon": 126.979507
    },
    {
        "path_id": 22,
        "name": "갈림길 25",
        "lat": 37.657803,
        "lon": 126.979469
    },
    {
        "path_id": 23,
        "name": "북한산 백운대 정상",
        "lat": 37.658661,
        "lon": 126.978142
    },
    {
        "path_id": 24,
        "name": "북한산백운대",
        "lat": 37.658722,
        "lon": 126.978088
    },
    {
        "path_id": 25,
        "name": "북한산대피소",
        "lat": 37.64909,
        "lon": 126.982399
    },
    {
        "path_id": 26,
        "name": "북한산대피소화장실",
        "lat": 37.648731,
        "lon": 126.98243
    },
    {
        "path_id": 27,
        "name": "갈림길 33",
        "lat": 37.644985,
        "lon": 126.977013
    },
    {
        "path_id": 28,
        "name": "중흥사옆 화장실",
        "lat": 37.645138,
        "lon": 126.976997
    },
    {
        "path_id": 29,
        "name": "중흥사",
        "lat": 37.64529,
        "lon": 126.976776
    },
    {
        "path_id": 30,
        "name": "용학사약수터",
        "lat": 37.645077,
        "lon": 126.975716
    },
    {
        "path_id": 31,
        "name": "산영루",
        "lat": 37.645008,
        "lon": 126.974152
    },
    {
        "path_id": 32,
        "name": "갈림길 38",
        "lat": 37.645237,
        "lon": 126.973427
    },
    {
        "path_id": 33,
        "name": "노적사앞 쉼터",
        "lat": 37.648247,
        "lon": 126.972931
    },
    {
        "path_id": 34,
        "name": "노적사",
        "lat": 37.64843,
        "lon": 126.971489
    },
    {
        "path_id": 35,
        "name": "중성,문",
        "lat": 37.648624,
        "lon": 126.97049
    },
    {
        "path_id": 36,
        "name": "범용사삼거리화장실",
        "lat": 37.649769,
        "lon": 126.96727
    },
    {
        "path_id": 37,
        "name": "범용사쉄터",
        "lat": 37.649773,
        "lon": 126.967178
    },
    {
        "path_id": 38,
        "name": "범용사",
        "lat": 37.64986,
        "lon": 126.967163
    },
    {
        "path_id": 39,
        "name": "갈림길 45",
        "lat": 37.650009,
        "lon": 126.966904
    },
    {
        "path_id": 40,
        "name": "선봉사",
        "lat": 37.651402,
        "lon": 126.964752
    },
    {
        "path_id": 41,
        "name": "자생식물원쉼터",
        "lat": 37.652302,
        "lon": 126.963074
    },
    {
        "path_id": 42,
        "name": "갈림길 48",
        "lat": 37.652897,
        "lon": 126.961624
    },
    {
        "path_id": 43,
        "name": "무량사",
        "lat": 37.653805,
        "lon": 126.959549
    },
    {
        "path_id": 44,
        "name": "북한동화장실",
        "lat": 37.65403,
        "lon": 126.957733
    },
    {
        "path_id": 45,
        "name": "대서문",
        "lat": 37.653622,
        "lon": 126.956131
    },
    {
        "path_id": 46,
        "name": "용암사",
        "lat": 37.652645,
        "lon": 126.953842
    },
    {
        "path_id": 48,
        "name": "갈림길 54",
        "lat": 37.652866,
        "lon": 126.951622
    },
    {
        "path_id": 49,
        "name": "북한산성분소",
        "lat": 37.65411,
        "lon": 126.951286
    },
    {
        "path_id": 50,
        "name": "산들건강밥상",
        "lat": 37.655701,
        "lon": 126.949425
    },
    {
        "path_id": 51,
        "name": "국내산장어도소매",
        "lat": 37.657421,
        "lon": 126.94693
    },
    {
        "path_id": 52,
        "name": "북한산성입구 정류소",
        "lat": 37.658298,
        "lon": 126.945427
    }
]