{
    "max_ele": 603.927,
    "track": [
        {
            "path_id": 1,
            "name": "북한산성입구",
            "lat": 37.65799,
            "lon": 126.945274,
            "ele": 77.915
        },
        {
            "path_id": 2,
            "name": "남도집",
            "lat": 37.658077,
            "lon": 126.945686,
            "ele": 75.345
        },
        {
            "path_id": 3,
            "name": "쉼터",
            "lat": 37.658024,
            "lon": 126.946571,
            "ele": 77.054
        },
        {
            "path_id": 4,
            "name": "매점",
            "lat": 37.656796,
            "lon": 126.94754,
            "ele": 82.582
        },
        {
            "path_id": 5,
            "name": "상가(음식점) 주차장",
            "lat": 37.656422,
            "lon": 126.947838,
            "ele": 84.179
        },
        {
            "path_id": 6,
            "name": "가야밀냉면",
            "lat": 37.655956,
            "lon": 126.947792,
            "ele": 88.303
        },
        {
            "path_id": 7,
            "name": "북한산손칼국수",
            "lat": 37.655216,
            "lon": 126.948471,
            "ele": 91.529
        },
        {
            "path_id": 8,
            "name": "북한산성탐방로 입구",
            "lat": 37.655113,
            "lon": 126.949081,
            "ele": 93.892
        },
        {
            "path_id": 9,
            "name": "자전거 거치대.",
            "lat": 37.655128,
            "lon": 126.949097,
            "ele": 91.571
        },
        {
            "path_id": 10,
            "name": "갈림길",
            "lat": 37.655148,
            "lon": 126.949074,
            "ele": 91.329
        },
        {
            "path_id": 11,
            "name": "쉼터",
            "lat": 37.654957,
            "lon": 126.949776,
            "ele": 93.721
        },
        {
            "path_id": 12,
            "name": "스마일 북한산 명품 꽈배기",
            "lat": 37.65493,
            "lon": 126.949989,
            "ele": 93.862
        },
        {
            "path_id": 13,
            "name": "쉼터",
            "lat": 37.654655,
            "lon": 126.950783,
            "ele": 101.02
        },
        {
            "path_id": 14,
            "name": "갈림길",
            "lat": 37.650135,
            "lon": 126.954033,
            "ele": 229.836
        },
        {
            "path_id": 16,
            "name": "암벽 경사로 시작점",
            "lat": 37.649448,
            "lon": 126.954735,
            "ele": 267.926
        },
        {
            "path_id": 17,
            "name": "쉼터",
            "lat": 37.64946,
            "lon": 126.956139,
            "ele": 324.427
        },
        {
            "path_id": 18,
            "name": "암릉 슬랩",
            "lat": 37.649521,
            "lon": 126.956383,
            "ele": 337.515
        },
        {
            "path_id": 19,
            "name": "쉼터",
            "lat": 37.649452,
            "lon": 126.95668,
            "ele": 358.227
        },
        {
            "path_id": 20,
            "name": "철계단",
            "lat": 37.649517,
            "lon": 126.956787,
            "ele": 362.649
        },
        {
            "path_id": 21,
            "name": "토끼바위",
            "lat": 37.649426,
            "lon": 126.957321,
            "ele": 403.198
        },
        {
            "path_id": 23,
            "name": "쉼터",
            "lat": 37.649345,
            "lon": 126.957367,
            "ele": 409.938
        },
        {
            "path_id": 24,
            "name": "성랑지",
            "lat": 37.649212,
            "lon": 126.957848,
            "ele": 425.325
        },
        {
            "path_id": 27,
            "name": "쉼터",
            "lat": 37.649174,
            "lon": 126.95787,
            "ele": 426.925
        },
        {
            "path_id": 29,
            "name": "의상봉 오르는 등산로",
            "lat": 37.648991,
            "lon": 126.958794,
            "ele": 469.4
        },
        {
            "path_id": 30,
            "name": "쉼터",
            "lat": 37.648888,
            "lon": 126.959053,
            "ele": 482.633
        },
        {
            "path_id": 35,
            "name": "의상대",
            "lat": 37.648514,
            "lon": 126.959869,
            "ele": 516.753
        },
        {
            "path_id": 38,
            "name": "의상봉",
            "lat": 37.648201,
            "lon": 126.960487,
            "ele": 518.665
        },
        {
            "path_id": 41,
            "name": "안전 쉼터",
            "lat": 37.648224,
            "lon": 126.960526,
            "ele": 519.263
        },
        {
            "path_id": 42,
            "name": "쉼터",
            "lat": 37.648125,
            "lon": 126.960564,
            "ele": 519.212
        },
        {
            "path_id": 44,
            "name": "멋진 소나무와 용출봉 조망",
            "lat": 37.647629,
            "lon": 126.960678,
            "ele": 507.384
        },
        {
            "path_id": 46,
            "name": "성랑지",
            "lat": 37.646969,
            "lon": 126.960739,
            "ele": 478.029
        },
        {
            "path_id": 50,
            "name": "가사당암문",
            "lat": 37.646217,
            "lon": 126.961067,
            "ele": 463.657
        },
        {
            "path_id": 51,
            "name": "갈림길",
            "lat": 37.646229,
            "lon": 126.961014,
            "ele": 465.4
        },
        {
            "path_id": 52,
            "name": "성랑지",
            "lat": 37.645817,
            "lon": 126.961227,
            "ele": 465.759
        },
        {
            "path_id": 54,
            "name": "용출봉 오르는 암릉길",
            "lat": 37.645008,
            "lon": 126.961655,
            "ele": 497.59
        },
        {
            "path_id": 55,
            "name": "멋진 바위",
            "lat": 37.644543,
            "lon": 126.961647,
            "ele": 531.671
        },
        {
            "path_id": 56,
            "name": "쉼터",
            "lat": 37.644524,
            "lon": 126.961571,
            "ele": 534.629
        },
        {
            "path_id": 59,
            "name": "용출봉",
            "lat": 37.643822,
            "lon": 126.961876,
            "ele": 580.979
        },
        {
            "path_id": 62,
            "name": "국립공원 구급함",
            "lat": 37.643833,
            "lon": 126.961945,
            "ele": 585.403
        },
        {
            "path_id": 64,
            "name": "조망터",
            "lat": 37.643574,
            "lon": 126.96228,
            "ele": 577.31
        },
        {
            "path_id": 65,
            "name": "할미바위",
            "lat": 37.64344,
            "lon": 126.962883,
            "ele": 567.317
        },
        {
            "path_id": 66,
            "name": "쉼터",
            "lat": 37.643364,
            "lon": 126.963417,
            "ele": 557.798
        },
        {
            "path_id": 68,
            "name": "낙뢰 발생시 대처 요령",
            "lat": 37.643215,
            "lon": 126.964104,
            "ele": 585.989
        },
        {
            "path_id": 69,
            "name": "용혈봉",
            "lat": 37.643177,
            "lon": 126.964104,
            "ele": 589.796
        },
        {
            "path_id": 71,
            "name": "쉼터",
            "lat": 37.643013,
            "lon": 126.964699,
            "ele": 586.985
        },
        {
            "path_id": 74,
            "name": "증취봉",
            "lat": 37.642368,
            "lon": 126.965599,
            "ele": 599.093
        },
        {
            "path_id": 76,
            "name": "부왕동여장",
            "lat": 37.641808,
            "lon": 126.965729,
            "ele": 581.578
        },
        {
            "path_id": 77,
            "name": "쉼터",
            "lat": 37.641464,
            "lon": 126.966049,
            "ele": 573.194
        },
        {
            "path_id": 80,
            "name": "멋진 바위",
            "lat": 37.641171,
            "lon": 126.966202,
            "ele": 554.011
        },
        {
            "path_id": 81,
            "name": "쉼터",
            "lat": 37.641193,
            "lon": 126.966225,
            "ele": 553.21
        },
        {
            "path_id": 82,
            "name": "우람한 바위들",
            "lat": 37.641327,
            "lon": 126.966316,
            "ele": 550.585
        },
        {
            "path_id": 83,
            "name": "성랑지",
            "lat": 37.641281,
            "lon": 126.966377,
            "ele": 549.729
        },
        {
            "path_id": 84,
            "name": "갈림길",
            "lat": 37.641254,
            "lon": 126.966377,
            "ele": 548.445
        },
        {
            "path_id": 85,
            "name": "성랑지",
            "lat": 37.640671,
            "lon": 126.966942,
            "ele": 541.444
        },
        {
            "path_id": 86,
            "name": "부왕동암문",
            "lat": 37.640404,
            "lon": 126.967201,
            "ele": 533.887
        },
        {
            "path_id": 87,
            "name": "갈림길",
            "lat": 37.640465,
            "lon": 126.967178,
            "ele": 535.401
        },
        {
            "path_id": 89,
            "name": "쉼터",
            "lat": 37.641018,
            "lon": 126.969109,
            "ele": 481.739
        },
        {
            "path_id": 91,
            "name": "갈림길",
            "lat": 37.64262,
            "lon": 126.970757,
            "ele": 422.962
        },
        {
            "path_id": 92,
            "name": "느티나무 밑 쉼터",
            "lat": 37.642315,
            "lon": 126.971519,
            "ele": 442.116
        },
        {
            "path_id": 93,
            "name": "부왕사지",
            "lat": 37.642338,
            "lon": 126.971344,
            "ele": 444.1
        },
        {
            "path_id": 94,
            "name": "부왕사지 느티나무",
            "lat": 37.642605,
            "lon": 126.971397,
            "ele": 440.221
        },
        {
            "path_id": 95,
            "name": "노루귀 군락지",
            "lat": 37.64262,
            "lon": 126.971031,
            "ele": 431.357
        },
        {
            "path_id": 96,
            "name": "계곡",
            "lat": 37.645004,
            "lon": 126.97287,
            "ele": 374.47
        },
        {
            "path_id": 99,
            "name": "백운동 계곡",
            "lat": 37.646542,
            "lon": 126.973145,
            "ele": 350.85
        },
        {
            "path_id": 100,
            "name": "갈림길",
            "lat": 37.648384,
            "lon": 126.972618,
            "ele": 326.929
        },
        {
            "path_id": 102,
            "name": "공덕탑",
            "lat": 37.64904,
            "lon": 126.972496,
            "ele": 344.471
        },
        {
            "path_id": 103,
            "name": "노적사",
            "lat": 37.649384,
            "lon": 126.97303,
            "ele": 354.542
        },
        {
            "path_id": 104,
            "name": "범종각",
            "lat": 37.649487,
            "lon": 126.97303,
            "ele": 355.83
        },
        {
            "path_id": 106,
            "name": "약수터",
            "lat": 37.64962,
            "lon": 126.972778,
            "ele": 352.518
        },
        {
            "path_id": 107,
            "name": "계곡, 소",
            "lat": 37.648598,
            "lon": 126.971008,
            "ele": 311.313
        },
        {
            "path_id": 108,
            "name": "중성문",
            "lat": 37.648605,
            "lon": 126.970657,
            "ele": 309.618
        },
        {
            "path_id": 110,
            "name": "노적동계곡",
            "lat": 37.648773,
            "lon": 126.969559,
            "ele": 291.95
        },
        {
            "path_id": 111,
            "name": "갈림길",
            "lat": 37.650017,
            "lon": 126.966888,
            "ele": 254.54
        },
        {
            "path_id": 112,
            "name": "법용사",
            "lat": 37.65004,
            "lon": 126.966843,
            "ele": 253.718
        },
        {
            "path_id": 113,
            "name": "계곡",
            "lat": 37.650169,
            "lon": 126.966782,
            "ele": 253.866
        },
        {
            "path_id": 117,
            "name": "북한산국립공원 자생식물원",
            "lat": 37.652088,
            "lon": 126.963394,
            "ele": 219.401
        },
        {
            "path_id": 119,
            "name": "북한동역사관",
            "lat": 37.652363,
            "lon": 126.962395,
            "ele": 213.955
        },
        {
            "path_id": 120,
            "name": "갈림길",
            "lat": 37.652897,
            "lon": 126.961624,
            "ele": 213.971
        },
        {
            "path_id": 122,
            "name": "무량사",
            "lat": 37.653843,
            "lon": 126.959312,
            "ele": 200.553
        },
        {
            "path_id": 128,
            "name": "갈림길",
            "lat": 37.65284,
            "lon": 126.954765,
            "ele": 169.837
        },
        {
            "path_id": 133,
            "name": "약수터",
            "lat": 37.651855,
            "lon": 126.953415,
            "ele": 168.04
        },
        {
            "path_id": 134,
            "name": "갈림길",
            "lat": 37.651619,
            "lon": 126.953011,
            "ele": 174.05
        },
        {
            "path_id": 135,
            "name": "북한산국립공원 북한산성분소",
            "lat": 37.654465,
            "lon": 126.950996,
            "ele": 108.309
        },
        {
            "path_id": 136,
            "name": "갈림길",
            "lat": 37.654453,
            "lon": 126.950996,
            "ele": 107.988
        }
    ]
}