{
  "max_ele": 1137.877,
  "track": [
    {
      "path_id": 0,
      "path": [
        {
          "lat": 35.6674,
          "lng": 129.002533
        },
        {
          "lat": 35.665833,
          "lng": 129.001373
        }
      ],
      "color": "#2990c2",
      "start_name": "비스 / 천문사 입구",
      "length_meter": 212.8,
      "time_minute": 3
    },
    {
      "path_id": 1,
      "path": [
        {
          "lat": 35.665833,
          "lng": 129.001373
        },
        {
          "lat": 35.665226,
          "lng": 129.001251
        }
      ],
      "color": "#45bab9",
      "start_name": "쌍두봉",
      "length_meter": 68.4,
      "time_minute": 1
    },
    {
      "path_id": 2,
      "path": [
        {
          "lat": 35.665226,
          "lng": 129.001251
        },
        {
          "lat": 35.663124,
          "lng": 129.001419
        }
      ],
      "color": "#58446e",
      "start_name": "천문사",
      "length_meter": 234.2,
      "time_minute": 3
    },
    {
      "path_id": 3,
      "path": [
        {
          "lat": 35.663124,
          "lng": 129.001419
        },
        {
          "lat": 35.658337,
          "lng": 128.998108
        }
      ],
      "color": "#81a3a7",
      "start_name": "관광자원 / 와불 / 관광자원",
      "length_meter": 615.9,
      "time_minute": 10
    },
    {
      "path_id": 4,
      "path": [
        {
          "lat": 35.658337,
          "lng": 128.998108
        },
        {
          "lat": 35.657463,
          "lng": 128.99736
        }
      ],
      "color": "#442049",
      "start_name": "쉼터",
      "length_meter": 118.4,
      "time_minute": 1
    },
    {
      "path_id": 5,
      "path": [
        {
          "lat": 35.657463,
          "lng": 128.99736
        },
        {
          "lat": 35.657021,
          "lng": 128.994507
        }
      ],
      "color": "#86686b",
      "start_name": "갈림길",
      "length_meter": 262.4,
      "time_minute": 4
    },
    {
      "path_id": 6,
      "path": [
        {
          "lat": 35.657021,
          "lng": 128.994507
        },
        {
          "lat": 35.657467,
          "lng": 128.997208
        }
      ],
      "color": "#008d89",
      "start_name": "물이 없는 나선폭포",
      "length_meter": 249.0,
      "time_minute": 4
    },
    {
      "path_id": 7,
      "path": [
        {
          "lat": 35.657467,
          "lng": 128.997208
        },
        {
          "lat": 35.657417,
          "lng": 128.997131
        }
      ],
      "color": "#5b3d74",
      "start_name": "참나무 6형제 쉼터",
      "length_meter": 8.9,
      "time_minute": 0
    },
    {
      "path_id": 8,
      "path": [
        {
          "lat": 35.657417,
          "lng": 128.997131
        },
        {
          "lat": 35.65398,
          "lng": 128.996063
        }
      ],
      "color": "#92882c",
      "start_name": "참나무 6형제",
      "length_meter": 394.2,
      "time_minute": 6
    },
    {
      "path_id": 9,
      "path": [
        {
          "lat": 35.65398,
          "lng": 128.996063
        },
        {
          "lat": 35.6534,
          "lng": 128.995575
        }
      ],
      "color": "#867364",
      "start_name": "갈림길",
      "length_meter": 78.1,
      "time_minute": 1
    },
    {
      "path_id": 10,
      "path": [
        {
          "lat": 35.6534,
          "lng": 128.995575
        },
        {
          "lat": 35.651413,
          "lng": 128.993805
        }
      ],
      "color": "#3baf8f",
      "start_name": "쉼터",
      "length_meter": 272.8,
      "time_minute": 4
    },
    {
      "path_id": 11,
      "path": [
        {
          "lat": 35.651413,
          "lng": 128.993805
        },
        {
          "lat": 35.648544,
          "lng": 128.991974
        }
      ],
      "color": "#444bb8",
      "start_name": "갈림길",
      "length_meter": 359.4,
      "time_minute": 5
    },
    {
      "path_id": 12,
      "path": [
        {
          "lat": 35.648544,
          "lng": 128.991974
        },
        {
          "lat": 35.641781,
          "lng": 128.986603
        }
      ],
      "color": "#837a30",
      "start_name": "자연경관",
      "length_meter": 895.0,
      "time_minute": 14
    },
    {
      "path_id": 13,
      "path": [
        {
          "lat": 35.641781,
          "lng": 128.986603
        },
        {
          "lat": 35.641705,
          "lng": 128.986496
        }
      ],
      "color": "#80c77e",
      "start_name": "갈림길",
      "length_meter": 12.8,
      "time_minute": 0
    },
    {
      "path_id": 14,
      "path": [
        {
          "lat": 35.641705,
          "lng": 128.986496
        },
        {
          "lat": 35.641075,
          "lng": 128.986191
        }
      ],
      "color": "#4683aa",
      "start_name": "쉼터",
      "length_meter": 75.3,
      "time_minute": 1
    },
    {
      "path_id": 15,
      "path": [
        {
          "lat": 35.641075,
          "lng": 128.986191
        },
        {
          "lat": 35.637753,
          "lng": 128.990952
        }
      ],
      "color": "#09bd5c",
      "start_name": "갈림길",
      "length_meter": 567.1,
      "time_minute": 9
    },
    {
      "path_id": 16,
      "path": [
        {
          "lat": 35.637753,
          "lng": 128.990952
        },
        {
          "lat": 35.637302,
          "lng": 128.991714
        }
      ],
      "color": "#9e975d",
      "start_name": "큰소나무",
      "length_meter": 85.2,
      "time_minute": 1
    },
    {
      "path_id": 17,
      "path": [
        {
          "lat": 35.637302,
          "lng": 128.991714
        },
        {
          "lat": 35.632477,
          "lng": 128.994675
        }
      ],
      "color": "#070207",
      "start_name": "자연경관",
      "length_meter": 599.5,
      "time_minute": 9
    },
    {
      "path_id": 18,
      "path": [
        {
          "lat": 35.632477,
          "lng": 128.994675
        },
        {
          "lat": 35.629116,
          "lng": 128.994675
        }
      ],
      "color": "#b53f11",
      "start_name": "연리지나무",
      "length_meter": 373.7,
      "time_minute": 6
    },
    {
      "path_id": 19,
      "path": [
        {
          "lat": 35.629116,
          "lng": 128.994675
        },
        {
          "lat": 35.628517,
          "lng": 128.995255
        }
      ],
      "color": "#1a6492",
      "start_name": "자연경관",
      "length_meter": 84.8,
      "time_minute": 1
    },
    {
      "path_id": 20,
      "path": [
        {
          "lat": 35.628517,
          "lng": 128.995255
        },
        {
          "lat": 35.628059,
          "lng": 128.995422
        }
      ],
      "color": "#860a40",
      "start_name": "개구멍 / 아찔한 구간 / 작은북봉 이끼군락",
      "length_meter": 75.2,
      "time_minute": 1
    },
    {
      "path_id": 21,
      "path": [
        {
          "lat": 35.628059,
          "lng": 128.995422
        },
        {
          "lat": 35.626282,
          "lng": 128.99649
        }
      ],
      "color": "#9c2802",
      "start_name": "가지산 06지점 / 억산 / 북봉",
      "length_meter": 227.6,
      "time_minute": 3
    },
    {
      "path_id": 22,
      "path": [
        {
          "lat": 35.626282,
          "lng": 128.99649
        },
        {
          "lat": 35.625504,
          "lng": 128.997253
        }
      ],
      "color": "#675636",
      "start_name": "북릉 / 북봉에서",
      "length_meter": 114.9,
      "time_minute": 1
    },
    {
      "path_id": 23,
      "path": [
        {
          "lat": 35.625504,
          "lng": 128.997253
        },
        {
          "lat": 35.633701,
          "lng": 129.019852
        }
      ],
      "color": "#3e8f32",
      "start_name": "북봉 고사목 / 북봉 / 가지산 / 북봉 / 북봉 소나무",
      "length_meter": 2245.4,
      "time_minute": 37
    },
    {
      "path_id": 24,
      "path": [
        {
          "lat": 35.633701,
          "lng": 129.019852
        },
        {
          "lat": 35.634563,
          "lng": 129.023102
        }
      ],
      "color": "#9a8231",
      "start_name": "억새",
      "length_meter": 309.0,
      "time_minute": 5
    },
    {
      "path_id": 25,
      "path": [
        {
          "lat": 35.634563,
          "lng": 129.023102
        },
        {
          "lat": 35.633923,
          "lng": 129.023361
        }
      ],
      "color": "#241e39",
      "start_name": "갈림길",
      "length_meter": 74.9,
      "time_minute": 1
    },
    {
      "path_id": 26,
      "path": [
        {
          "lat": 35.633923,
          "lng": 129.023361
        },
        {
          "lat": 35.628235,
          "lng": 129.029083
        }
      ],
      "color": "#039f60",
      "start_name": "석남사",
      "length_meter": 817.0,
      "time_minute": 13
    },
    {
      "path_id": 27,
      "path": [
        {
          "lat": 35.628235,
          "lng": 129.029083
        },
        {
          "lat": 35.625538,
          "lng": 129.031342
        }
      ],
      "color": "#0f17ac",
      "start_name": "불당폭포",
      "length_meter": 362.8,
      "time_minute": 6
    },
    {
      "path_id": 28,
      "path": [
        {
          "lat": 35.625538,
          "lng": 129.031342
        },
        {
          "lat": 35.625328,
          "lng": 129.031342
        }
      ],
      "color": "#6f271f",
      "start_name": "불당폭포 상부",
      "length_meter": 23.4,
      "time_minute": 0
    }
  ]
}