{
  "max_ele": 893.106,
  "total_length_km": "6.9km",
  "total_time": "1시간 26분",
  "track": [
    {
      "path_id": 0,
      "path": [
        {
          "lat": 35.134121,
          "lng": 126.955742
        },
        {
          "lat": 35.133877,
          "lng": 126.956558
        }
      ],
      "color": "#250f0d",
      "start_name": "증심사 입구",
      "length_meter": 79.0,
      "time_minute": 0
    },
    {
      "path_id": 1,
      "path": [
        {
          "lat": 35.133877,
          "lng": 126.956558
        },
        {
          "lat": 35.133457,
          "lng": 126.957748
        }
      ],
      "color": "#122d06",
      "start_name": "무등산 안내도",
      "length_meter": 117.9,
      "time_minute": 1
    },
    {
      "path_id": 2,
      "path": [
        {
          "lat": 35.133457,
          "lng": 126.957748
        },
        {
          "lat": 35.133369,
          "lng": 126.958725
        }
      ],
      "color": "#251f0a",
      "start_name": "갈림길",
      "length_meter": 89.4,
      "time_minute": 1
    },
    {
      "path_id": 3,
      "path": [
        {
          "lat": 35.133369,
          "lng": 126.958725
        },
        {
          "lat": 35.133022,
          "lng": 126.960114
        }
      ],
      "color": "#1c2653",
      "start_name": "증심사 입구 계곡",
      "length_meter": 132.1,
      "time_minute": 1
    },
    {
      "path_id": 4,
      "path": [
        {
          "lat": 35.133022,
          "lng": 126.960114
        },
        {
          "lat": 35.132748,
          "lng": 126.960915
        }
      ],
      "color": "#758a78",
      "start_name": "무등산권 세계지질공원센터 / 증심사지구 탐방지원센터",
      "length_meter": 80.5,
      "time_minute": 1
    },
    {
      "path_id": 5,
      "path": [
        {
          "lat": 35.132748,
          "lng": 126.960915
        },
        {
          "lat": 35.131718,
          "lng": 126.962776
        }
      ],
      "color": "#455d44",
      "start_name": "무등산 노무현길 비석 / 문빈정사 / 문빈정사 앞 공중화장실",
      "length_meter": 204.8,
      "time_minute": 3
    },
    {
      "path_id": 6,
      "path": [
        {
          "lat": 35.131718,
          "lng": 126.962776
        },
        {
          "lat": 35.129234,
          "lng": 126.967171
        }
      ],
      "color": "#8e4da2",
      "start_name": "증심교 앞 쉼터 / 갈림길 / 증심교 계곡",
      "length_meter": 485.9,
      "time_minute": 7
    },
    {
      "path_id": 7,
      "path": [
        {
          "lat": 35.129234,
          "lng": 126.967171
        },
        {
          "lat": 35.128559,
          "lng": 126.967705
        }
      ],
      "color": "#b2ad67",
      "start_name": "의재 허백련 문화유적 / 갈림길",
      "length_meter": 89.7,
      "time_minute": 1
    },
    {
      "path_id": 8,
      "path": [
        {
          "lat": 35.128559,
          "lng": 126.967705
        },
        {
          "lat": 35.12516,
          "lng": 126.970177
        }
      ],
      "color": "#4b6323",
      "start_name": "약사사 오름길 옆 계곡",
      "length_meter": 439.8,
      "time_minute": 5
    },
    {
      "path_id": 9,
      "path": [
        {
          "lat": 35.12516,
          "lng": 126.970177
        },
        {
          "lat": 35.124195,
          "lng": 126.970467
        }
      ],
      "color": "#494154",
      "start_name": "갈림길",
      "length_meter": 110.5,
      "time_minute": 1
    },
    {
      "path_id": 10,
      "path": [
        {
          "lat": 35.124195,
          "lng": 126.970467
        },
        {
          "lat": 35.12249,
          "lng": 126.971344
        }
      ],
      "color": "#ac5876",
      "start_name": "약사사 입구 쉼터",
      "length_meter": 205.7,
      "time_minute": 2
    },
    {
      "path_id": 11,
      "path": [
        {
          "lat": 35.12249,
          "lng": 126.971344
        },
        {
          "lat": 35.119583,
          "lng": 126.9729
        }
      ],
      "color": "#57b441",
      "start_name": "약사사 / 갈림길",
      "length_meter": 352.9,
      "time_minute": 5
    },
    {
      "path_id": 12,
      "path": [
        {
          "lat": 35.119583,
          "lng": 126.9729
        },
        {
          "lat": 35.118584,
          "lng": 126.983604
        }
      ],
      "color": "#778772",
      "start_name": "서인봉 사거리 쉼터 / 갈림길",
      "length_meter": 981.5,
      "time_minute": 16
    },
    {
      "path_id": 13,
      "path": [
        {
          "lat": 35.118584,
          "lng": 126.983604
        },
        {
          "lat": 35.120728,
          "lng": 126.988831
        }
      ],
      "color": "#b43ac6",
      "start_name": "중머리재 화장실 / 갈림길",
      "length_meter": 531.9,
      "time_minute": 8
    },
    {
      "path_id": 14,
      "path": [
        {
          "lat": 35.120728,
          "lng": 126.988831
        },
        {
          "lat": 35.120689,
          "lng": 126.990005
        }
      ],
      "color": "#b5225f",
      "start_name": "중봉 오름길 조망점",
      "length_meter": 106.9,
      "time_minute": 1
    },
    {
      "path_id": 15,
      "path": [
        {
          "lat": 35.120689,
          "lng": 126.990005
        },
        {
          "lat": 35.130943,
          "lng": 126.97747
        }
      ],
      "color": "#637420",
      "start_name": "중봉 암석군 / 갈림길",
      "length_meter": 1655.5,
      "time_minute": 27
    },
    {
      "path_id": 16,
      "path": [
        {
          "lat": 35.130943,
          "lng": 126.97747
        },
        {
          "lat": 35.130653,
          "lng": 126.971962
        }
      ],
      "color": "#1bc7b2",
      "start_name": "토끼등 화장실",
      "length_meter": 501.9,
      "time_minute": 6
    },
    {
      "path_id": 17,
      "path": [
        {
          "lat": 35.130653,
          "lng": 126.971962
        },
        {
          "lat": 35.131588,
          "lng": 126.96431
        }
      ],
      "color": "#322c5f",
      "start_name": "토끼등 하산길 쉼터",
      "length_meter": 703.6,
      "time_minute": 8
    },
    {
      "path_id": 18,
      "path": [
        {
          "lat": 35.131588,
          "lng": 126.96431
        },
        {
          "lat": 35.131485,
          "lng": 126.963516
        }
      ],
      "color": "#728e97",
      "start_name": "덕산계곡",
      "length_meter": 73.1,
      "time_minute": 0
    }
  ]
}