[
  {
    "path_id": 0,
    "path": [
      {
        "lat": 35.134121,
        "lng": 126.955742
      },
      {
        "lat": 35.133877,
        "lng": 126.956558
      }
    ],
    "color": "#97ba94",
    "start_name": "증심사 입구",
    "length_meter": 79.0,
    "time_minute": 1
  },
  {
    "path_id": 1,
    "path": [
      {
        "lat": 35.133877,
        "lng": 126.956558
      },
      {
        "lat": 35.133457,
        "lng": 126.957748
      }
    ],
    "color": "#467546",
    "start_name": "무등산 안내도",
    "length_meter": 117.9,
    "time_minute": 1
  },
  {
    "path_id": 2,
    "path": [
      {
        "lat": 35.133457,
        "lng": 126.957748
      },
      {
        "lat": 35.133369,
        "lng": 126.958725
      }
    ],
    "color": "#c43f75",
    "start_name": "갈림길",
    "length_meter": 89.4,
    "time_minute": 1
  },
  {
    "path_id": 3,
    "path": [
      {
        "lat": 35.133369,
        "lng": 126.958725
      },
      {
        "lat": 35.133022,
        "lng": 126.960114
      }
    ],
    "color": "#8269aa",
    "start_name": "증심사 입구 계곡",
    "length_meter": 132.1,
    "time_minute": 2
  },
  {
    "path_id": 4,
    "path": [
      {
        "lat": 35.133022,
        "lng": 126.960114
      },
      {
        "lat": 35.132748,
        "lng": 126.960915
      }
    ],
    "color": "#45227e",
    "start_name": "무등산권 세계지질공원센터 / 증심사지구 탐방지원센터",
    "length_meter": 80.5,
    "time_minute": 1
  },
  {
    "path_id": 5,
    "path": [
      {
        "lat": 35.132748,
        "lng": 126.960915
      },
      {
        "lat": 35.131718,
        "lng": 126.962776
      }
    ],
    "color": "#c6286a",
    "start_name": "무등산 노무현길 비석 / 문빈정사 / 문빈정사 앞 공중화장실",
    "length_meter": 204.8,
    "time_minute": 3
  },
  {
    "path_id": 6,
    "path": [
      {
        "lat": 35.131718,
        "lng": 126.962776
      },
      {
        "lat": 35.129234,
        "lng": 126.967171
      }
    ],
    "color": "#926a36",
    "start_name": "증심교 앞 쉼터 / 갈림길 / 증심교 계곡",
    "length_meter": 485.9,
    "time_minute": 8
  },
  {
    "path_id": 7,
    "path": [
      {
        "lat": 35.129234,
        "lng": 126.967171
      },
      {
        "lat": 35.128559,
        "lng": 126.967705
      }
    ],
    "color": "#49a9be",
    "start_name": "의재 허백련 문화유적 / 갈림길",
    "length_meter": 89.7,
    "time_minute": 1
  },
  {
    "path_id": 8,
    "path": [
      {
        "lat": 35.128559,
        "lng": 126.967705
      },
      {
        "lat": 35.12516,
        "lng": 126.970177
      }
    ],
    "color": "#4797c3",
    "start_name": "약사사 오름길 옆 계곡",
    "length_meter": 439.8,
    "time_minute": 7
  },
  {
    "path_id": 9,
    "path": [
      {
        "lat": 35.12516,
        "lng": 126.970177
      },
      {
        "lat": 35.124195,
        "lng": 126.970467
      }
    ],
    "color": "#775e8b",
    "start_name": "갈림길",
    "length_meter": 110.5,
    "time_minute": 1
  },
  {
    "path_id": 10,
    "path": [
      {
        "lat": 35.124195,
        "lng": 126.970467
      },
      {
        "lat": 35.12249,
        "lng": 126.971344
      }
    ],
    "color": "#06643e",
    "start_name": "약사사 입구 쉼터",
    "length_meter": 205.7,
    "time_minute": 3
  },
  {
    "path_id": 11,
    "path": [
      {
        "lat": 35.12249,
        "lng": 126.971344
      },
      {
        "lat": 35.119583,
        "lng": 126.9729
      }
    ],
    "color": "#bd3426",
    "start_name": "약사사 / 갈림길",
    "length_meter": 352.9,
    "time_minute": 5
  },
  {
    "path_id": 12,
    "path": [
      {
        "lat": 35.119583,
        "lng": 126.9729
      },
      {
        "lat": 35.118584,
        "lng": 126.983604
      }
    ],
    "color": "#9b6858",
    "start_name": "서인봉 사거리 쉼터 / 갈림길",
    "length_meter": 981.5,
    "time_minute": 16
  },
  {
    "path_id": 13,
    "path": [
      {
        "lat": 35.118584,
        "lng": 126.983604
      },
      {
        "lat": 35.118832,
        "lng": 126.984283
      }
    ],
    "color": "#a03eb4",
    "start_name": "중머리재 화장실",
    "length_meter": 67.6,
    "time_minute": 1
  },
  {
    "path_id": 14,
    "path": [
      {
        "lat": 35.118832,
        "lng": 126.984283
      },
      {
        "lat": 35.120728,
        "lng": 126.988831
      }
    ],
    "color": "#51916e",
    "start_name": "갈림길",
    "length_meter": 464.3,
    "time_minute": 7
  },
  {
    "path_id": 15,
    "path": [
      {
        "lat": 35.120728,
        "lng": 126.988831
      },
      {
        "lat": 35.120689,
        "lng": 126.990005
      }
    ],
    "color": "#81834f",
    "start_name": "중봉 오름길 조망점",
    "length_meter": 106.9,
    "time_minute": 1
  },
  {
    "path_id": 16,
    "path": [
      {
        "lat": 35.120689,
        "lng": 126.990005
      },
      {
        "lat": 35.130943,
        "lng": 126.97747
      }
    ],
    "color": "#5a8465",
    "start_name": "중봉 암석군 / 갈림길",
    "length_meter": 1655.5,
    "time_minute": 27
  },
  {
    "path_id": 17,
    "path": [
      {
        "lat": 35.130943,
        "lng": 126.97747
      },
      {
        "lat": 35.130653,
        "lng": 126.971962
      }
    ],
    "color": "#8a1723",
    "start_name": "토끼등 화장실",
    "length_meter": 501.9,
    "time_minute": 8
  },
  {
    "path_id": 18,
    "path": [
      {
        "lat": 35.130653,
        "lng": 126.971962
      },
      {
        "lat": 35.131588,
        "lng": 126.96431
      }
    ],
    "color": "#0f114e",
    "start_name": "토끼등 하산길 쉼터",
    "length_meter": 703.6,
    "time_minute": 11
  },
  {
    "path_id": 19,
    "path": [
      {
        "lat": 35.131588,
        "lng": 126.96431
      },
      {
        "lat": 35.131485,
        "lng": 126.963516
      }
    ],
    "color": "#4c11be",
    "start_name": "덕산계곡",
    "length_meter": 73.1,
    "time_minute": 1
  }
]