{
    "max_ele": 741.482,
    "track": [
        {
            "path_id": 2,
            "name": "계곡내 바위",
            "lat": 34.753448,
            "lon": 126.671829,
            "ele": 152.742
        },
        {
            "path_id": 3,
            "name": "동백군락지 끝지점",
            "lat": 34.754593,
            "lon": 126.681305,
            "ele": 369.656
        },
        {
            "path_id": 4,
            "name": "소국",
            "lat": 34.753769,
            "lon": 126.685226,
            "ele": 521.165
        },
        {
            "path_id": 6,
            "name": "추락사고위험지역",
            "lat": 34.765816,
            "lon": 126.70845,
            "ele": 741.482
        },
        {
            "path_id": 7,
            "name": "천황봉",
            "lat": 34.765785,
            "lon": 126.708519,
            "ele": 739.166
        },
        {
            "path_id": 9,
            "name": "구름다리",
            "lat": 34.765259,
            "lon": 126.709816,
            "ele": 709.135
        },
        {
            "path_id": 10,
            "name": "기암바위 뒤로 활성산 풍력",
            "lat": 34.765282,
            "lon": 126.709961,
            "ele": 707.724
        },
        {
            "path_id": 11,
            "name": "급경사지 붕괴위험지역",
            "lat": 34.76585,
            "lon": 126.710709,
            "ele": 701.669
        },
        {
            "path_id": 13,
            "name": "책바위",
            "lat": 34.765938,
            "lon": 126.710632,
            "ele": 701.184
        },
        {
            "path_id": 15,
            "name": "심장마비 사망 사고지역",
            "lat": 34.766102,
            "lon": 126.711906,
            "ele": 676.245
        },
        {
            "path_id": 17,
            "name": "뱀딸기꽃",
            "lat": 34.767044,
            "lon": 126.712433,
            "ele": 617.106
        },
        {
            "path_id": 19,
            "name": "재난감시용cctv",
            "lat": 34.767395,
            "lon": 126.712532,
            "ele": 621.146
        },
        {
            "path_id": 21,
            "name": "사자봉",
            "lat": 34.768505,
            "lon": 126.711967,
            "ele": 602.631
        },
        {
            "path_id": 23,
            "name": "사자봉",
            "lat": 34.768917,
            "lon": 126.711815,
            "ele": 562.14
        },
        {
            "path_id": 24,
            "name": "바람폭포",
            "lat": 34.768913,
            "lon": 126.711815,
            "ele": 559.46
        },
        {
            "path_id": 25,
            "name": "구름다리",
            "lat": 34.768929,
            "lon": 126.711823,
            "ele": 558.448
        },
        {
            "path_id": 27,
            "name": "구름다리 쉼터",
            "lat": 34.76886,
            "lon": 126.711838,
            "ele": 529.647
        },
        {
            "path_id": 28,
            "name": "구름다리",
            "lat": 34.768913,
            "lon": 126.712395,
            "ele": 519.587
        },
        {
            "path_id": 29,
            "name": "구름다리안내",
            "lat": 34.768913,
            "lon": 126.712395,
            "ele": 519.112
        },
        {
            "path_id": 30,
            "name": "사고위험지역",
            "lat": 34.76873,
            "lon": 126.712502,
            "ele": 518.174
        },
        {
            "path_id": 31,
            "name": "갈림길",
            "lat": 34.768681,
            "lon": 126.712563,
            "ele": 517.919
        },
        {
            "path_id": 32,
            "name": "탐방로안내",
            "lat": 34.768654,
            "lon": 126.712601,
            "ele": 517.51
        },
        {
            "path_id": 34,
            "name": "쉼터정자",
            "lat": 34.768593,
            "lon": 126.712631,
            "ele": 517.136
        },
        {
            "path_id": 35,
            "name": "비상구급함",
            "lat": 34.768578,
            "lon": 126.712639,
            "ele": 517.039
        },
        {
            "path_id": 37,
            "name": "급경사로 붕괴 위험지역",
            "lat": 34.76825,
            "lon": 126.712677,
            "ele": 516.045
        },
        {
            "path_id": 42,
            "name": "바위",
            "lat": 34.769539,
            "lon": 126.713928,
            "ele": 432.053
        },
        {
            "path_id": 44,
            "name": "벌쏘임주의",
            "lat": 34.771194,
            "lon": 126.716743,
            "ele": 291.105
        },
        {
            "path_id": 45,
            "name": "천황사터",
            "lat": 34.771381,
            "lon": 126.716354,
            "ele": 274.649
        },
        {
            "path_id": 47,
            "name": "천황사",
            "lat": 34.771564,
            "lon": 126.716606,
            "ele": 250.146
        }
    ]
}