[
    {
        "path_id": 1,
        "name": "갈림길",
        "lat": 34.754009,
        "lon": 126.664825
    },
    {
        "path_id": 2,
        "name": "계곡내 바위",
        "lat": 34.753448,
        "lon": 126.671829
    },
    {
        "path_id": 3,
        "name": "동백군락지 끝지점",
        "lat": 34.754593,
        "lon": 126.681305
    },
    {
        "path_id": 4,
        "name": "소국",
        "lat": 34.753769,
        "lon": 126.685226
    },
    {
        "path_id": 5,
        "name": "ㅂ기",
        "lat": 34.753738,
        "lon": 126.685295
    },
    {
        "path_id": 6,
        "name": "추락사고위험지역",
        "lat": 34.765816,
        "lon": 126.70845
    },
    {
        "path_id": 7,
        "name": "천황봉",
        "lat": 34.765785,
        "lon": 126.708519
    },
    {
        "path_id": 8,
        "name": "국가지점번호",
        "lat": 34.76524,
        "lon": 126.709816
    },
    {
        "path_id": 9,
        "name": "구름다리",
        "lat": 34.765259,
        "lon": 126.709816
    },
    {
        "path_id": 10,
        "name": "기암바위 뒤로 활성산 풍력",
        "lat": 34.765282,
        "lon": 126.709961
    },
    {
        "path_id": 11,
        "name": "급경사지 붕괴위험지역",
        "lat": 34.76585,
        "lon": 126.710709
    },
    {
        "path_id": 12,
        "name": "국가지점번호",
        "lat": 34.765934,
        "lon": 126.710648
    },
    {
        "path_id": 13,
        "name": "책바위",
        "lat": 34.765938,
        "lon": 126.710632
    },
    {
        "path_id": 15,
        "name": "심장마비 사망 사고지역",
        "lat": 34.766102,
        "lon": 126.711906
    },
    {
        "path_id": 16,
        "name": "국가지점번호",
        "lat": 34.76704,
        "lon": 126.712433
    },
    {
        "path_id": 17,
        "name": "뱀딸기꽃",
        "lat": 34.767044,
        "lon": 126.712433
    },
    {
        "path_id": 19,
        "name": "재난감시용cctv",
        "lat": 34.767395,
        "lon": 126.712532
    },
    {
        "path_id": 21,
        "name": "사자봉",
        "lat": 34.768505,
        "lon": 126.711967
    },
    {
        "path_id": 23,
        "name": "사자봉",
        "lat": 34.768917,
        "lon": 126.711815
    },
    {
        "path_id": 24,
        "name": "바람폭포",
        "lat": 34.768913,
        "lon": 126.711815
    },
    {
        "path_id": 25,
        "name": "구름다리",
        "lat": 34.768929,
        "lon": 126.711823
    },
    {
        "path_id": 27,
        "name": "구름다리 쉼터",
        "lat": 34.76886,
        "lon": 126.711838
    },
    {
        "path_id": 28,
        "name": "구름다리",
        "lat": 34.768913,
        "lon": 126.712395
    },
    {
        "path_id": 29,
        "name": "구름다리안내",
        "lat": 34.768913,
        "lon": 126.712395
    },
    {
        "path_id": 30,
        "name": "사고위험지역",
        "lat": 34.76873,
        "lon": 126.712502
    },
    {
        "path_id": 31,
        "name": "갈림길",
        "lat": 34.768681,
        "lon": 126.712563
    },
    {
        "path_id": 32,
        "name": "탐방로안내",
        "lat": 34.768654,
        "lon": 126.712601
    },
    {
        "path_id": 33,
        "name": "국가지점번호",
        "lat": 34.768654,
        "lon": 126.712601
    },
    {
        "path_id": 34,
        "name": "쉼터정자",
        "lat": 34.768593,
        "lon": 126.712631
    },
    {
        "path_id": 35,
        "name": "비상구급함",
        "lat": 34.768578,
        "lon": 126.712639
    },
    {
        "path_id": 37,
        "name": "급경사로 붕괴 위험지역",
        "lat": 34.76825,
        "lon": 126.712677
    },
    {
        "path_id": 39,
        "name": "국가지점번호",
        "lat": 34.767826,
        "lon": 126.713173
    },
    {
        "path_id": 42,
        "name": "바위",
        "lat": 34.769539,
        "lon": 126.713928
    },
    {
        "path_id": 43,
        "name": "국가지점번호",
        "lat": 34.770096,
        "lon": 126.7146
    },
    {
        "path_id": 44,
        "name": "벌쏘임주의",
        "lat": 34.771194,
        "lon": 126.716743
    },
    {
        "path_id": 45,
        "name": "천황사터",
        "lat": 34.771381,
        "lon": 126.716354
    },
    {
        "path_id": 47,
        "name": "천황사",
        "lat": 34.771564,
        "lon": 126.716606
    },
    {
        "path_id": 48,
        "name": "국가지점번호",
        "lat": 34.772469,
        "lon": 126.71817
    }
]