[
  {
    "path_id": 0,
    "path": [
      {
        "lat": 37.978519,
        "lng": 127.818161
      },
      {
        "lat": 37.978779,
        "lng": 127.816513
      }
    ],
    "color": "#ff7a3d",
    "start_name": "청평사 선착장 / 청평사 가는길",
    "length_meter": 176.7,
    "time_minute": 2
  },
  {
    "path_id": 1,
    "path": [
      {
        "lat": 37.978779,
        "lng": 127.816513
      },
      {
        "lat": 37.978512,
        "lng": 127.815361
      }
    ],
    "color": "#235334",
    "start_name": "전망대",
    "length_meter": 105.2,
    "time_minute": 1
  },
  {
    "path_id": 2,
    "path": [
      {
        "lat": 37.978512,
        "lng": 127.815361
      },
      {
        "lat": 37.982723,
        "lng": 127.811111
      }
    ],
    "color": "#df2c3b",
    "start_name": "화장실",
    "length_meter": 598.3,
    "time_minute": 9
  },
  {
    "path_id": 3,
    "path": [
      {
        "lat": 37.982723,
        "lng": 127.811111
      },
      {
        "lat": 37.9837,
        "lng": 127.810135
      }
    ],
    "color": "#3a2465",
    "start_name": "구송폭포 / 갈림길",
    "length_meter": 138.7,
    "time_minute": 2
  },
  {
    "path_id": 4,
    "path": [
      {
        "lat": 37.9837,
        "lng": 127.810135
      },
      {
        "lat": 37.985477,
        "lng": 127.809196
      }
    ],
    "color": "#9743b8",
    "start_name": "새향다원",
    "length_meter": 214.0,
    "time_minute": 3
  },
  {
    "path_id": 5,
    "path": [
      {
        "lat": 37.985477,
        "lng": 127.809196
      },
      {
        "lat": 37.985802,
        "lng": 127.808105
      }
    ],
    "color": "#0e3041",
    "start_name": "약수터 / 청평사 / 약수 / 보호수 / 화장실",
    "length_meter": 104.6,
    "time_minute": 1
  },
  {
    "path_id": 6,
    "path": [
      {
        "lat": 37.985802,
        "lng": 127.808105
      },
      {
        "lat": 37.980637,
        "lng": 127.799225
      }
    ],
    "color": "#1c5787",
    "start_name": "공주탕 / 산행기점",
    "length_meter": 980.6,
    "time_minute": 16
  },
  {
    "path_id": 7,
    "path": [
      {
        "lat": 37.980637,
        "lng": 127.799225
      },
      {
        "lat": 37.984535,
        "lng": 127.794044
      }
    ],
    "color": "#7f071a",
    "start_name": "길안내 / 끝봉",
    "length_meter": 630.5,
    "time_minute": 10
  },
  {
    "path_id": 8,
    "path": [
      {
        "lat": 37.984535,
        "lng": 127.794044
      },
      {
        "lat": 37.989346,
        "lng": 127.792747
      }
    ],
    "color": "#36072e",
    "start_name": "갈림길",
    "length_meter": 546.9,
    "time_minute": 9
  },
  {
    "path_id": 9,
    "path": [
      {
        "lat": 37.989346,
        "lng": 127.792747
      },
      {
        "lat": 37.992691,
        "lng": 127.793304
      }
    ],
    "color": "#48a930",
    "start_name": "경운산",
    "length_meter": 375.1,
    "time_minute": 6
  },
  {
    "path_id": 10,
    "path": [
      {
        "lat": 37.992691,
        "lng": 127.793304
      },
      {
        "lat": 37.993645,
        "lng": 127.793755
      }
    ],
    "color": "#cd13c6",
    "start_name": "갈림길",
    "length_meter": 113.2,
    "time_minute": 1
  },
  {
    "path_id": 11,
    "path": [
      {
        "lat": 37.993645,
        "lng": 127.793755
      },
      {
        "lat": 37.996792,
        "lng": 127.796959
      }
    ],
    "color": "#37d09b",
    "start_name": "오봉산1지점 / 오봉산 제1봉",
    "length_meter": 454.8,
    "time_minute": 7
  },
  {
    "path_id": 12,
    "path": [
      {
        "lat": 37.996792,
        "lng": 127.796959
      },
      {
        "lat": 37.998692,
        "lng": 127.801826
      }
    ],
    "color": "#2fb864",
    "start_name": "오봉산 제2봉",
    "length_meter": 475.9,
    "time_minute": 7
  },
  {
    "path_id": 13,
    "path": [
      {
        "lat": 37.998692,
        "lng": 127.801826
      },
      {
        "lat": 37.999683,
        "lng": 127.802475
      }
    ],
    "color": "#147fb6",
    "start_name": "오봉산 제3봉 / 오봉산 2지점",
    "length_meter": 124.0,
    "time_minute": 2
  },
  {
    "path_id": 14,
    "path": [
      {
        "lat": 37.999683,
        "lng": 127.802475
      },
      {
        "lat": 38.000679,
        "lng": 127.804878
      }
    ],
    "color": "#8d1707",
    "start_name": "조망",
    "length_meter": 237.9,
    "time_minute": 3
  },
  {
    "path_id": 15,
    "path": [
      {
        "lat": 38.000679,
        "lng": 127.804878
      },
      {
        "lat": 38.000114,
        "lng": 127.807129
      }
    ],
    "color": "#3fb078",
    "start_name": "청솔바위 / 갈림길",
    "length_meter": 213.0,
    "time_minute": 3
  },
  {
    "path_id": 16,
    "path": [
      {
        "lat": 38.000114,
        "lng": 127.807129
      },
      {
        "lat": 37.999706,
        "lng": 127.807732
      }
    ],
    "color": "#e2ec39",
    "start_name": "오봉산",
    "length_meter": 69.6,
    "time_minute": 1
  },
  {
    "path_id": 17,
    "path": [
      {
        "lat": 37.999706,
        "lng": 127.807732
      },
      {
        "lat": 38.00333,
        "lng": 127.815331
      }
    ],
    "color": "#b0da99",
    "start_name": "갈림길",
    "length_meter": 778.3,
    "time_minute": 12
  },
  {
    "path_id": 18,
    "path": [
      {
        "lat": 38.00333,
        "lng": 127.815331
      },
      {
        "lat": 37.984257,
        "lng": 127.818581
      }
    ],
    "color": "#9c0579",
    "start_name": "오봉산 날머리",
    "length_meter": 2139.9,
    "time_minute": 35
  },
  {
    "path_id": 19,
    "path": [
      {
        "lat": 37.984257,
        "lng": 127.818581
      },
      {
        "lat": 37.983604,
        "lng": 127.818581
      }
    ],
    "color": "#935e87",
    "start_name": "주차매표소",
    "length_meter": 72.6,
    "time_minute": 1
  },
  {
    "path_id": 20,
    "path": [
      {
        "lat": 37.983604,
        "lng": 127.818581
      },
      {
        "lat": 37.980747,
        "lng": 127.817734
      }
    ],
    "color": "#384f4a",
    "start_name": "화장실",
    "length_meter": 326.2,
    "time_minute": 5
  },
  {
    "path_id": 21,
    "path": [
      {
        "lat": 37.980747,
        "lng": 127.817734
      },
      {
        "lat": 37.979809,
        "lng": 127.817932
      }
    ],
    "color": "#764373",
    "start_name": "청평사관광지 / 화장실",
    "length_meter": 106.1,
    "time_minute": 1
  }
]