[
    {
        "name": "백운동주차장화장실",
        "lat": 35.801517,
        "lon": 128.142136
    },
    {
        "name": "식당",
        "lat": 35.801743,
        "lon": 128.141922
    },
    {
        "name": "야생화식물원",
        "lat": 35.802654,
        "lon": 128.142136
    },
    {
        "name": "쉼터",
        "lat": 35.803757,
        "lon": 128.141998
    },
    {
        "name": "백운동 탐방지원센터",
        "lat": 35.803925,
        "lon": 128.141769
    },
    {
        "name": "갈림길 10",
        "lat": 35.804104,
        "lon": 128.141571
    },
    {
        "name": "심장안전쉼터",
        "lat": 35.803833,
        "lon": 128.13887
    },
    {
        "name": "추락주의",
        "lat": 35.804108,
        "lon": 128.137527
    },
    {
        "name": "낙석주의",
        "lat": 35.804153,
        "lon": 128.137451
    },
    {
        "name": "심장안전쉼터",
        "lat": 35.804466,
        "lon": 128.136658
    },
    {
        "name": "심장안전쉼터",
        "lat": 35.805378,
        "lon": 128.135757
    },
    {
        "name": "자연경관",
        "lat": 35.805626,
        "lon": 128.13559
    },
    {
        "name": "자연경관",
        "lat": 35.806431,
        "lon": 128.134537
    },
    {
        "name": "심장안전쉼터",
        "lat": 35.807278,
        "lon": 128.133667
    },
    {
        "name": "양송이? 바위",
        "lat": 35.807812,
        "lon": 128.133438
    },
    {
        "name": "자연경관",
        "lat": 35.807858,
        "lon": 128.133423
    },
    {
        "name": "소나무",
        "lat": 35.808475,
        "lon": 128.133423
    },
    {
        "name": "낙석주위",
        "lat": 35.81007,
        "lon": 128.132828
    },
    {
        "name": "소나무가 아파요",
        "lat": 35.811848,
        "lon": 128.131012
    },
    {
        "name": "삿갓바위",
        "lat": 35.811977,
        "lon": 128.130859
    },
    {
        "name": "자연경관",
        "lat": 35.812027,
        "lon": 128.130798
    },
    {
        "name": "근육맨과 자연경관",
        "lat": 35.812504,
        "lon": 128.129211
    },
    {
        "name": "자연경관",
        "lat": 35.81255,
        "lon": 128.128937
    },
    {
        "name": "추락주의",
        "lat": 35.813541,
        "lon": 128.126312
    },
    {
        "name": "상아덤(서장대)",
        "lat": 35.813107,
        "lon": 128.123871
    },
    {
        "name": "갈림길 30",
        "lat": 35.815052,
        "lon": 128.122803
    },
    {
        "name": "서성재",
        "lat": 35.81506,
        "lon": 128.122803
    },
    {
        "name": "만물상 탐방로 예약제",
        "lat": 35.804012,
        "lon": 128.141693
    },
    {
        "name": "가야호텔사우나",
        "lat": 35.802822,
        "lon": 128.142151
    },
    {
        "name": "성주가든",
        "lat": 35.802288,
        "lon": 128.141663
    },
    {
        "name": "주차장",
        "lat": 35.801376,
        "lon": 128.142212
    }
]