[
    {
        "path_id": 1,
        "name": "팔봉산관광지",
        "lat": 37.701714,
        "lon": 127.695595
    },
    {
        "path_id": 2,
        "name": "주차장화장실",
        "lat": 37.701752,
        "lon": 127.695427
    },
    {
        "path_id": 3,
        "name": "식당",
        "lat": 37.70174,
        "lon": 127.694923
    },
    {
        "path_id": 4,
        "name": "팔봉산등산안내도",
        "lat": 37.701214,
        "lon": 127.694717
    },
    {
        "path_id": 5,
        "name": "팔봉산둘레",
        "lat": 37.701027,
        "lon": 127.695137
    },
    {
        "path_id": 6,
        "name": "홍천강",
        "lat": 37.700661,
        "lon": 127.695938
    },
    {
        "path_id": 7,
        "name": "팔봉산등산안내센터",
        "lat": 37.699402,
        "lon": 127.698975
    },
    {
        "path_id": 8,
        "name": "간이쉼터",
        "lat": 37.697334,
        "lon": 127.700493
    },
    {
        "path_id": 9,
        "name": "갈림길",
        "lat": 37.697296,
        "lon": 127.700279
    },
    {
        "path_id": 11,
        "name": "팔봉산",
        "lat": 37.696106,
        "lon": 127.699295
    },
    {
        "path_id": 15,
        "name": "갈림길",
        "lat": 37.695827,
        "lon": 127.697975
    },
    {
        "path_id": 16,
        "name": "팔봉산",
        "lat": 37.696102,
        "lon": 127.697357
    },
    {
        "path_id": 18,
        "name": "삼부인당",
        "lat": 37.695999,
        "lon": 127.696915
    },
    {
        "path_id": 19,
        "name": "전망대",
        "lat": 37.696003,
        "lon": 127.69693
    },
    {
        "path_id": 20,
        "name": "팔봉산",
        "lat": 37.695938,
        "lon": 127.696808
    },
    {
        "path_id": 22,
        "name": "간이쉼터",
        "lat": 37.695877,
        "lon": 127.696747
    },
    {
        "path_id": 24,
        "name": "팔봉산",
        "lat": 37.696304,
        "lon": 127.696213
    },
    {
        "path_id": 26,
        "name": "갈림길",
        "lat": 37.696377,
        "lon": 127.696144
    },
    {
        "path_id": 27,
        "name": "해산굴",
        "lat": 37.696457,
        "lon": 127.696014
    },
    {
        "path_id": 28,
        "name": "팔봉산",
        "lat": 37.696529,
        "lon": 127.696022
    },
    {
        "path_id": 30,
        "name": "갈림길",
        "lat": 37.696548,
        "lon": 127.695724
    },
    {
        "path_id": 31,
        "name": "팔봉산",
        "lat": 37.696526,
        "lon": 127.695526
    },
    {
        "path_id": 34,
        "name": "갈림길",
        "lat": 37.697369,
        "lon": 127.694283
    },
    {
        "path_id": 35,
        "name": "팔봉산",
        "lat": 37.698048,
        "lon": 127.693962
    },
    {
        "path_id": 37,
        "name": "갈림길",
        "lat": 37.698784,
        "lon": 127.692574
    },
    {
        "path_id": 38,
        "name": "8봉오르는길",
        "lat": 37.698784,
        "lon": 127.692558
    },
    {
        "path_id": 39,
        "name": "등산로",
        "lat": 37.700771,
        "lon": 127.691956
    },
    {
        "path_id": 40,
        "name": "팔봉산",
        "lat": 37.6991,
        "lon": 127.691971
    },
    {
        "path_id": 41,
        "name": "갈림길",
        "lat": 37.69611,
        "lon": 127.696342
    },
    {
        "path_id": 43,
        "name": "팔봉산8봉하산둘레길",
        "lat": 37.699455,
        "lon": 127.696022
    },
    {
        "path_id": 44,
        "name": "갈림길",
        "lat": 37.698925,
        "lon": 127.697411
    },
    {
        "path_id": 45,
        "name": "매표소옆에 화장실이 있네요",
        "lat": 37.698444,
        "lon": 127.699043
    },
    {
        "path_id": 46,
        "name": "노르웨이의 숲",
        "lat": 37.698406,
        "lon": 127.699814
    },
    {
        "path_id": 47,
        "name": "청담김밥",
        "lat": 37.69849,
        "lon": 127.700645
    },
    {
        "path_id": 48,
        "name": "팔봉산유원지",
        "lat": 37.700779,
        "lon": 127.695557
    },
    {
        "path_id": 49,
        "name": "사진찍기 좋은경관 명소",
        "lat": 37.701393,
        "lon": 127.696213
    }
]