[
  {
    "path_id": 0,
    "path": [
      {
        "lat": 37.280529,
        "lng": 128.086029
      },
      {
        "lat": 37.280998,
        "lng": 128.085434
      }
    ],
    "color": "#ec9b74",
    "start_name": "성남종점 / 종점주차장 / 상원산장식당",
    "length_meter": 95.6,
    "time_minute": 1
  },
  {
    "path_id": 1,
    "path": [
      {
        "lat": 37.280998,
        "lng": 128.085434
      },
      {
        "lat": 37.293766,
        "lng": 128.074097
      }
    ],
    "color": "#272797",
    "start_name": "성남탐방지원센터 / 탐방지원센터 화장실 / 계곡물",
    "length_meter": 1739.3,
    "time_minute": 28
  },
  {
    "path_id": 2,
    "path": [
      {
        "lat": 37.293766,
        "lng": 128.074097
      },
      {
        "lat": 37.29417,
        "lng": 128.069656
      }
    ],
    "color": "#05e1ae",
    "start_name": "임시주차장",
    "length_meter": 395.4,
    "time_minute": 6
  },
  {
    "path_id": 3,
    "path": [
      {
        "lat": 37.29417,
        "lng": 128.069656
      },
      {
        "lat": 37.294125,
        "lng": 128.069061
      }
    ],
    "color": "#416343",
    "start_name": "바위와 작은폭포 / 상원사탐방로 시작점 주차장",
    "length_meter": 75.8,
    "time_minute": 1
  },
  {
    "path_id": 4,
    "path": [
      {
        "lat": 37.294125,
        "lng": 128.069061
      },
      {
        "lat": 37.294281,
        "lng": 128.067368
      }
    ],
    "color": "#00dfde",
    "start_name": "치악산국립공원 알림마당 / 화장실",
    "length_meter": 152.8,
    "time_minute": 2
  },
  {
    "path_id": 5,
    "path": [
      {
        "lat": 37.294281,
        "lng": 128.067368
      },
      {
        "lat": 37.294659,
        "lng": 128.066864
      }
    ],
    "color": "#a0b560",
    "start_name": "계곡 / 계곡",
    "length_meter": 71.9,
    "time_minute": 1
  },
  {
    "path_id": 6,
    "path": [
      {
        "lat": 37.294659,
        "lng": 128.066864
      },
      {
        "lat": 37.297531,
        "lng": 128.064377
      }
    ],
    "color": "#bf1638",
    "start_name": "낙석주의",
    "length_meter": 387.8,
    "time_minute": 6
  },
  {
    "path_id": 7,
    "path": [
      {
        "lat": 37.297531,
        "lng": 128.064377
      },
      {
        "lat": 37.298119,
        "lng": 128.063324
      }
    ],
    "color": "#8aac78",
    "start_name": "의자 2개",
    "length_meter": 113.8,
    "time_minute": 1
  },
  {
    "path_id": 8,
    "path": [
      {
        "lat": 37.298119,
        "lng": 128.063324
      },
      {
        "lat": 37.301296,
        "lng": 128.056595
      }
    ],
    "color": "#aac77d",
    "start_name": "경치",
    "length_meter": 692.1,
    "time_minute": 11
  },
  {
    "path_id": 9,
    "path": [
      {
        "lat": 37.301296,
        "lng": 128.056595
      },
      {
        "lat": 37.304718,
        "lng": 128.054428
      }
    ],
    "color": "#33d123",
    "start_name": "낙석주의",
    "length_meter": 426.1,
    "time_minute": 7
  },
  {
    "path_id": 10,
    "path": [
      {
        "lat": 37.304718,
        "lng": 128.054428
      },
      {
        "lat": 37.305843,
        "lng": 128.054108
      }
    ],
    "color": "#faf342",
    "start_name": "상원사 샘터 폐쇄",
    "length_meter": 128.3,
    "time_minute": 2
  },
  {
    "path_id": 11,
    "path": [
      {
        "lat": 37.305843,
        "lng": 128.054108
      },
      {
        "lat": 37.306229,
        "lng": 128.053558
      }
    ],
    "color": "#abbef4",
    "start_name": "상원사 조망처",
    "length_meter": 64.9,
    "time_minute": 1
  },
  {
    "path_id": 12,
    "path": [
      {
        "lat": 37.306229,
        "lng": 128.053558
      },
      {
        "lat": 37.306442,
        "lng": 128.054047
      }
    ],
    "color": "#942248",
    "start_name": "자연경관 / 상원사 경내 식수",
    "length_meter": 71.5,
    "time_minute": 1
  },
  {
    "path_id": 13,
    "path": [
      {
        "lat": 37.306442,
        "lng": 128.054047
      },
      {
        "lat": 37.306637,
        "lng": 128.053223
      }
    ],
    "color": "#13d264",
    "start_name": "상원사 석탑 및 광배 / 포토존 / 까치전설의 종 / 상원사",
    "length_meter": 95.9,
    "time_minute": 1
  },
  {
    "path_id": 14,
    "path": [
      {
        "lat": 37.306637,
        "lng": 128.053223
      },
      {
        "lat": 37.3064,
        "lng": 128.053711
      }
    ],
    "color": "#9f4fc9",
    "start_name": "관광자원 / 상으ㅓㄴ사내",
    "length_meter": 70.2,
    "time_minute": 1
  },
  {
    "path_id": 15,
    "path": [
      {
        "lat": 37.3064,
        "lng": 128.053711
      },
      {
        "lat": 37.305496,
        "lng": 128.051498
      }
    ],
    "color": "#909cfe",
    "start_name": "상원사 경내 / 상원사 바깥 화장실",
    "length_meter": 257.9,
    "time_minute": 4
  },
  {
    "path_id": 16,
    "path": [
      {
        "lat": 37.305496,
        "lng": 128.051498
      },
      {
        "lat": 37.30703,
        "lng": 128.050659
      }
    ],
    "color": "#e44748",
    "start_name": "쉼터 / 갈림길",
    "length_meter": 187.0,
    "time_minute": 3
  },
  {
    "path_id": 17,
    "path": [
      {
        "lat": 37.30703,
        "lng": 128.050659
      },
      {
        "lat": 37.307152,
        "lng": 128.051788
      }
    ],
    "color": "#6e238c",
    "start_name": "바위",
    "length_meter": 100.8,
    "time_minute": 1
  },
  {
    "path_id": 18,
    "path": [
      {
        "lat": 37.307152,
        "lng": 128.051788
      },
      {
        "lat": 37.307823,
        "lng": 128.051987
      }
    ],
    "color": "#cb3c03",
    "start_name": "초망처 / 조망처",
    "length_meter": 77.1,
    "time_minute": 1
  },
  {
    "path_id": 19,
    "path": [
      {
        "lat": 37.307823,
        "lng": 128.051987
      },
      {
        "lat": 37.310459,
        "lng": 128.049698
      }
    ],
    "color": "#d77b02",
    "start_name": "치악산 남대봉 1,181m / 남대봉안전센터",
    "length_meter": 375.4,
    "time_minute": 6
  },
  {
    "path_id": 20,
    "path": [
      {
        "lat": 37.310459,
        "lng": 128.049698
      },
      {
        "lat": 37.311581,
        "lng": 128.047791
      }
    ],
    "color": "#7d5f5e",
    "start_name": "낙석주의",
    "length_meter": 209.8,
    "time_minute": 3
  },
  {
    "path_id": 21,
    "path": [
      {
        "lat": 37.311581,
        "lng": 128.047791
      },
      {
        "lat": 37.312691,
        "lng": 128.047302
      }
    ],
    "color": "#dc255b",
    "start_name": "종주능선 전망대 / 종주능선 전망대",
    "length_meter": 130.8,
    "time_minute": 2
  },
  {
    "path_id": 22,
    "path": [
      {
        "lat": 37.312691,
        "lng": 128.047302
      },
      {
        "lat": 37.313347,
        "lng": 128.045685
      }
    ],
    "color": "#e42ea2",
    "start_name": "원주시내 조망처",
    "length_meter": 160.5,
    "time_minute": 2
  },
  {
    "path_id": 23,
    "path": [
      {
        "lat": 37.313347,
        "lng": 128.045685
      },
      {
        "lat": 37.327667,
        "lng": 128.035751
      }
    ],
    "color": "#e0ce67",
    "start_name": "갈림길",
    "length_meter": 1818.6,
    "time_minute": 30
  },
  {
    "path_id": 24,
    "path": [
      {
        "lat": 37.327667,
        "lng": 128.035751
      },
      {
        "lat": 37.330711,
        "lng": 128.034546
      }
    ],
    "color": "#43cb97",
    "start_name": "쉼터",
    "length_meter": 354.9,
    "time_minute": 5
  },
  {
    "path_id": 25,
    "path": [
      {
        "lat": 37.330711,
        "lng": 128.034546
      },
      {
        "lat": 37.331032,
        "lng": 128.033875
      }
    ],
    "color": "#ae4ca6",
    "start_name": "의자 / 향로봉 삼각점 / 향로봉안전센터",
    "length_meter": 77.5,
    "time_minute": 1
  },
  {
    "path_id": 26,
    "path": [
      {
        "lat": 37.331032,
        "lng": 128.033875
      },
      {
        "lat": 37.332954,
        "lng": 128.033066
      }
    ],
    "color": "#212c8a",
    "start_name": "향로봉 1,043 / 향로봉전망대",
    "length_meter": 226.0,
    "time_minute": 3
  },
  {
    "path_id": 27,
    "path": [
      {
        "lat": 37.332954,
        "lng": 128.033066
      },
      {
        "lat": 37.333797,
        "lng": 128.026535
      }
    ],
    "color": "#edc93e",
    "start_name": "갈림길",
    "length_meter": 585.0,
    "time_minute": 9
  },
  {
    "path_id": 28,
    "path": [
      {
        "lat": 37.333797,
        "lng": 128.026535
      },
      {
        "lat": 37.333225,
        "lng": 128.026443
      }
    ],
    "color": "#74d751",
    "start_name": "보문사",
    "length_meter": 64.1,
    "time_minute": 1
  },
  {
    "path_id": 29,
    "path": [
      {
        "lat": 37.333225,
        "lng": 128.026443
      },
      {
        "lat": 37.333252,
        "lng": 128.01442
      }
    ],
    "color": "#2bb0ca",
    "start_name": "화장실 / 자연경관",
    "length_meter": 1103.5,
    "time_minute": 18
  }
]