[
  {
    "path_id": 0,
    "path": [
      {
        "lat": 37.280529,
        "lng": 128.086029
      },
      {
        "lat": 37.280499,
        "lng": 128.086151
      }
    ],
    "color": "#5030f4",
    "start_point_name": "성남종점",
    "length": 11,
    "time": "0"
  },
  {
    "path_id": 1,
    "path": [
      {
        "lat": 37.280499,
        "lng": 128.086151
      },
      {
        "lat": 37.280701,
        "lng": 128.085846
      }
    ],
    "color": "#ce7253",
    "start_point_name": "종점주차장",
    "length": 35,
    "time": "0"
  },
  {
    "path_id": 2,
    "path": [
      {
        "lat": 37.280701,
        "lng": 128.085846
      },
      {
        "lat": 37.280998,
        "lng": 128.085434
      }
    ],
    "color": "#55461d",
    "start_point_name": "상원산장식당",
    "length": 49,
    "time": "0"
  },
  {
    "path_id": 3,
    "path": [
      {
        "lat": 37.280998,
        "lng": 128.085434
      },
      {
        "lat": 37.281063,
        "lng": 128.085312
      }
    ],
    "color": "#02c6f2",
    "start_point_name": "성남탐방지원센터",
    "length": 12,
    "time": "0"
  },
  {
    "path_id": 4,
    "path": [
      {
        "lat": 37.281063,
        "lng": 128.085312
      },
      {
        "lat": 37.281307,
        "lng": 128.085052
      }
    ],
    "color": "#88ebe6",
    "start_point_name": "탐방지원센터 화장실",
    "length": 35,
    "time": "0"
  },
  {
    "path_id": 5,
    "path": [
      {
        "lat": 37.281307,
        "lng": 128.085052
      },
      {
        "lat": 37.293766,
        "lng": 128.074097
      }
    ],
    "color": "#f0b351",
    "start_point_name": "계곡물",
    "length": 1690,
    "time": "28"
  },
  {
    "path_id": 6,
    "path": [
      {
        "lat": 37.293766,
        "lng": 128.074097
      },
      {
        "lat": 37.29417,
        "lng": 128.069656
      }
    ],
    "color": "#d64f93",
    "start_point_name": "임시주차장",
    "length": 395,
    "time": "6"
  },
  {
    "path_id": 7,
    "path": [
      {
        "lat": 37.29417,
        "lng": 128.069656
      },
      {
        "lat": 37.293961,
        "lng": 128.069061
      }
    ],
    "color": "#c60dc9",
    "start_point_name": "바위와 작은폭포",
    "length": 57,
    "time": "0"
  },
  {
    "path_id": 8,
    "path": [
      {
        "lat": 37.293961,
        "lng": 128.069061
      },
      {
        "lat": 37.294125,
        "lng": 128.069061
      }
    ],
    "color": "#1f66bc",
    "start_point_name": "상원사탐방로 시작점 주차장",
    "length": 18,
    "time": "0"
  },
  {
    "path_id": 9,
    "path": [
      {
        "lat": 37.294125,
        "lng": 128.069061
      },
      {
        "lat": 37.294075,
        "lng": 128.068909
      }
    ],
    "color": "#d10796",
    "start_point_name": "치악산국립공원 알림마당",
    "length": 14,
    "time": "0"
  },
  {
    "path_id": 10,
    "path": [
      {
        "lat": 37.294075,
        "lng": 128.068909
      },
      {
        "lat": 37.294281,
        "lng": 128.067368
      }
    ],
    "color": "#c2bfcb",
    "start_point_name": "화장실",
    "length": 138,
    "time": "2"
  },
  {
    "path_id": 11,
    "path": [
      {
        "lat": 37.294281,
        "lng": 128.067368
      },
      {
        "lat": 37.294594,
        "lng": 128.067261
      }
    ],
    "color": "#afced7",
    "start_point_name": "계곡",
    "length": 36,
    "time": "0"
  },
  {
    "path_id": 12,
    "path": [
      {
        "lat": 37.294594,
        "lng": 128.067261
      },
      {
        "lat": 37.294659,
        "lng": 128.066864
      }
    ],
    "color": "#032fa0",
    "start_point_name": "계곡",
    "length": 35,
    "time": "0"
  },
  {
    "path_id": 13,
    "path": [
      {
        "lat": 37.294659,
        "lng": 128.066864
      },
      {
        "lat": 37.297531,
        "lng": 128.064377
      }
    ],
    "color": "#e44adc",
    "start_point_name": "낙석주의",
    "length": 387,
    "time": "6"
  },
  {
    "path_id": 14,
    "path": [
      {
        "lat": 37.297531,
        "lng": 128.064377
      },
      {
        "lat": 37.298119,
        "lng": 128.063324
      }
    ],
    "color": "#150fd4",
    "start_point_name": "의자 2개",
    "length": 113,
    "time": "1"
  },
  {
    "path_id": 15,
    "path": [
      {
        "lat": 37.298119,
        "lng": 128.063324
      },
      {
        "lat": 37.301296,
        "lng": 128.056595
      }
    ],
    "color": "#bf0439",
    "start_point_name": "경치",
    "length": 692,
    "time": "11"
  },
  {
    "path_id": 16,
    "path": [
      {
        "lat": 37.301296,
        "lng": 128.056595
      },
      {
        "lat": 37.304718,
        "lng": 128.054428
      }
    ],
    "color": "#62effc",
    "start_point_name": "낙석주의",
    "length": 426,
    "time": "7"
  },
  {
    "path_id": 17,
    "path": [
      {
        "lat": 37.304718,
        "lng": 128.054428
      },
      {
        "lat": 37.305843,
        "lng": 128.054108
      }
    ],
    "color": "#cef6fa",
    "start_point_name": "상원사 샘터 폐쇄",
    "length": 128,
    "time": "2"
  },
  {
    "path_id": 18,
    "path": [
      {
        "lat": 37.305843,
        "lng": 128.054108
      },
      {
        "lat": 37.306229,
        "lng": 128.053558
      }
    ],
    "color": "#345a3f",
    "start_point_name": "상원사 조망처",
    "length": 64,
    "time": "1"
  },
  {
    "path_id": 19,
    "path": [
      {
        "lat": 37.306229,
        "lng": 128.053558
      },
      {
        "lat": 37.306541,
        "lng": 128.053665
      }
    ],
    "color": "#8e3110",
    "start_point_name": "자연경관",
    "length": 35,
    "time": "0"
  },
  {
    "path_id": 20,
    "path": [
      {
        "lat": 37.306541,
        "lng": 128.053665
      },
      {
        "lat": 37.306442,
        "lng": 128.054047
      }
    ],
    "color": "#23ff1c",
    "start_point_name": "상원사 경내 식수",
    "length": 35,
    "time": "0"
  },
  {
    "path_id": 21,
    "path": [
      {
        "lat": 37.306442,
        "lng": 128.054047
      },
      {
        "lat": 37.306503,
        "lng": 128.054123
      }
    ],
    "color": "#99019f",
    "start_point_name": "상원사 석탑 및 광배",
    "length": 9,
    "time": "0"
  },
  {
    "path_id": 22,
    "path": [
      {
        "lat": 37.306503,
        "lng": 128.054123
      },
      {
        "lat": 37.306538,
        "lng": 128.054108
      }
    ],
    "color": "#9d7b71",
    "start_point_name": "포토존",
    "length": 4,
    "time": "0"
  },
  {
    "path_id": 23,
    "path": [
      {
        "lat": 37.306538,
        "lng": 128.054108
      },
      {
        "lat": 37.306656,
        "lng": 128.053879
      }
    ],
    "color": "#266b1f",
    "start_point_name": "까치전설의 종",
    "length": 24,
    "time": "0"
  },
  {
    "path_id": 24,
    "path": [
      {
        "lat": 37.306656,
        "lng": 128.053879
      },
      {
        "lat": 37.306637,
        "lng": 128.053223
      }
    ],
    "color": "#88a5bf",
    "start_point_name": "상원사",
    "length": 58,
    "time": "0"
  },
  {
    "path_id": 25,
    "path": [
      {
        "lat": 37.306637,
        "lng": 128.053223
      },
      {
        "lat": 37.306286,
        "lng": 128.053452
      }
    ],
    "color": "#5ca75b",
    "start_point_name": "관광자원",
    "length": 43,
    "time": "0"
  },
  {
    "path_id": 26,
    "path": [
      {
        "lat": 37.306286,
        "lng": 128.053452
      },
      {
        "lat": 37.3064,
        "lng": 128.053711
      }
    ],
    "color": "#23114c",
    "start_point_name": "상으ㅓㄴ사내",
    "length": 26,
    "time": "0"
  },
  {
    "path_id": 27,
    "path": [
      {
        "lat": 37.3064,
        "lng": 128.053711
      },
      {
        "lat": 37.305965,
        "lng": 128.053787
      }
    ],
    "color": "#98f4ff",
    "start_point_name": "상원사 경내",
    "length": 48,
    "time": "0"
  },
  {
    "path_id": 28,
    "path": [
      {
        "lat": 37.305965,
        "lng": 128.053787
      },
      {
        "lat": 37.305496,
        "lng": 128.051498
      }
    ],
    "color": "#0377a3",
    "start_point_name": "상원사 바깥 화장실",
    "length": 209,
    "time": "3"
  },
  {
    "path_id": 29,
    "path": [
      {
        "lat": 37.305496,
        "lng": 128.051498
      },
      {
        "lat": 37.30566,
        "lng": 128.051331
      }
    ],
    "color": "#4b01bd",
    "start_point_name": "쉼터",
    "length": 23,
    "time": "0"
  },
  {
    "path_id": 30,
    "path": [
      {
        "lat": 37.30566,
        "lng": 128.051331
      },
      {
        "lat": 37.30703,
        "lng": 128.050659
      }
    ],
    "color": "#8d99f7",
    "start_point_name": "갈림길",
    "length": 163,
    "time": "2"
  },
  {
    "path_id": 31,
    "path": [
      {
        "lat": 37.30703,
        "lng": 128.050659
      },
      {
        "lat": 37.307152,
        "lng": 128.051788
      }
    ],
    "color": "#4a56c4",
    "start_point_name": "바위",
    "length": 100,
    "time": "1"
  },
  {
    "path_id": 32,
    "path": [
      {
        "lat": 37.307152,
        "lng": 128.051788
      },
      {
        "lat": 37.307354,
        "lng": 128.051804
      }
    ],
    "color": "#c3cdbf",
    "start_point_name": "초망처",
    "length": 22,
    "time": "0"
  },
  {
    "path_id": 33,
    "path": [
      {
        "lat": 37.307354,
        "lng": 128.051804
      },
      {
        "lat": 37.307823,
        "lng": 128.051987
      }
    ],
    "color": "#6841b0",
    "start_point_name": "조망처",
    "length": 54,
    "time": "0"
  },
  {
    "path_id": 34,
    "path": [
      {
        "lat": 37.307823,
        "lng": 128.051987
      },
      {
        "lat": 37.308208,
        "lng": 128.052139
      }
    ],
    "color": "#a87eda",
    "start_point_name": "치악산 남대봉 1,181m",
    "length": 44,
    "time": "0"
  },
  {
    "path_id": 35,
    "path": [
      {
        "lat": 37.308208,
        "lng": 128.052139
      },
      {
        "lat": 37.310459,
        "lng": 128.049698
      }
    ],
    "color": "#20d784",
    "start_point_name": "남대봉안전센터",
    "length": 330,
    "time": "5"
  },
  {
    "path_id": 36,
    "path": [
      {
        "lat": 37.310459,
        "lng": 128.049698
      },
      {
        "lat": 37.311581,
        "lng": 128.047791
      }
    ],
    "color": "#4a09f7",
    "start_point_name": "낙석주의",
    "length": 209,
    "time": "3"
  },
  {
    "path_id": 37,
    "path": [
      {
        "lat": 37.311581,
        "lng": 128.047791
      },
      {
        "lat": 37.311581,
        "lng": 128.047791
      }
    ],
    "color": "#a63c59",
    "start_point_name": "종주능선 전망대",
    "length": 0,
    "time": "0"
  },
  {
    "path_id": 38,
    "path": [
      {
        "lat": 37.311581,
        "lng": 128.047791
      },
      {
        "lat": 37.312691,
        "lng": 128.047302
      }
    ],
    "color": "#a63345",
    "start_point_name": "종주능선 전망대",
    "length": 130,
    "time": "2"
  },
  {
    "path_id": 39,
    "path": [
      {
        "lat": 37.312691,
        "lng": 128.047302
      },
      {
        "lat": 37.313347,
        "lng": 128.045685
      }
    ],
    "color": "#4d5dda",
    "start_point_name": "원주시내 조망처",
    "length": 160,
    "time": "2"
  },
  {
    "path_id": 40,
    "path": [
      {
        "lat": 37.313347,
        "lng": 128.045685
      },
      {
        "lat": 37.327667,
        "lng": 128.035751
      }
    ],
    "color": "#1ba88f",
    "start_point_name": "갈림길",
    "length": 1818,
    "time": "30"
  },
  {
    "path_id": 41,
    "path": [
      {
        "lat": 37.327667,
        "lng": 128.035751
      },
      {
        "lat": 37.330711,
        "lng": 128.034546
      }
    ],
    "color": "#95da25",
    "start_point_name": "쉼터",
    "length": 354,
    "time": "5"
  },
  {
    "path_id": 42,
    "path": [
      {
        "lat": 37.330711,
        "lng": 128.034546
      },
      {
        "lat": 37.330978,
        "lng": 128.034363
      }
    ],
    "color": "#0ff29f",
    "start_point_name": "의자",
    "length": 33,
    "time": "0"
  },
  {
    "path_id": 43,
    "path": [
      {
        "lat": 37.330978,
        "lng": 128.034363
      },
      {
        "lat": 37.330986,
        "lng": 128.034134
      }
    ],
    "color": "#1b0c74",
    "start_point_name": "향로봉 삼각점",
    "length": 20,
    "time": "0"
  },
  {
    "path_id": 44,
    "path": [
      {
        "lat": 37.330986,
        "lng": 128.034134
      },
      {
        "lat": 37.331032,
        "lng": 128.033875
      }
    ],
    "color": "#7a28ac",
    "start_point_name": "향로봉안전센터",
    "length": 23,
    "time": "0"
  },
  {
    "path_id": 45,
    "path": [
      {
        "lat": 37.331032,
        "lng": 128.033875
      },
      {
        "lat": 37.331089,
        "lng": 128.033813
      }
    ],
    "color": "#b962e4",
    "start_point_name": "향로봉 1,043",
    "length": 8,
    "time": "0"
  },
  {
    "path_id": 46,
    "path": [
      {
        "lat": 37.331089,
        "lng": 128.033813
      },
      {
        "lat": 37.332954,
        "lng": 128.033066
      }
    ],
    "color": "#f5ae12",
    "start_point_name": "향로봉전망대",
    "length": 217,
    "time": "3"
  },
  {
    "path_id": 47,
    "path": [
      {
        "lat": 37.332954,
        "lng": 128.033066
      },
      {
        "lat": 37.333797,
        "lng": 128.026535
      }
    ],
    "color": "#7457e0",
    "start_point_name": "갈림길",
    "length": 584,
    "time": "9"
  },
  {
    "path_id": 48,
    "path": [
      {
        "lat": 37.333797,
        "lng": 128.026535
      },
      {
        "lat": 37.333225,
        "lng": 128.026443
      }
    ],
    "color": "#04ba0f",
    "start_point_name": "보문사",
    "length": 64,
    "time": "1"
  },
  {
    "path_id": 49,
    "path": [
      {
        "lat": 37.333225,
        "lng": 128.026443
      },
      {
        "lat": 37.333214,
        "lng": 128.026672
      }
    ],
    "color": "#cfaff6",
    "start_point_name": "화장실",
    "length": 20,
    "time": "0"
  },
  {
    "path_id": 50,
    "path": [
      {
        "lat": 37.333214,
        "lng": 128.026672
      },
      {
        "lat": 37.333252,
        "lng": 128.01442
      }
    ],
    "color": "#a69068",
    "start_point_name": "자연경관",
    "length": 1083,
    "time": "18"
  }
]