[
  {
    "path_id": 0,
    "path": [
      {
        "lat": 37.280529,
        "lng": 128.086029
      },
      {
        "lat": 37.280998,
        "lng": 128.085434
      }
    ],
    "color": "#5d240b",
    "start_name": "성남종점 / 종점주차장 / 상원산장식당",
    "length_meter": 95.6,
    "time_minute": 1
  },
  {
    "path_id": 1,
    "path": [
      {
        "lat": 37.280998,
        "lng": 128.085434
      },
      {
        "lat": 37.293766,
        "lng": 128.074097
      }
    ],
    "color": "#b34ff2",
    "start_name": "성남탐방지원센터 / 탐방지원센터 화장실 / 계곡물",
    "length_meter": 1739.3,
    "time_minute": 28
  },
  {
    "path_id": 2,
    "path": [
      {
        "lat": 37.293766,
        "lng": 128.074097
      },
      {
        "lat": 37.29417,
        "lng": 128.069656
      }
    ],
    "color": "#fc7637",
    "start_name": "임시주차장",
    "length_meter": 395.4,
    "time_minute": 6
  },
  {
    "path_id": 3,
    "path": [
      {
        "lat": 37.29417,
        "lng": 128.069656
      },
      {
        "lat": 37.294125,
        "lng": 128.069061
      }
    ],
    "color": "#3441c0",
    "start_name": "바위와 작은폭포 / 상원사탐방로 시작점 주차장",
    "length_meter": 75.8,
    "time_minute": 1
  },
  {
    "path_id": 4,
    "path": [
      {
        "lat": 37.294125,
        "lng": 128.069061
      },
      {
        "lat": 37.294281,
        "lng": 128.067368
      }
    ],
    "color": "#39cb68",
    "start_name": "치악산국립공원 알림마당 / 화장실",
    "length_meter": 152.8,
    "time_minute": 2
  },
  {
    "path_id": 5,
    "path": [
      {
        "lat": 37.294281,
        "lng": 128.067368
      },
      {
        "lat": 37.294659,
        "lng": 128.066864
      }
    ],
    "color": "#47cbb1",
    "start_name": "계곡",
    "length_meter": 61.3,
    "time_minute": 1
  },
  {
    "path_id": 6,
    "path": [
      {
        "lat": 37.294659,
        "lng": 128.066864
      },
      {
        "lat": 37.297531,
        "lng": 128.064377
      }
    ],
    "color": "#009b6c",
    "start_name": "낙석주의",
    "length_meter": 387.8,
    "time_minute": 6
  },
  {
    "path_id": 7,
    "path": [
      {
        "lat": 37.297531,
        "lng": 128.064377
      },
      {
        "lat": 37.298119,
        "lng": 128.063324
      }
    ],
    "color": "#1500d9",
    "start_name": "의자 2개",
    "length_meter": 113.8,
    "time_minute": 1
  },
  {
    "path_id": 8,
    "path": [
      {
        "lat": 37.298119,
        "lng": 128.063324
      },
      {
        "lat": 37.301296,
        "lng": 128.056595
      }
    ],
    "color": "#dd349a",
    "start_name": "경치",
    "length_meter": 692.1,
    "time_minute": 11
  },
  {
    "path_id": 9,
    "path": [
      {
        "lat": 37.301296,
        "lng": 128.056595
      },
      {
        "lat": 37.304718,
        "lng": 128.054428
      }
    ],
    "color": "#88b259",
    "start_name": "낙석주의",
    "length_meter": 426.1,
    "time_minute": 7
  },
  {
    "path_id": 10,
    "path": [
      {
        "lat": 37.304718,
        "lng": 128.054428
      },
      {
        "lat": 37.305843,
        "lng": 128.054108
      }
    ],
    "color": "#1fe3fd",
    "start_name": "상원사 샘터 폐쇄",
    "length_meter": 128.3,
    "time_minute": 2
  },
  {
    "path_id": 11,
    "path": [
      {
        "lat": 37.305843,
        "lng": 128.054108
      },
      {
        "lat": 37.306229,
        "lng": 128.053558
      }
    ],
    "color": "#e35b0c",
    "start_name": "상원사 조망처",
    "length_meter": 64.9,
    "time_minute": 1
  },
  {
    "path_id": 12,
    "path": [
      {
        "lat": 37.306229,
        "lng": 128.053558
      },
      {
        "lat": 37.306442,
        "lng": 128.054047
      }
    ],
    "color": "#352381",
    "start_name": "자연경관 / 상원사 경내 식수",
    "length_meter": 71.5,
    "time_minute": 1
  },
  {
    "path_id": 13,
    "path": [
      {
        "lat": 37.306442,
        "lng": 128.054047
      },
      {
        "lat": 37.306637,
        "lng": 128.053223
      }
    ],
    "color": "#02e92c",
    "start_name": "상원사 석탑 및 광배 / 포토존 / 까치전설의 종 / 상원사",
    "length_meter": 95.9,
    "time_minute": 1
  },
  {
    "path_id": 14,
    "path": [
      {
        "lat": 37.306637,
        "lng": 128.053223
      },
      {
        "lat": 37.3064,
        "lng": 128.053711
      }
    ],
    "color": "#1982dc",
    "start_name": "관광자원 / 상으ㅓㄴ사내",
    "length_meter": 70.2,
    "time_minute": 1
  },
  {
    "path_id": 15,
    "path": [
      {
        "lat": 37.3064,
        "lng": 128.053711
      },
      {
        "lat": 37.30566,
        "lng": 128.051331
      }
    ],
    "color": "#84dd27",
    "start_name": "상원사 경내 / 상원사 바깥 화장실",
    "length_meter": 268.7,
    "time_minute": 4
  },
  {
    "path_id": 16,
    "path": [
      {
        "lat": 37.30566,
        "lng": 128.051331
      },
      {
        "lat": 37.30703,
        "lng": 128.050659
      }
    ],
    "color": "#1c3df9",
    "start_name": "갈림길",
    "length_meter": 163.5,
    "time_minute": 2
  },
  {
    "path_id": 17,
    "path": [
      {
        "lat": 37.30703,
        "lng": 128.050659
      },
      {
        "lat": 37.307152,
        "lng": 128.051788
      }
    ],
    "color": "#16d0e7",
    "start_name": "바위",
    "length_meter": 100.8,
    "time_minute": 1
  },
  {
    "path_id": 18,
    "path": [
      {
        "lat": 37.307152,
        "lng": 128.051788
      },
      {
        "lat": 37.307823,
        "lng": 128.051987
      }
    ],
    "color": "#8c0fc3",
    "start_name": "초망처 / 조망처",
    "length_meter": 77.1,
    "time_minute": 1
  },
  {
    "path_id": 19,
    "path": [
      {
        "lat": 37.307823,
        "lng": 128.051987
      },
      {
        "lat": 37.310459,
        "lng": 128.049698
      }
    ],
    "color": "#6b9d3a",
    "start_name": "치악산 남대봉 1,181m / 남대봉안전센터",
    "length_meter": 375.4,
    "time_minute": 6
  },
  {
    "path_id": 20,
    "path": [
      {
        "lat": 37.310459,
        "lng": 128.049698
      },
      {
        "lat": 37.311581,
        "lng": 128.047791
      }
    ],
    "color": "#8d67f0",
    "start_name": "낙석주의",
    "length_meter": 209.8,
    "time_minute": 3
  },
  {
    "path_id": 21,
    "path": [
      {
        "lat": 37.311581,
        "lng": 128.047791
      },
      {
        "lat": 37.312691,
        "lng": 128.047302
      }
    ],
    "color": "#a796dd",
    "start_name": "종주능선 전망대",
    "length_meter": 130.8,
    "time_minute": 2
  },
  {
    "path_id": 22,
    "path": [
      {
        "lat": 37.312691,
        "lng": 128.047302
      },
      {
        "lat": 37.313347,
        "lng": 128.045685
      }
    ],
    "color": "#17dbfd",
    "start_name": "원주시내 조망처",
    "length_meter": 160.5,
    "time_minute": 2
  },
  {
    "path_id": 23,
    "path": [
      {
        "lat": 37.313347,
        "lng": 128.045685
      },
      {
        "lat": 37.330711,
        "lng": 128.034546
      }
    ],
    "color": "#d2b2cf",
    "start_name": "갈림길",
    "length_meter": 2167.5,
    "time_minute": 36
  },
  {
    "path_id": 24,
    "path": [
      {
        "lat": 37.330711,
        "lng": 128.034546
      },
      {
        "lat": 37.331032,
        "lng": 128.033875
      }
    ],
    "color": "#357b40",
    "start_name": "의자 / 향로봉 삼각점 / 향로봉안전센터",
    "length_meter": 77.5,
    "time_minute": 1
  },
  {
    "path_id": 25,
    "path": [
      {
        "lat": 37.331032,
        "lng": 128.033875
      },
      {
        "lat": 37.332954,
        "lng": 128.033066
      }
    ],
    "color": "#261ac9",
    "start_name": "향로봉 1,043 / 향로봉전망대",
    "length_meter": 226.0,
    "time_minute": 3
  },
  {
    "path_id": 26,
    "path": [
      {
        "lat": 37.332954,
        "lng": 128.033066
      },
      {
        "lat": 37.333797,
        "lng": 128.026535
      }
    ],
    "color": "#9877cd",
    "start_name": "갈림길",
    "length_meter": 585.0,
    "time_minute": 9
  },
  {
    "path_id": 27,
    "path": [
      {
        "lat": 37.333797,
        "lng": 128.026535
      },
      {
        "lat": 37.333225,
        "lng": 128.026443
      }
    ],
    "color": "#fe8fd3",
    "start_name": "보문사",
    "length_meter": 64.1,
    "time_minute": 1
  },
  {
    "path_id": 28,
    "path": [
      {
        "lat": 37.333225,
        "lng": 128.026443
      },
      {
        "lat": 37.333252,
        "lng": 128.01442
      }
    ],
    "color": "#be5d72",
    "start_name": "화장실 / 자연경관",
    "length_meter": 1103.5,
    "time_minute": 18
  }
]