[
  {
    "path_id": 0,
    "path": [
      {
        "lat": 35.644196,
        "lng": 127.61631
      },
      {
        "lat": 35.644199,
        "lng": 127.616287
      }
    ],
    "color": "#fac0fa",
    "start_point_name": "장안산(들머리 무룡고개)",
    "length": 2,
    "time": "0"
  },
  {
    "path_id": 1,
    "path": [
      {
        "lat": 35.644199,
        "lng": 127.616287
      },
      {
        "lat": 35.644176,
        "lng": 127.616539
      }
    ],
    "color": "#5b4415",
    "start_point_name": "주차장",
    "length": 22,
    "time": "0"
  },
  {
    "path_id": 2,
    "path": [
      {
        "lat": 35.644176,
        "lng": 127.616539
      },
      {
        "lat": 35.643829,
        "lng": 127.616257
      }
    ],
    "color": "#438e70",
    "start_point_name": "화장실",
    "length": 46,
    "time": "0"
  },
  {
    "path_id": 3,
    "path": [
      {
        "lat": 35.643829,
        "lng": 127.616257
      },
      {
        "lat": 35.643379,
        "lng": 127.616165
      }
    ],
    "color": "#7dc63f",
    "start_point_name": "벽계쉼터",
    "length": 50,
    "time": "0"
  },
  {
    "path_id": 4,
    "path": [
      {
        "lat": 35.643379,
        "lng": 127.616165
      },
      {
        "lat": 35.643341,
        "lng": 127.616226
      }
    ],
    "color": "#d1fde3",
    "start_point_name": "갈림길",
    "length": 6,
    "time": "0"
  },
  {
    "path_id": 5,
    "path": [
      {
        "lat": 35.643341,
        "lng": 127.616226
      },
      {
        "lat": 35.643585,
        "lng": 127.613579
      }
    ],
    "color": "#f20705",
    "start_point_name": "장안산입구",
    "length": 240,
    "time": "4"
  },
  {
    "path_id": 6,
    "path": [
      {
        "lat": 35.643585,
        "lng": 127.613579
      },
      {
        "lat": 35.643448,
        "lng": 127.612816
      }
    ],
    "color": "#1ddef8",
    "start_point_name": "갈림길",
    "length": 70,
    "time": "1"
  },
  {
    "path_id": 7,
    "path": [
      {
        "lat": 35.643448,
        "lng": 127.612816
      },
      {
        "lat": 35.643238,
        "lng": 127.612244
      }
    ],
    "color": "#3d6891",
    "start_point_name": "쉼터",
    "length": 56,
    "time": "0"
  },
  {
    "path_id": 8,
    "path": [
      {
        "lat": 35.643238,
        "lng": 127.612244
      },
      {
        "lat": 35.637806,
        "lng": 127.60437
      }
    ],
    "color": "#61450e",
    "start_point_name": "갈림길",
    "length": 933,
    "time": "15"
  },
  {
    "path_id": 9,
    "path": [
      {
        "lat": 35.637806,
        "lng": 127.60437
      },
      {
        "lat": 35.637821,
        "lng": 127.604355
      }
    ],
    "color": "#89513a",
    "start_point_name": "갈림길",
    "length": 2,
    "time": "0"
  },
  {
    "path_id": 10,
    "path": [
      {
        "lat": 35.637821,
        "lng": 127.604355
      },
      {
        "lat": 35.634937,
        "lng": 127.603676
      }
    ],
    "color": "#65c7c3",
    "start_point_name": "쉼터",
    "length": 326,
    "time": "5"
  },
  {
    "path_id": 11,
    "path": [
      {
        "lat": 35.634937,
        "lng": 127.603676
      },
      {
        "lat": 35.634937,
        "lng": 127.603676
      }
    ],
    "color": "#06a88a",
    "start_point_name": "조망터",
    "length": 0,
    "time": "0"
  },
  {
    "path_id": 12,
    "path": [
      {
        "lat": 35.634937,
        "lng": 127.603676
      },
      {
        "lat": 35.63253,
        "lng": 127.600334
      }
    ],
    "color": "#8d793c",
    "start_point_name": "조망터",
    "length": 403,
    "time": "6"
  },
  {
    "path_id": 13,
    "path": [
      {
        "lat": 35.63253,
        "lng": 127.600334
      },
      {
        "lat": 35.631104,
        "lng": 127.599632
      }
    ],
    "color": "#cd3791",
    "start_point_name": "조망점",
    "length": 170,
    "time": "2"
  },
  {
    "path_id": 14,
    "path": [
      {
        "lat": 35.631104,
        "lng": 127.599632
      },
      {
        "lat": 35.629917,
        "lng": 127.597137
      }
    ],
    "color": "#3492da",
    "start_point_name": "국가지점번호",
    "length": 261,
    "time": "4"
  },
  {
    "path_id": 15,
    "path": [
      {
        "lat": 35.629917,
        "lng": 127.597137
      },
      {
        "lat": 35.629219,
        "lng": 127.595795
      }
    ],
    "color": "#9ebc2b",
    "start_point_name": "쉼터",
    "length": 143,
    "time": "2"
  },
  {
    "path_id": 16,
    "path": [
      {
        "lat": 35.629219,
        "lng": 127.595795
      },
      {
        "lat": 35.629162,
        "lng": 127.595116
      }
    ],
    "color": "#71515d",
    "start_point_name": "데크계단",
    "length": 61,
    "time": "1"
  },
  {
    "path_id": 17,
    "path": [
      {
        "lat": 35.629162,
        "lng": 127.595116
      },
      {
        "lat": 35.629047,
        "lng": 127.595024
      }
    ],
    "color": "#2a94a9",
    "start_point_name": "헬리포트",
    "length": 15,
    "time": "0"
  },
  {
    "path_id": 18,
    "path": [
      {
        "lat": 35.629047,
        "lng": 127.595024
      },
      {
        "lat": 35.629036,
        "lng": 127.595131
      }
    ],
    "color": "#ab2bae",
    "start_point_name": "갈림길",
    "length": 9,
    "time": "0"
  },
  {
    "path_id": 19,
    "path": [
      {
        "lat": 35.629036,
        "lng": 127.595131
      },
      {
        "lat": 35.629086,
        "lng": 127.595222
      }
    ],
    "color": "#f79c0f",
    "start_point_name": "감시카메라",
    "length": 9,
    "time": "0"
  },
  {
    "path_id": 20,
    "path": [
      {
        "lat": 35.629086,
        "lng": 127.595222
      },
      {
        "lat": 35.626667,
        "lng": 127.593552
      }
    ],
    "color": "#2b338a",
    "start_point_name": "장안산",
    "length": 308,
    "time": "5"
  },
  {
    "path_id": 21,
    "path": [
      {
        "lat": 35.626667,
        "lng": 127.593552
      },
      {
        "lat": 35.619705,
        "lng": 127.590462
      }
    ],
    "color": "#558bda",
    "start_point_name": "갈림길",
    "length": 822,
    "time": "13"
  },
  {
    "path_id": 22,
    "path": [
      {
        "lat": 35.619705,
        "lng": 127.590462
      },
      {
        "lat": 35.619301,
        "lng": 127.590286
      }
    ],
    "color": "#6d20ae",
    "start_point_name": "하봉",
    "length": 47,
    "time": "0"
  },
  {
    "path_id": 23,
    "path": [
      {
        "lat": 35.619301,
        "lng": 127.590286
      },
      {
        "lat": 35.619553,
        "lng": 127.585258
      }
    ],
    "color": "#efd705",
    "start_point_name": "갈림길",
    "length": 455,
    "time": "7"
  },
  {
    "path_id": 24,
    "path": [
      {
        "lat": 35.619553,
        "lng": 127.585258
      },
      {
        "lat": 35.624043,
        "lng": 127.575943
      }
    ],
    "color": "#5d991c",
    "start_point_name": "밧줄구간",
    "length": 978,
    "time": "16"
  },
  {
    "path_id": 25,
    "path": [
      {
        "lat": 35.624043,
        "lng": 127.575943
      },
      {
        "lat": 35.624043,
        "lng": 127.575386
      }
    ],
    "color": "#b7243e",
    "start_point_name": "거리목",
    "length": 50,
    "time": "0"
  },
  {
    "path_id": 26,
    "path": [
      {
        "lat": 35.624043,
        "lng": 127.575386
      },
      {
        "lat": 35.624138,
        "lng": 127.575356
      }
    ],
    "color": "#5f74fb",
    "start_point_name": "쉼터",
    "length": 10,
    "time": "0"
  },
  {
    "path_id": 27,
    "path": [
      {
        "lat": 35.624138,
        "lng": 127.575356
      },
      {
        "lat": 35.628799,
        "lng": 127.569244
      }
    ],
    "color": "#cec60a",
    "start_point_name": "갈림길",
    "length": 757,
    "time": "12"
  },
  {
    "path_id": 28,
    "path": [
      {
        "lat": 35.628799,
        "lng": 127.569244
      },
      {
        "lat": 35.620365,
        "lng": 127.56192
      }
    ],
    "color": "#071df6",
    "start_point_name": "거리목",
    "length": 1147,
    "time": "19"
  },
  {
    "path_id": 29,
    "path": [
      {
        "lat": 35.620365,
        "lng": 127.56192
      },
      {
        "lat": 35.619701,
        "lng": 127.562271
      }
    ],
    "color": "#41be0f",
    "start_point_name": "조망점",
    "length": 80,
    "time": "1"
  },
  {
    "path_id": 30,
    "path": [
      {
        "lat": 35.619701,
        "lng": 127.562271
      },
      {
        "lat": 35.619705,
        "lng": 127.562256
      }
    ],
    "color": "#ed9bec",
    "start_point_name": "화장실",
    "length": 1,
    "time": "0"
  }
]