[
  {
    "path_id": 0,
    "path": [
      {
        "lat": 35.644196,
        "lng": 127.61631
      },
      {
        "lat": 35.643829,
        "lng": 127.616257
      }
    ],
    "color": "#db840a",
    "start_name": "장안산(들머리 무룡고개) / 화장실",
    "length_meter": 67.1,
    "time_minute": 1
  },
  {
    "path_id": 1,
    "path": [
      {
        "lat": 35.643829,
        "lng": 127.616257
      },
      {
        "lat": 35.643585,
        "lng": 127.613579
      }
    ],
    "color": "#0660f7",
    "start_name": "벽계쉼터 / 갈림길 / 장안산입구",
    "length_meter": 298.4,
    "time_minute": 4
  },
  {
    "path_id": 2,
    "path": [
      {
        "lat": 35.643585,
        "lng": 127.613579
      },
      {
        "lat": 35.634937,
        "lng": 127.603676
      }
    ],
    "color": "#757075",
    "start_name": "갈림길",
    "length_meter": 1313.6,
    "time_minute": 21
  },
  {
    "path_id": 3,
    "path": [
      {
        "lat": 35.634937,
        "lng": 127.603676
      },
      {
        "lat": 35.631104,
        "lng": 127.599632
      }
    ],
    "color": "#fb997a",
    "start_name": "조망터",
    "length_meter": 561.5,
    "time_minute": 9
  },
  {
    "path_id": 4,
    "path": [
      {
        "lat": 35.631104,
        "lng": 127.599632
      },
      {
        "lat": 35.629219,
        "lng": 127.595795
      }
    ],
    "color": "#7c97b7",
    "start_name": "국가지점번호",
    "length_meter": 405.2,
    "time_minute": 6
  },
  {
    "path_id": 5,
    "path": [
      {
        "lat": 35.629219,
        "lng": 127.595795
      },
      {
        "lat": 35.629162,
        "lng": 127.595116
      }
    ],
    "color": "#84a65e",
    "start_name": "데크계단",
    "length_meter": 61.7,
    "time_minute": 1
  },
  {
    "path_id": 6,
    "path": [
      {
        "lat": 35.629162,
        "lng": 127.595116
      },
      {
        "lat": 35.626667,
        "lng": 127.593552
      }
    ],
    "color": "#2808fd",
    "start_name": "헬리포트 / 갈림길 / 감시카메라 / 장안산",
    "length_meter": 343.4,
    "time_minute": 5
  },
  {
    "path_id": 7,
    "path": [
      {
        "lat": 35.626667,
        "lng": 127.593552
      },
      {
        "lat": 35.619705,
        "lng": 127.590462
      }
    ],
    "color": "#13a7ea",
    "start_name": "갈림길",
    "length_meter": 823.0,
    "time_minute": 13
  },
  {
    "path_id": 8,
    "path": [
      {
        "lat": 35.619705,
        "lng": 127.590462
      },
      {
        "lat": 35.619553,
        "lng": 127.585258
      }
    ],
    "color": "#43de2d",
    "start_name": "하봉 / 갈림길",
    "length_meter": 503.0,
    "time_minute": 8
  },
  {
    "path_id": 9,
    "path": [
      {
        "lat": 35.619553,
        "lng": 127.585258
      },
      {
        "lat": 35.624043,
        "lng": 127.575943
      }
    ],
    "color": "#08e3ea",
    "start_name": "밧줄구간",
    "length_meter": 978.9,
    "time_minute": 16
  },
  {
    "path_id": 10,
    "path": [
      {
        "lat": 35.624043,
        "lng": 127.575943
      },
      {
        "lat": 35.628799,
        "lng": 127.569244
      }
    ],
    "color": "#d2dca9",
    "start_name": "거리목 / 갈림길",
    "length_meter": 811.6,
    "time_minute": 13
  },
  {
    "path_id": 11,
    "path": [
      {
        "lat": 35.628799,
        "lng": 127.569244
      },
      {
        "lat": 35.619701,
        "lng": 127.562271
      }
    ],
    "color": "#d92e1a",
    "start_name": "거리목",
    "length_meter": 1191.9,
    "time_minute": 19
  },
  {
    "path_id": 12,
    "path": [
      {
        "lat": 35.619701,
        "lng": 127.562271
      },
      {
        "lat": 35.619705,
        "lng": 127.562256
      }
    ],
    "color": "#889f68",
    "start_name": "화장실",
    "length_meter": 1.4,
    "time_minute": 0
  }
]