{
  "max_ele": 865.439,
  "total_length_km": "4.2km",
  "total_time": "0시간 52분",
  "track": [
    {
      "path_id": 0,
      "path": [
        {
          "lat": 37.685078,
          "lng": 128.02623
        },
        {
          "lat": 37.697605,
          "lng": 128.023834
        }
      ],
      "color": "#7e6233",
      "start_name": "공작교",
      "length_meter": 1408.8,
      "time_minute": 17
    },
    {
      "path_id": 1,
      "path": [
        {
          "lat": 37.697605,
          "lng": 128.023834
        },
        {
          "lat": 37.698345,
          "lng": 128.023499
        }
      ],
      "color": "#3c3b07",
      "start_name": "정자 쉼터",
      "length_meter": 87.4,
      "time_minute": 1
    },
    {
      "path_id": 2,
      "path": [
        {
          "lat": 37.698345,
          "lng": 128.023499
        },
        {
          "lat": 37.708534,
          "lng": 128.024292
        }
      ],
      "color": "#071388",
      "start_name": "갈림길",
      "length_meter": 1135.1,
      "time_minute": 14
    },
    {
      "path_id": 3,
      "path": [
        {
          "lat": 37.708534,
          "lng": 128.024292
        },
        {
          "lat": 37.710758,
          "lng": 128.024124
        }
      ],
      "color": "#9d75aa",
      "start_name": "노송군락지",
      "length_meter": 247.7,
      "time_minute": 3
    },
    {
      "path_id": 4,
      "path": [
        {
          "lat": 37.710758,
          "lng": 128.024124
        },
        {
          "lat": 37.714119,
          "lng": 128.016541
        }
      ],
      "color": "#a347a3",
      "start_name": "갈림길 / 노송군락지 끝",
      "length_meter": 771.2,
      "time_minute": 12
    },
    {
      "path_id": 5,
      "path": [
        {
          "lat": 37.714119,
          "lng": 128.016541
        },
        {
          "lat": 37.715527,
          "lng": 128.010406
        }
      ],
      "color": "#55c6b5",
      "start_name": "낙엽송식재지역",
      "length_meter": 561.9,
      "time_minute": 7
    }
  ]
}