[
    {
        "name": "갈림길 9",
        "lat": 36.357903,
        "lon": 127.236877
    },
    {
        "name": "순 마트",
        "lat": 36.358437,
        "lon": 127.236053
    },
    {
        "name": "천정탐방로 입구",
        "lat": 36.358551,
        "lon": 127.236076
    },
    {
        "name": "천정탐방지원센터",
        "lat": 36.358692,
        "lon": 127.235596
    },
    {
        "name": "천정탐방지원센터  입구",
        "lat": 36.358624,
        "lon": 127.235527
    },
    {
        "name": "천정탐방지원센터",
        "lat": 36.358692,
        "lon": 127.234749
    },
    {
        "name": "천정탐방지원센터  코스",
        "lat": 36.3587,
        "lon": 127.233795
    },
    {
        "name": "천정탐방지원센터  계곡",
        "lat": 36.358727,
        "lon": 127.233582
    },
    {
        "name": "낙석주의",
        "lat": 36.360504,
        "lon": 127.231834
    },
    {
        "name": "낙석주의",
        "lat": 36.361034,
        "lon": 127.231972
    },
    {
        "name": "갈림길 19",
        "lat": 36.361336,
        "lon": 127.23188
    },
    {
        "name": "등산로",
        "lat": 36.36311,
        "lon": 127.2314
    },
    {
        "name": "등산로",
        "lat": 36.363602,
        "lon": 127.230942
    }
]