[
  {
    "path_id": 0,
    "path": [
      {
        "lat": 34.75597,
        "lng": 126.657715
      },
      {
        "lat": 34.753788,
        "lng": 126.660568
      }
    ],
    "color": "#3cc161",
    "start_name": "월출산 도갑사주차장화장실 / 도갑사주차장화장실 / 월출산 도갑시코스 입구",
    "length_meter": 360.8,
    "time_minute": 6
  },
  {
    "path_id": 1,
    "path": [
      {
        "lat": 34.753788,
        "lng": 126.660568
      },
      {
        "lat": 34.75378,
        "lng": 126.660629
      }
    ],
    "color": "#2f098a",
    "start_name": "보호수 / 대중교통승강장",
    "length_meter": 97.8,
    "time_minute": 1
  },
  {
    "path_id": 2,
    "path": [
      {
        "lat": 34.75378,
        "lng": 126.660629
      },
      {
        "lat": 34.752819,
        "lng": 126.661987
      }
    ],
    "color": "#23943b",
    "start_name": "갈림길",
    "length_meter": 163.7,
    "time_minute": 2
  },
  {
    "path_id": 3,
    "path": [
      {
        "lat": 34.752819,
        "lng": 126.661987
      },
      {
        "lat": 34.75325,
        "lng": 126.663704
      }
    ],
    "color": "#3998d1",
    "start_name": "도갑사 해탈문 / 도갑사",
    "length_meter": 171.4,
    "time_minute": 2
  },
  {
    "path_id": 4,
    "path": [
      {
        "lat": 34.75325,
        "lng": 126.663704
      },
      {
        "lat": 34.753757,
        "lng": 126.664177
      }
    ],
    "color": "#335b7e",
    "start_name": "탐방로입구 / 입구",
    "length_meter": 71.8,
    "time_minute": 1
  },
  {
    "path_id": 5,
    "path": [
      {
        "lat": 34.753757,
        "lng": 126.664177
      },
      {
        "lat": 34.754002,
        "lng": 126.664841
      }
    ],
    "color": "#7f0449",
    "start_name": "목구조목",
    "length_meter": 66.5,
    "time_minute": 1
  },
  {
    "path_id": 6,
    "path": [
      {
        "lat": 34.754002,
        "lng": 126.664841
      },
      {
        "lat": 34.753357,
        "lng": 126.667465
      }
    ],
    "color": "#d78b5b",
    "start_name": "도갑사계곡 / 도선국사비각",
    "length_meter": 278.1,
    "time_minute": 4
  },
  {
    "path_id": 7,
    "path": [
      {
        "lat": 34.753357,
        "lng": 126.667465
      },
      {
        "lat": 34.753014,
        "lng": 126.668549
      }
    ],
    "color": "#35e248",
    "start_name": "갈림길",
    "length_meter": 106.1,
    "time_minute": 1
  },
  {
    "path_id": 8,
    "path": [
      {
        "lat": 34.753014,
        "lng": 126.668549
      },
      {
        "lat": 34.754936,
        "lng": 126.675858
      }
    ],
    "color": "#5cdc2c",
    "start_name": "목구조목",
    "length_meter": 701.1,
    "time_minute": 11
  },
  {
    "path_id": 9,
    "path": [
      {
        "lat": 34.754936,
        "lng": 126.675858
      },
      {
        "lat": 34.755852,
        "lng": 126.678841
      }
    ],
    "color": "#4ff1cd",
    "start_name": "갈림길",
    "length_meter": 290.9,
    "time_minute": 4
  },
  {
    "path_id": 10,
    "path": [
      {
        "lat": 34.755852,
        "lng": 126.678841
      },
      {
        "lat": 34.756195,
        "lng": 126.680122
      }
    ],
    "color": "#b64ff4",
    "start_name": "목구조목",
    "length_meter": 123.1,
    "time_minute": 2
  },
  {
    "path_id": 11,
    "path": [
      {
        "lat": 34.756195,
        "lng": 126.680122
      },
      {
        "lat": 34.754089,
        "lng": 126.681885
      }
    ],
    "color": "#5b4dbf",
    "start_name": "갈림길",
    "length_meter": 284.2,
    "time_minute": 4
  },
  {
    "path_id": 12,
    "path": [
      {
        "lat": 34.754089,
        "lng": 126.681885
      },
      {
        "lat": 34.7533,
        "lng": 126.686104
      }
    ],
    "color": "#9fd426",
    "start_name": "목구조목",
    "length_meter": 395.3,
    "time_minute": 6
  },
  {
    "path_id": 13,
    "path": [
      {
        "lat": 34.7533,
        "lng": 126.686104
      },
      {
        "lat": 34.753971,
        "lng": 126.68692
      }
    ],
    "color": "#84a308",
    "start_name": "갈림길 / 억새밭 전망대",
    "length_meter": 115.1,
    "time_minute": 1
  },
  {
    "path_id": 14,
    "path": [
      {
        "lat": 34.753971,
        "lng": 126.68692
      },
      {
        "lat": 34.754187,
        "lng": 126.688411
      }
    ],
    "color": "#a12a89",
    "start_name": "목구조목",
    "length_meter": 138.3,
    "time_minute": 2
  },
  {
    "path_id": 15,
    "path": [
      {
        "lat": 34.754187,
        "lng": 126.688411
      },
      {
        "lat": 34.754517,
        "lng": 126.689453
      }
    ],
    "color": "#76ea0f",
    "start_name": "웨이포인트 25",
    "length_meter": 102.0,
    "time_minute": 1
  },
  {
    "path_id": 16,
    "path": [
      {
        "lat": 34.754517,
        "lng": 126.689453
      },
      {
        "lat": 34.755451,
        "lng": 126.690765
      }
    ],
    "color": "#bdface",
    "start_name": "목구조목",
    "length_meter": 158.6,
    "time_minute": 2
  },
  {
    "path_id": 17,
    "path": [
      {
        "lat": 34.755451,
        "lng": 126.690765
      },
      {
        "lat": 34.755821,
        "lng": 126.691269
      }
    ],
    "color": "#a62775",
    "start_name": "갈림길 / 목구조목",
    "length_meter": 64.9,
    "time_minute": 1
  },
  {
    "path_id": 18,
    "path": [
      {
        "lat": 34.755821,
        "lng": 126.691269
      },
      {
        "lat": 34.75705,
        "lng": 126.692703
      }
    ],
    "color": "#8a1da0",
    "start_name": "낙석주의 / 붕괴위험지역",
    "length_meter": 189.9,
    "time_minute": 3
  },
  {
    "path_id": 19,
    "path": [
      {
        "lat": 34.75705,
        "lng": 126.692703
      },
      {
        "lat": 34.759281,
        "lng": 126.692719
      }
    ],
    "color": "#23beab",
    "start_name": "목구조목 / 향로봉",
    "length_meter": 249.8,
    "time_minute": 4
  },
  {
    "path_id": 20,
    "path": [
      {
        "lat": 34.759281,
        "lng": 126.692719
      },
      {
        "lat": 34.760395,
        "lng": 126.693642
      }
    ],
    "color": "#54034f",
    "start_name": "갈림길",
    "length_meter": 149.8,
    "time_minute": 2
  },
  {
    "path_id": 21,
    "path": [
      {
        "lat": 34.760395,
        "lng": 126.693642
      },
      {
        "lat": 34.761494,
        "lng": 126.693703
      }
    ],
    "color": "#76e555",
    "start_name": "목구조목",
    "length_meter": 122.3,
    "time_minute": 2
  },
  {
    "path_id": 22,
    "path": [
      {
        "lat": 34.761494,
        "lng": 126.693703
      },
      {
        "lat": 34.762775,
        "lng": 126.692497
      }
    ],
    "color": "#c664c6",
    "start_name": "갈림길 / 구정봉",
    "length_meter": 227.0,
    "time_minute": 3
  },
  {
    "path_id": 23,
    "path": [
      {
        "lat": 34.762775,
        "lng": 126.692497
      },
      {
        "lat": 34.763393,
        "lng": 126.691986
      }
    ],
    "color": "#73cdce",
    "start_name": "갈림길 / 웨이포인트 48",
    "length_meter": 84.5,
    "time_minute": 1
  },
  {
    "path_id": 24,
    "path": [
      {
        "lat": 34.763393,
        "lng": 126.691986
      },
      {
        "lat": 34.764122,
        "lng": 126.690628
      }
    ],
    "color": "#11ee5c",
    "start_name": "목구조목",
    "length_meter": 148.2,
    "time_minute": 2
  },
  {
    "path_id": 25,
    "path": [
      {
        "lat": 34.764122,
        "lng": 126.690628
      },
      {
        "lat": 34.764591,
        "lng": 126.689751
      }
    ],
    "color": "#dc1f93",
    "start_name": "갈림길 / 목구조목 / 마애여래좌상 / 갈림길",
    "length_meter": 133.4,
    "time_minute": 2
  },
  {
    "path_id": 26,
    "path": [
      {
        "lat": 34.764591,
        "lng": 126.689751
      },
      {
        "lat": 34.763476,
        "lng": 126.691813
      }
    ],
    "color": "#c9aa0d",
    "start_name": "삼층석탑",
    "length_meter": 225.5,
    "time_minute": 3
  },
  {
    "path_id": 27,
    "path": [
      {
        "lat": 34.763476,
        "lng": 126.691813
      },
      {
        "lat": 34.760826,
        "lng": 126.69429
      }
    ],
    "color": "#e42e13",
    "start_name": "웨이포인트 46 / 웨이포인트 47",
    "length_meter": 371.5,
    "time_minute": 6
  },
  {
    "path_id": 28,
    "path": [
      {
        "lat": 34.760826,
        "lng": 126.69429
      },
      {
        "lat": 34.760644,
        "lng": 126.69636
      }
    ],
    "color": "#f65c9f",
    "start_name": "배틀굴",
    "length_meter": 190.2,
    "time_minute": 3
  },
  {
    "path_id": 29,
    "path": [
      {
        "lat": 34.760644,
        "lng": 126.69636
      },
      {
        "lat": 34.761196,
        "lng": 126.697639
      }
    ],
    "color": "#bf5ee6",
    "start_name": "웨이포인트 50",
    "length_meter": 132.0,
    "time_minute": 2
  },
  {
    "path_id": 30,
    "path": [
      {
        "lat": 34.761196,
        "lng": 126.697639
      },
      {
        "lat": 34.761758,
        "lng": 126.698929
      }
    ],
    "color": "#fe9c65",
    "start_name": "갈림길 / 목구조목",
    "length_meter": 133.6,
    "time_minute": 2
  },
  {
    "path_id": 31,
    "path": [
      {
        "lat": 34.761758,
        "lng": 126.698929
      },
      {
        "lat": 34.764099,
        "lng": 126.701088
      }
    ],
    "color": "#db4920",
    "start_name": "웨이포인트 54",
    "length_meter": 326.6,
    "time_minute": 5
  },
  {
    "path_id": 32,
    "path": [
      {
        "lat": 34.764099,
        "lng": 126.701088
      },
      {
        "lat": 34.76601,
        "lng": 126.702599
      }
    ],
    "color": "#24d499",
    "start_name": "갈림길 / 목구조목",
    "length_meter": 253.4,
    "time_minute": 4
  }
]