[
    {
        "path_id": 1,
        "name": "광덕고개",
        "lat": 38.101768,
        "lon": 127.443611
    },
    {
        "path_id": 2,
        "name": "산장가든",
        "lat": 38.102077,
        "lon": 127.443382
    },
    {
        "path_id": 3,
        "name": "공용",
        "lat": 38.102497,
        "lon": 127.443405
    },
    {
        "path_id": 4,
        "name": "카폐주차장",
        "lat": 38.102592,
        "lon": 127.442863
    },
    {
        "path_id": 5,
        "name": "운암밸리",
        "lat": 38.104446,
        "lon": 127.442604
    },
    {
        "path_id": 6,
        "name": "갈림길",
        "lat": 38.104469,
        "lon": 127.442635
    },
    {
        "path_id": 7,
        "name": "편의점",
        "lat": 38.106236,
        "lon": 127.443893
    },
    {
        "path_id": 8,
        "name": "산속가든",
        "lat": 38.106678,
        "lon": 127.443962
    },
    {
        "path_id": 9,
        "name": "산속가든앞",
        "lat": 38.106911,
        "lon": 127.443977
    },
    {
        "path_id": 10,
        "name": "산속가든앞",
        "lat": 38.106945,
        "lon": 127.443962
    },
    {
        "path_id": 11,
        "name": "갈림길",
        "lat": 38.119938,
        "lon": 127.446953
    },
    {
        "path_id": 12,
        "name": "관측소",
        "lat": 38.120457,
        "lon": 127.446289
    },
    {
        "path_id": 13,
        "name": "광덕산1",
        "lat": 38.122086,
        "lon": 127.444183
    },
    {
        "path_id": 14,
        "name": "상고대",
        "lat": 38.122486,
        "lon": 127.440735
    },
    {
        "path_id": 15,
        "name": "갈림길",
        "lat": 38.124249,
        "lon": 127.440269
    },
    {
        "path_id": 16,
        "name": "광덕산 2",
        "lat": 38.124332,
        "lon": 127.440224
    },
    {
        "path_id": 17,
        "name": "유해발굴장소",
        "lat": 38.124336,
        "lon": 127.440453
    },
    {
        "path_id": 18,
        "name": "상해봉조망",
        "lat": 38.124474,
        "lon": 127.440575
    },
    {
        "path_id": 19,
        "name": "갈림길",
        "lat": 38.125954,
        "lon": 127.44075
    },
    {
        "path_id": 20,
        "name": "의자1개",
        "lat": 38.127098,
        "lon": 127.440552
    },
    {
        "path_id": 21,
        "name": "갈림길",
        "lat": 38.127266,
        "lon": 127.440445
    },
    {
        "path_id": 22,
        "name": "갈림길",
        "lat": 38.127083,
        "lon": 127.440239
    },
    {
        "path_id": 23,
        "name": "군시설",
        "lat": 38.124294,
        "lon": 127.440178
    },
    {
        "path_id": 24,
        "name": "상해봉조망",
        "lat": 38.122803,
        "lon": 127.438148
    },
    {
        "path_id": 25,
        "name": "천문대",
        "lat": 38.119125,
        "lon": 127.433754
    },
    {
        "path_id": 26,
        "name": "인근능선",
        "lat": 38.118279,
        "lon": 127.433754
    },
    {
        "path_id": 27,
        "name": "천문재배경",
        "lat": 38.118214,
        "lon": 127.433426
    },
    {
        "path_id": 28,
        "name": "기상관측소",
        "lat": 38.118172,
        "lon": 127.433502
    },
    {
        "path_id": 29,
        "name": "6.25  전투 현장",
        "lat": 38.117874,
        "lon": 127.433609
    },
    {
        "path_id": 30,
        "name": "광덕산3",
        "lat": 38.117516,
        "lon": 127.433487
    },
    {
        "path_id": 31,
        "name": "광덕산",
        "lat": 38.11536,
        "lon": 127.430908
    },
    {
        "path_id": 32,
        "name": "갈림길",
        "lat": 38.115345,
        "lon": 127.43084
    },
    {
        "path_id": 33,
        "name": "광덕산",
        "lat": 38.114239,
        "lon": 127.429321
    },
    {
        "path_id": 34,
        "name": "갈림길",
        "lat": 38.110519,
        "lon": 127.424515
    },
    {
        "path_id": 35,
        "name": "광덕산",
        "lat": 38.110527,
        "lon": 127.424492
    },
    {
        "path_id": 36,
        "name": "119구급함",
        "lat": 38.110363,
        "lon": 127.423767
    },
    {
        "path_id": 37,
        "name": "광덕산",
        "lat": 38.107117,
        "lon": 127.421249
    },
    {
        "path_id": 38,
        "name": "광덕산",
        "lat": 38.10532,
        "lon": 127.417412
    },
    {
        "path_id": 39,
        "name": "광덕산",
        "lat": 38.101433,
        "lon": 127.414009
    },
    {
        "path_id": 40,
        "name": "갈림길",
        "lat": 38.101448,
        "lon": 127.413986
    },
    {
        "path_id": 41,
        "name": "광덕산",
        "lat": 38.098106,
        "lon": 127.413643
    },
    {
        "path_id": 42,
        "name": "광덕산",
        "lat": 38.093864,
        "lon": 127.414391
    },
    {
        "path_id": 43,
        "name": "각흘산 조망",
        "lat": 38.093872,
        "lon": 127.414322
    },
    {
        "path_id": 44,
        "name": "광덕고개능선",
        "lat": 38.093906,
        "lon": 127.414368
    },
    {
        "path_id": 45,
        "name": "백운산 조망",
        "lat": 38.091434,
        "lon": 127.414299
    },
    {
        "path_id": 46,
        "name": "백운산 능선",
        "lat": 38.0909,
        "lon": 127.414391
    },
    {
        "path_id": 47,
        "name": "각흘산",
        "lat": 38.090897,
        "lon": 127.414383
    },
    {
        "path_id": 48,
        "name": "광덕안",
        "lat": 38.085495,
        "lon": 127.411407
    },
    {
        "path_id": 49,
        "name": "광덕산",
        "lat": 38.079655,
        "lon": 127.414063
    },
    {
        "path_id": 50,
        "name": "백운계곡",
        "lat": 38.073311,
        "lon": 127.411819
    }
]