{
    "max_ele": 696.148,
    "track": [
        {
            "path_id": 1,
            "name": "천태산 들머리",
            "lat": 36.157501,
            "lon": 127.620232,
            "ele": 202.701
        },
        {
            "path_id": 2,
            "name": "영국사 주차장",
            "lat": 36.15752,
            "lon": 127.620224,
            "ele": 204.323
        },
        {
            "path_id": 3,
            "name": "천태산 쉬어가는집",
            "lat": 36.157528,
            "lon": 127.620239,
            "ele": 204.396
        },
        {
            "path_id": 4,
            "name": "안내  표지판",
            "lat": 36.15744,
            "lon": 127.619019,
            "ele": 209.994
        },
        {
            "path_id": 5,
            "name": "식당",
            "lat": 36.157379,
            "lon": 127.618538,
            "ele": 211.746
        },
        {
            "path_id": 6,
            "name": "천태산 들머리",
            "lat": 36.156723,
            "lon": 127.616425,
            "ele": 223.335
        },
        {
            "path_id": 7,
            "name": "삼신할멈바위",
            "lat": 36.157581,
            "lon": 127.614159,
            "ele": 242.275
        },
        {
            "path_id": 8,
            "name": "영국사 일주문",
            "lat": 36.159317,
            "lon": 127.612808,
            "ele": 290.396
        },
        {
            "path_id": 9,
            "name": "매표소",
            "lat": 36.159275,
            "lon": 127.61274,
            "ele": 293.601
        },
        {
            "path_id": 10,
            "name": "영국사 샘물",
            "lat": 36.158924,
            "lon": 127.611626,
            "ele": 293.209
        },
        {
            "path_id": 11,
            "name": "영국사 은행나무",
            "lat": 36.158894,
            "lon": 127.611588,
            "ele": 292.115
        },
        {
            "path_id": 12,
            "name": "영국사",
            "lat": 36.158813,
            "lon": 127.611519,
            "ele": 295.922
        },
        {
            "path_id": 13,
            "name": "간이화장실",
            "lat": 36.159359,
            "lon": 127.610405,
            "ele": 307.95
        },
        {
            "path_id": 14,
            "name": "산행들머리",
            "lat": 36.159611,
            "lon": 127.61042,
            "ele": 310.329
        },
        {
            "path_id": 15,
            "name": "갈림길",
            "lat": 36.1604,
            "lon": 127.607338,
            "ele": 400.526
        },
        {
            "path_id": 16,
            "name": "암릉위 영국사 조망",
            "lat": 36.160381,
            "lon": 127.60714,
            "ele": 416.467
        },
        {
            "path_id": 17,
            "name": "암릉 위험",
            "lat": 36.159573,
            "lon": 127.605843,
            "ele": 477.884
        },
        {
            "path_id": 18,
            "name": "암릉2 조망",
            "lat": 36.15971,
            "lon": 127.605743,
            "ele": 489.003
        },
        {
            "path_id": 19,
            "name": "갈림길",
            "lat": 36.159832,
            "lon": 127.605103,
            "ele": 514.543
        },
        {
            "path_id": 20,
            "name": "암릉3",
            "lat": 36.159847,
            "lon": 127.605125,
            "ele": 517.327
        },
        {
            "path_id": 21,
            "name": "암벽3 조망",
            "lat": 36.159641,
            "lon": 127.604012,
            "ele": 592.145
        },
        {
            "path_id": 22,
            "name": "갈림길",
            "lat": 36.158375,
            "lon": 127.601791,
            "ele": 696.148
        },
        {
            "path_id": 24,
            "name": "조망",
            "lat": 36.153378,
            "lon": 127.605446,
            "ele": 564.75
        },
        {
            "path_id": 27,
            "name": "전망석",
            "lat": 36.150723,
            "lon": 127.606392,
            "ele": 460.653
        },
        {
            "path_id": 28,
            "name": "갈림길",
            "lat": 36.151649,
            "lon": 127.609512,
            "ele": 384.119
        },
        {
            "path_id": 31,
            "name": "영국사 대웅전",
            "lat": 36.157642,
            "lon": 127.610558,
            "ele": 318.033
        },
        {
            "path_id": 32,
            "name": "영국사 화장실",
            "lat": 36.158253,
            "lon": 127.611183,
            "ele": 317.922
        },
        {
            "path_id": 33,
            "name": "상어흔들바위",
            "lat": 36.157276,
            "lon": 127.613106,
            "ele": 326.728
        },
        {
            "path_id": 34,
            "name": "망탑봉",
            "lat": 36.157192,
            "lon": 127.613136,
            "ele": 331.098
        }
    ]
}