{
    "max_ele": 1152.106,
    "min_ele": 382.977,
    "track": [
        {
            "path_id": 1,
            "name": "호박소 입구",
            "lat": 35.585705,
            "lon": 128.995636,
            "ele": 382.977
        },
        {
            "path_id": 2,
            "name": "화장실",
            "lat": 35.585724,
            "lon": 128.995743,
            "ele": 384.176
        },
        {
            "path_id": 3,
            "name": "호박소 주차장",
            "lat": 35.585682,
            "lon": 128.995743,
            "ele": 385.326
        },
        {
            "path_id": 4,
            "name": "백운산 백련사",
            "lat": 35.586189,
            "lon": 128.996597,
            "ele": 388.398
        },
        {
            "path_id": 5,
            "name": "갈림길",
            "lat": 35.588387,
            "lon": 128.991165,
            "ele": 613.237
        },
        {
            "path_id": 6,
            "name": "구조목",
            "lat": 35.588402,
            "lon": 128.991119,
            "ele": 614.961
        },
        {
            "path_id": 7,
            "name": "자연경관",
            "lat": 35.588619,
            "lon": 128.990891,
            "ele": 626.934
        },
        {
            "path_id": 8,
            "name": "얼음골 케이블카",
            "lat": 35.588623,
            "lon": 128.990845,
            "ele": 629.3
        },
        {
            "path_id": 9,
            "name": "조망점",
            "lat": 35.588615,
            "lon": 128.99086,
            "ele": 632.647
        },
        {
            "path_id": 10,
            "name": "백호바위",
            "lat": 35.588879,
            "lon": 128.990814,
            "ele": 654.288
        },
        {
            "path_id": 11,
            "name": "자연경관",
            "lat": 35.589493,
            "lon": 128.99057,
            "ele": 673.574
        },
        {
            "path_id": 12,
            "name": "포토존",
            "lat": 35.589508,
            "lon": 128.990555,
            "ele": 676.822
        },
        {
            "path_id": 13,
            "name": "릿지구간",
            "lat": 35.589619,
            "lon": 128.990372,
            "ele": 692.354
        },
        {
            "path_id": 14,
            "name": "웨이포인트 14",
            "lat": 35.589996,
            "lon": 128.990005,
            "ele": 726.042
        },
        {
            "path_id": 15,
            "name": "자연경관",
            "lat": 35.589977,
            "lon": 128.989914,
            "ele": 733.098
        },
        {
            "path_id": 16,
            "name": "암릉구간",
            "lat": 35.590343,
            "lon": 128.987579,
            "ele": 754.796
        },
        {
            "path_id": 17,
            "name": "암릉구간",
            "lat": 35.590324,
            "lon": 128.98761,
            "ele": 753.675
        },
        {
            "path_id": 18,
            "name": "돌탑",
            "lat": 35.590771,
            "lon": 128.986282,
            "ele": 782.8
        },
        {
            "path_id": 19,
            "name": "표지석",
            "lat": 35.593288,
            "lon": 128.98497,
            "ele": 870.872
        },
        {
            "path_id": 20,
            "name": "백운산 885m",
            "lat": 35.593899,
            "lon": 128.984787,
            "ele": 903.971
        },
        {
            "path_id": 21,
            "name": "백운산 정상에서",
            "lat": 35.593876,
            "lon": 128.984756,
            "ele": 906.806
        },
        {
            "path_id": 22,
            "name": "자연경관",
            "lat": 35.594078,
            "lon": 128.984802,
            "ele": 921.842
        },
        {
            "path_id": 23,
            "name": "자연경관",
            "lat": 35.594582,
            "lon": 128.984756,
            "ele": 920.4
        },
        {
            "path_id": 24,
            "name": "갈림길",
            "lat": 35.595219,
            "lon": 128.984924,
            "ele": 917.186
        },
        {
            "path_id": 25,
            "name": "갈림길",
            "lat": 35.600487,
            "lon": 128.983322,
            "ele": 845.032
        },
        {
            "path_id": 26,
            "name": "갈림길",
            "lat": 35.6077,
            "lon": 128.982635,
            "ele": 1056.709
        },
        {
            "path_id": 27,
            "name": "백운산 재약산 천황산",
            "lat": 35.607796,
            "lon": 128.983978,
            "ele": 1084.647
        },
        {
            "path_id": 28,
            "name": "구조목",
            "lat": 35.607891,
            "lon": 128.986008,
            "ele": 1094.415
        },
        {
            "path_id": 29,
            "name": "조망점",
            "lat": 35.608463,
            "lon": 128.986908,
            "ele": 1098.993
        },
        {
            "path_id": 30,
            "name": "가지산",
            "lat": 35.608456,
            "lon": 128.986923,
            "ele": 1099.432
        },
        {
            "path_id": 31,
            "name": "자연경관",
            "lat": 35.608509,
            "lon": 128.986893,
            "ele": 1100.235
        },
        {
            "path_id": 32,
            "name": "조망점",
            "lat": 35.615719,
            "lon": 128.997147,
            "ele": 1152.106
        },
        {
            "path_id": 33,
            "name": "석남터널",
            "lat": 35.609173,
            "lon": 129.019745,
            "ele": 733.703
        },
        {
            "path_id": 34,
            "name": "쉼터",
            "lat": 35.60881,
            "lon": 129.019379,
            "ele": 710.709
        },
        {
            "path_id": 35,
            "name": "쇠점골",
            "lat": 35.606586,
            "lon": 129.017868,
            "ele": 689.361
        },
        {
            "path_id": 36,
            "name": "쇠점골",
            "lat": 35.604836,
            "lon": 129.016647,
            "ele": 674.917
        },
        {
            "path_id": 37,
            "name": "쇠점골",
            "lat": 35.598545,
            "lon": 129.013367,
            "ele": 591.785
        },
        {
            "path_id": 38,
            "name": "오천평반석",
            "lat": 35.591038,
            "lon": 129.005798,
            "ele": 489.401
        },
        {
            "path_id": 39,
            "name": "오천평반석",
            "lat": 35.591011,
            "lon": 129.005722,
            "ele": 487.406
        },
        {
            "path_id": 40,
            "name": "쉼터",
            "lat": 35.586765,
            "lon": 128.997345,
            "ele": 432.765
        },
        {
            "path_id": 41,
            "name": "호박소",
            "lat": 35.587776,
            "lon": 128.996536,
            "ele": 408.453
        },
        {
            "path_id": 42,
            "name": "호박소",
            "lat": 35.587814,
            "lon": 128.996521,
            "ele": 408.083
        },
        {
            "path_id": 43,
            "name": "호박소 계곡",
            "lat": 35.587475,
            "lon": 128.996719,
            "ele": 408.27
        }
    ]
}