{
  "max_ele": 360.475,
  "total_length_km": "7.3km",
  "total_time": "1시간 31분",
  "start_name": "소형주차장",
  "end_name": "식당가 :실내보다 실외 테라스를 모두 갖춤",
  "track": [
    {
      "path_id": 0,
      "path": [
        {
          "lat": 35.503616,
          "lng": 126.586433
        },
        {
          "lat": 35.503338,
          "lng": 126.58696
        }
      ],
      "color": "#c0141f",
      "start_name": "소형주차장 / 전기자동차충전 / 대형주차장",
      "length_meter": 61.4,
      "time_minute": 1
    },
    {
      "path_id": 1,
      "path": [
        {
          "lat": 35.503338,
          "lng": 126.58696
        },
        {
          "lat": 35.502808,
          "lng": 126.58712
        }
      ],
      "color": "#79019a",
      "start_name": "버스정류장 / cu편의점 / 선운산버스터미널",
      "length_meter": 64.4,
      "time_minute": 1
    },
    {
      "path_id": 2,
      "path": [
        {
          "lat": 35.502808,
          "lng": 126.58712
        },
        {
          "lat": 35.502415,
          "lng": 126.586807
        }
      ],
      "color": "#7c6cb5",
      "start_name": "전라북도 관광 안내도 / 버스시간표 / 버스터비널 옆쉼터 / 쉼터광장 / 점자안내판 / 쉼터옆 화장실 / 관광안내소 / 문화 생태탐방로",
      "length_meter": 68.7,
      "time_minute": 1
    },
    {
      "path_id": 3,
      "path": [
        {
          "lat": 35.502415,
          "lng": 126.586807
        },
        {
          "lat": 35.50185,
          "lng": 126.586761
        }
      ],
      "color": "#14489f",
      "start_name": "고창군관광안내도 / 선운산 도립 공원 등산 안내도 / 송악 - 천년기념물 367호 / 송악  -  천년기념물367호",
      "length_meter": 75.0,
      "time_minute": 1
    },
    {
      "path_id": 4,
      "path": [
        {
          "lat": 35.50185,
          "lng": 126.586761
        },
        {
          "lat": 35.501255,
          "lng": 126.58593
        }
      ],
      "color": "#0928c3",
      "start_name": "꽃무릇위 송악",
      "length_meter": 100.2,
      "time_minute": 1
    },
    {
      "path_id": 5,
      "path": [
        {
          "lat": 35.501255,
          "lng": 126.58593
        },
        {
          "lat": 35.500679,
          "lng": 126.585342
        }
      ],
      "color": "#a89197",
      "start_name": "벚나무 좌판가게",
      "length_meter": 83.3,
      "time_minute": 1
    },
    {
      "path_id": 6,
      "path": [
        {
          "lat": 35.500679,
          "lng": 126.585342
        },
        {
          "lat": 35.50021,
          "lng": 126.584831
        }
      ],
      "color": "#1c2991",
      "start_name": "꽃무릇길 / 길가벤치",
      "length_meter": 69.7,
      "time_minute": 1
    },
    {
      "path_id": 7,
      "path": [
        {
          "lat": 35.50021,
          "lng": 126.584831
        },
        {
          "lat": 35.499626,
          "lng": 126.584244
        }
      ],
      "color": "#94be62",
      "start_name": "생태숲 / 꽃무릇길",
      "length_meter": 84.0,
      "time_minute": 1
    },
    {
      "path_id": 8,
      "path": [
        {
          "lat": 35.499626,
          "lng": 126.584244
        },
        {
          "lat": 35.498814,
          "lng": 126.583534
        }
      ],
      "color": "#99ad47",
      "start_name": "도솔천",
      "length_meter": 110.8,
      "time_minute": 1
    },
    {
      "path_id": 9,
      "path": [
        {
          "lat": 35.498814,
          "lng": 126.583534
        },
        {
          "lat": 35.498371,
          "lng": 126.582512
        }
      ],
      "color": "#942b8d",
      "start_name": "꽃무릇 / 미당 서정주시비",
      "length_meter": 105.1,
      "time_minute": 1
    },
    {
      "path_id": 10,
      "path": [
        {
          "lat": 35.498371,
          "lng": 126.582512
        },
        {
          "lat": 35.498093,
          "lng": 126.582268
        }
      ],
      "color": "#605d49",
      "start_name": "도솔산 선운사",
      "length_meter": 38.0,
      "time_minute": 0
    },
    {
      "path_id": 11,
      "path": [
        {
          "lat": 35.498093,
          "lng": 126.582268
        },
        {
          "lat": 35.497814,
          "lng": 126.581886
        }
      ],
      "color": "#7288c1",
      "start_name": "공중화장실 / 갈림길",
      "length_meter": 46.5,
      "time_minute": 0
    },
    {
      "path_id": 12,
      "path": [
        {
          "lat": 35.497814,
          "lng": 126.581886
        },
        {
          "lat": 35.497364,
          "lng": 126.580086
        }
      ],
      "color": "#13724f",
      "start_name": "꽃무릇",
      "length_meter": 170.5,
      "time_minute": 2
    },
    {
      "path_id": 13,
      "path": [
        {
          "lat": 35.497364,
          "lng": 126.580086
        },
        {
          "lat": 35.498123,
          "lng": 126.579399
        }
      ],
      "color": "#22a497",
      "start_name": "갈림길 / 쉼터광장",
      "length_meter": 107.1,
      "time_minute": 1
    },
    {
      "path_id": 14,
      "path": [
        {
          "lat": 35.498123,
          "lng": 126.579399
        },
        {
          "lat": 35.498806,
          "lng": 126.578484
        }
      ],
      "color": "#862865",
      "start_name": "차문화 체험관",
      "length_meter": 112.4,
      "time_minute": 1
    },
    {
      "path_id": 15,
      "path": [
        {
          "lat": 35.498806,
          "lng": 126.578484
        },
        {
          "lat": 35.499416,
          "lng": 126.578094
        }
      ],
      "color": "#55a61f",
      "start_name": "선운골 생태마을 / 차밭과 꽃무릇 / 차밭에서 박새",
      "length_meter": 76.5,
      "time_minute": 1
    },
    {
      "path_id": 16,
      "path": [
        {
          "lat": 35.499416,
          "lng": 126.578094
        },
        {
          "lat": 35.501026,
          "lng": 126.575005
        }
      ],
      "color": "#161631",
      "start_name": "차밭",
      "length_meter": 332.0,
      "time_minute": 4
    },
    {
      "path_id": 17,
      "path": [
        {
          "lat": 35.501026,
          "lng": 126.575005
        },
        {
          "lat": 35.501076,
          "lng": 126.574913
        }
      ],
      "color": "#9ec210",
      "start_name": "갈림길 / 석상암",
      "length_meter": 100.9,
      "time_minute": 1
    },
    {
      "path_id": 18,
      "path": [
        {
          "lat": 35.501076,
          "lng": 126.574913
        },
        {
          "lat": 35.501099,
          "lng": 126.573814
        }
      ],
      "color": "#a50256",
      "start_name": "꽃 / 꽃무릇",
      "length_meter": 101.2,
      "time_minute": 1
    },
    {
      "path_id": 19,
      "path": [
        {
          "lat": 35.501099,
          "lng": 126.573814
        },
        {
          "lat": 35.502594,
          "lng": 126.570038
        }
      ],
      "color": "#11076a",
      "start_name": "자릿대군락",
      "length_meter": 380.1,
      "time_minute": 4
    },
    {
      "path_id": 20,
      "path": [
        {
          "lat": 35.502594,
          "lng": 126.570038
        },
        {
          "lat": 35.5037,
          "lng": 126.56826
        }
      ],
      "color": "#9d81b5",
      "start_name": "야생화",
      "length_meter": 202.6,
      "time_minute": 2
    },
    {
      "path_id": 21,
      "path": [
        {
          "lat": 35.5037,
          "lng": 126.56826
        },
        {
          "lat": 35.498787,
          "lng": 126.569092
        }
      ],
      "color": "#6da30f",
      "start_name": "갈림길 / 등산위치알림판 / 테이블쉼터",
      "length_meter": 553.5,
      "time_minute": 9
    },
    {
      "path_id": 22,
      "path": [
        {
          "lat": 35.498787,
          "lng": 126.569092
        },
        {
          "lat": 35.498219,
          "lng": 126.568604
        }
      ],
      "color": "#52a6a0",
      "start_name": "테이블 / 선운산(도솔산) 수리봉 / 변산반도와 곰소항",
      "length_meter": 77.9,
      "time_minute": 1
    },
    {
      "path_id": 23,
      "path": [
        {
          "lat": 35.498219,
          "lng": 126.568604
        },
        {
          "lat": 35.49752,
          "lng": 126.568336
        }
      ],
      "color": "#9197a7",
      "start_name": "여로",
      "length_meter": 81.4,
      "time_minute": 1
    },
    {
      "path_id": 24,
      "path": [
        {
          "lat": 35.49752,
          "lng": 126.568336
        },
        {
          "lat": 35.496162,
          "lng": 126.568604
        }
      ],
      "color": "#69605d",
      "start_name": "갈림길",
      "length_meter": 152.9,
      "time_minute": 1
    },
    {
      "path_id": 25,
      "path": [
        {
          "lat": 35.496162,
          "lng": 126.568604
        },
        {
          "lat": 35.495342,
          "lng": 126.568428
        }
      ],
      "color": "#0324b9",
      "start_name": "도솔제",
      "length_meter": 92.6,
      "time_minute": 1
    },
    {
      "path_id": 26,
      "path": [
        {
          "lat": 35.495342,
          "lng": 126.568428
        },
        {
          "lat": 35.494541,
          "lng": 126.568268
        }
      ],
      "color": "#b603b2",
      "start_name": "집단시설지구 선운사 / 도솔제주변 능선 / 선운사집단시설지구와 선우사 주변 능선 / 도솔제",
      "length_meter": 98.8,
      "time_minute": 1
    },
    {
      "path_id": 27,
      "path": [
        {
          "lat": 35.494541,
          "lng": 126.568268
        },
        {
          "lat": 35.493862,
          "lng": 126.568069
        }
      ],
      "color": "#941d5f",
      "start_name": "포갠바위 / 너럭바위 / 선운산도립공원내 능선들",
      "length_meter": 78.5,
      "time_minute": 1
    },
    {
      "path_id": 28,
      "path": [
        {
          "lat": 35.493862,
          "lng": 126.568069
        },
        {
          "lat": 35.492153,
          "lng": 126.56752
        }
      ],
      "color": "#199a43",
      "start_name": "층꽃",
      "length_meter": 196.4,
      "time_minute": 2
    },
    {
      "path_id": 29,
      "path": [
        {
          "lat": 35.492153,
          "lng": 126.56752
        },
        {
          "lat": 35.489361,
          "lng": 126.570396
        }
      ],
      "color": "#141f73",
      "start_name": "갈림길",
      "length_meter": 405.2,
      "time_minute": 5
    },
    {
      "path_id": 30,
      "path": [
        {
          "lat": 35.489361,
          "lng": 126.570396
        },
        {
          "lat": 35.490078,
          "lng": 126.571793
        }
      ],
      "color": "#999c2b",
      "start_name": "탑",
      "length_meter": 149.5,
      "time_minute": 1
    },
    {
      "path_id": 31,
      "path": [
        {
          "lat": 35.490078,
          "lng": 126.571793
        },
        {
          "lat": 35.490906,
          "lng": 126.573425
        }
      ],
      "color": "#979f1d",
      "start_name": "테이블과 벤치",
      "length_meter": 174.1,
      "time_minute": 2
    },
    {
      "path_id": 32,
      "path": [
        {
          "lat": 35.490906,
          "lng": 126.573425
        },
        {
          "lat": 35.491062,
          "lng": 126.574799
        }
      ],
      "color": "#646d11",
      "start_name": "꽃무릇 군락지",
      "length_meter": 125.6,
      "time_minute": 1
    },
    {
      "path_id": 33,
      "path": [
        {
          "lat": 35.491062,
          "lng": 126.574799
        },
        {
          "lat": 35.491161,
          "lng": 126.575005
        }
      ],
      "color": "#77286a",
      "start_name": "템플스테이 / 선운사 연수원",
      "length_meter": 21.7,
      "time_minute": 0
    },
    {
      "path_id": 34,
      "path": [
        {
          "lat": 35.491161,
          "lng": 126.575005
        },
        {
          "lat": 35.491707,
          "lng": 126.57486
        }
      ],
      "color": "#383f21",
      "start_name": "탐방로 / 갈림길",
      "length_meter": 62.4,
      "time_minute": 1
    },
    {
      "path_id": 35,
      "path": [
        {
          "lat": 35.491707,
          "lng": 126.57486
        },
        {
          "lat": 35.494469,
          "lng": 126.574936
        }
      ],
      "color": "#81b799",
      "start_name": "정자와 벤치 / 도솔천",
      "length_meter": 307.2,
      "time_minute": 5
    },
    {
      "path_id": 36,
      "path": [
        {
          "lat": 35.494469,
          "lng": 126.574936
        },
        {
          "lat": 35.495102,
          "lng": 126.575813
        }
      ],
      "color": "#89a0b5",
      "start_name": "도솔천 건너 차밭 / 도솔천 식생 / 도솔천과 탕방로",
      "length_meter": 106.6,
      "time_minute": 1
    },
    {
      "path_id": 37,
      "path": [
        {
          "lat": 35.495102,
          "lng": 126.575813
        },
        {
          "lat": 35.49654,
          "lng": 126.578659
        }
      ],
      "color": "#3b5717",
      "start_name": "도솔천 주변 꽃무릇 / 도솔천이 검게 보이는 이유:타닌성분",
      "length_meter": 306.9,
      "time_minute": 5
    },
    {
      "path_id": 38,
      "path": [
        {
          "lat": 35.49654,
          "lng": 126.578659
        },
        {
          "lat": 35.497105,
          "lng": 126.578278
        }
      ],
      "color": "#c6c468",
      "start_name": "만세루 / 영산전과 명부전일대",
      "length_meter": 77.3,
      "time_minute": 1
    },
    {
      "path_id": 39,
      "path": [
        {
          "lat": 35.497105,
          "lng": 126.578278
        },
        {
          "lat": 35.496983,
          "lng": 126.577599
        }
      ],
      "color": "#9d283d",
      "start_name": "육층석탑 / 대웅보전과 육층석탑 / 좌상",
      "length_meter": 81.8,
      "time_minute": 1
    },
    {
      "path_id": 40,
      "path": [
        {
          "lat": 35.496983,
          "lng": 126.577599
        },
        {
          "lat": 35.497158,
          "lng": 126.577759
        }
      ],
      "color": "#98c03e",
      "start_name": "대웅보전과 만세루 / 영산전 / 마실수 있는문",
      "length_meter": 68.6,
      "time_minute": 1
    },
    {
      "path_id": 41,
      "path": [
        {
          "lat": 35.497158,
          "lng": 126.577759
        },
        {
          "lat": 35.497166,
          "lng": 126.577744
        }
      ],
      "color": "#032aa0",
      "start_name": "팔상전과 산신각 / 동백숲",
      "length_meter": 97.2,
      "time_minute": 1
    },
    {
      "path_id": 42,
      "path": [
        {
          "lat": 35.497166,
          "lng": 126.577744
        },
        {
          "lat": 35.496601,
          "lng": 126.578316
        }
      ],
      "color": "#2c94a2",
      "start_name": "꽃무릇과 동백숲",
      "length_meter": 81.4,
      "time_minute": 1
    },
    {
      "path_id": 43,
      "path": [
        {
          "lat": 35.496601,
          "lng": 126.578316
        },
        {
          "lat": 35.497173,
          "lng": 126.578529
        }
      ],
      "color": "#3a3946",
      "start_name": "범종 / 배롱나무와 만세루",
      "length_meter": 67.3,
      "time_minute": 1
    },
    {
      "path_id": 44,
      "path": [
        {
          "lat": 35.497173,
          "lng": 126.578529
        },
        {
          "lat": 35.497261,
          "lng": 126.578873
        }
      ],
      "color": "#1ea0be",
      "start_name": "지장보살전 / 금동보살자살 / 동백숲 -천년기념물184호",
      "length_meter": 87.6,
      "time_minute": 1
    },
    {
      "path_id": 45,
      "path": [
        {
          "lat": 35.497261,
          "lng": 126.578873
        },
        {
          "lat": 35.496689,
          "lng": 126.578529
        }
      ],
      "color": "#5d7abd",
      "start_name": "선운사 / 테이블벤치 / 선운사 / 해우소",
      "length_meter": 84.7,
      "time_minute": 1
    },
    {
      "path_id": 46,
      "path": [
        {
          "lat": 35.496689,
          "lng": 126.578529
        },
        {
          "lat": 35.496929,
          "lng": 126.579369
        }
      ],
      "color": "#00bd59",
      "start_name": "배롱나무 / 인경봉 / 선운사 천왕문",
      "length_meter": 104.7,
      "time_minute": 1
    },
    {
      "path_id": 47,
      "path": [
        {
          "lat": 35.496929,
          "lng": 126.579369
        },
        {
          "lat": 35.49762,
          "lng": 126.580833
        }
      ],
      "color": "#8560bc",
      "start_name": "선운사 옆 자연쉼터 / 도솔천",
      "length_meter": 153.7,
      "time_minute": 2
    },
    {
      "path_id": 48,
      "path": [
        {
          "lat": 35.49762,
          "lng": 126.580833
        },
        {
          "lat": 35.498455,
          "lng": 126.582718
        }
      ],
      "color": "#a44824",
      "start_name": "부도군",
      "length_meter": 194.3,
      "time_minute": 2
    },
    {
      "path_id": 49,
      "path": [
        {
          "lat": 35.498455,
          "lng": 126.582718
        },
        {
          "lat": 35.498898,
          "lng": 126.583382
        }
      ],
      "color": "#826f0b",
      "start_name": "매표소 / 선운산가비",
      "length_meter": 77.9,
      "time_minute": 1
    },
    {
      "path_id": 50,
      "path": [
        {
          "lat": 35.498898,
          "lng": 126.583382
        },
        {
          "lat": 35.499882,
          "lng": 126.584297
        }
      ],
      "color": "#134763",
      "start_name": "정자 / 꽃무릇군락",
      "length_meter": 137.3,
      "time_minute": 2
    },
    {
      "path_id": 51,
      "path": [
        {
          "lat": 35.499882,
          "lng": 126.584297
        },
        {
          "lat": 35.501698,
          "lng": 126.584702
        }
      ],
      "color": "#814736",
      "start_name": "노점커피 / 등나무벤치 / 생태숲",
      "length_meter": 213.1,
      "time_minute": 3
    },
    {
      "path_id": 52,
      "path": [
        {
          "lat": 35.501698,
          "lng": 126.584702
        },
        {
          "lat": 35.501514,
          "lng": 126.585518
        }
      ],
      "color": "#c3ae91",
      "start_name": "생태숲방문자센터 / 비학산 / 정자와벤치",
      "length_meter": 84.1,
      "time_minute": 1
    },
    {
      "path_id": 53,
      "path": [
        {
          "lat": 35.501514,
          "lng": 126.585518
        },
        {
          "lat": 35.501949,
          "lng": 126.586243
        }
      ],
      "color": "#b4a94d",
      "start_name": "선운산생태숲 / 생태숲 안내도",
      "length_meter": 101.2,
      "time_minute": 1
    },
    {
      "path_id": 54,
      "path": [
        {
          "lat": 35.501949,
          "lng": 126.586243
        },
        {
          "lat": 35.502552,
          "lng": 126.586441
        }
      ],
      "color": "#70c793",
      "start_name": "까페 / 매점 및 농협",
      "length_meter": 72.5,
      "time_minute": 1
    },
    {
      "path_id": 55,
      "path": [
        {
          "lat": 35.502552,
          "lng": 126.586441
        },
        {
          "lat": 35.503052,
          "lng": 126.58625
        }
      ],
      "color": "#022bb9",
      "start_name": "선운초서문화관 / 쉼터광장",
      "length_meter": 58.3,
      "time_minute": 0
    }
  ]
}