[
  {
    "path_id": 0,
    "path": [
      {
        "lat": 35.503616,
        "lng": 126.586433
      },
      {
        "lat": 35.503597,
        "lng": 126.586479
      }
    ],
    "color": "#f037c4",
    "start_point_name": "소형주차장",
    "length": 4,
    "time": "0"
  },
  {
    "path_id": 1,
    "path": [
      {
        "lat": 35.503597,
        "lng": 126.586479
      },
      {
        "lat": 35.503605,
        "lng": 126.586662
      }
    ],
    "color": "#8dc34e",
    "start_point_name": "전기자동차충전",
    "length": 16,
    "time": "0"
  },
  {
    "path_id": 2,
    "path": [
      {
        "lat": 35.503605,
        "lng": 126.586662
      },
      {
        "lat": 35.503338,
        "lng": 126.58696
      }
    ],
    "color": "#15feef",
    "start_point_name": "대형주차장",
    "length": 40,
    "time": "0"
  },
  {
    "path_id": 3,
    "path": [
      {
        "lat": 35.503338,
        "lng": 126.58696
      },
      {
        "lat": 35.503223,
        "lng": 126.587029
      }
    ],
    "color": "#f37642",
    "start_point_name": "버스정류장",
    "length": 14,
    "time": "0"
  },
  {
    "path_id": 4,
    "path": [
      {
        "lat": 35.503223,
        "lng": 126.587029
      },
      {
        "lat": 35.502979,
        "lng": 126.586983
      }
    ],
    "color": "#3441f0",
    "start_point_name": "cu편의점",
    "length": 27,
    "time": "0"
  },
  {
    "path_id": 5,
    "path": [
      {
        "lat": 35.502979,
        "lng": 126.586983
      },
      {
        "lat": 35.502808,
        "lng": 126.58712
      }
    ],
    "color": "#a90249",
    "start_point_name": "선운산버스터미널",
    "length": 22,
    "time": "0"
  },
  {
    "path_id": 6,
    "path": [
      {
        "lat": 35.502808,
        "lng": 126.58712
      },
      {
        "lat": 35.502747,
        "lng": 126.587036
      }
    ],
    "color": "#e1ad59",
    "start_point_name": "전라북도 관광 안내도",
    "length": 10,
    "time": "0"
  },
  {
    "path_id": 7,
    "path": [
      {
        "lat": 35.502747,
        "lng": 126.587036
      },
      {
        "lat": 35.502781,
        "lng": 126.587036
      }
    ],
    "color": "#11a6d7",
    "start_point_name": "버스시간표",
    "length": 3,
    "time": "0"
  },
  {
    "path_id": 8,
    "path": [
      {
        "lat": 35.502781,
        "lng": 126.587036
      },
      {
        "lat": 35.502705,
        "lng": 126.587112
      }
    ],
    "color": "#92e38a",
    "start_point_name": "버스터비널 옆쉼터",
    "length": 10,
    "time": "0"
  },
  {
    "path_id": 9,
    "path": [
      {
        "lat": 35.502705,
        "lng": 126.587112
      },
      {
        "lat": 35.50259,
        "lng": 126.587029
      }
    ],
    "color": "#f0e018",
    "start_point_name": "쉼터광장",
    "length": 14,
    "time": "0"
  },
  {
    "path_id": 10,
    "path": [
      {
        "lat": 35.50259,
        "lng": 126.587029
      },
      {
        "lat": 35.502575,
        "lng": 126.587029
      }
    ],
    "color": "#15cdff",
    "start_point_name": "점자안내판",
    "length": 1,
    "time": "0"
  },
  {
    "path_id": 11,
    "path": [
      {
        "lat": 35.502575,
        "lng": 126.587029
      },
      {
        "lat": 35.502544,
        "lng": 126.587006
      }
    ],
    "color": "#db7398",
    "start_point_name": "쉼터옆 화장실",
    "length": 4,
    "time": "0"
  },
  {
    "path_id": 12,
    "path": [
      {
        "lat": 35.502544,
        "lng": 126.587006
      },
      {
        "lat": 35.502464,
        "lng": 126.586914
      }
    ],
    "color": "#05d423",
    "start_point_name": "관광안내소",
    "length": 12,
    "time": "0"
  },
  {
    "path_id": 13,
    "path": [
      {
        "lat": 35.502464,
        "lng": 126.586914
      },
      {
        "lat": 35.502415,
        "lng": 126.586807
      }
    ],
    "color": "#922108",
    "start_point_name": "문화 생태탐방로",
    "length": 11,
    "time": "0"
  },
  {
    "path_id": 14,
    "path": [
      {
        "lat": 35.502415,
        "lng": 126.586807
      },
      {
        "lat": 35.502403,
        "lng": 126.586769
      }
    ],
    "color": "#3150bb",
    "start_point_name": "고창군관광안내도",
    "length": 3,
    "time": "0"
  },
  {
    "path_id": 15,
    "path": [
      {
        "lat": 35.502403,
        "lng": 126.586769
      },
      {
        "lat": 35.502392,
        "lng": 126.586731
      }
    ],
    "color": "#f4433f",
    "start_point_name": "선운산 도립 공원 등산 안내도",
    "length": 3,
    "time": "0"
  },
  {
    "path_id": 16,
    "path": [
      {
        "lat": 35.502392,
        "lng": 126.586731
      },
      {
        "lat": 35.501942,
        "lng": 126.586617
      }
    ],
    "color": "#08e0be",
    "start_point_name": "송악 - 천년기념물 367호",
    "length": 51,
    "time": "0"
  },
  {
    "path_id": 17,
    "path": [
      {
        "lat": 35.501942,
        "lng": 126.586617
      },
      {
        "lat": 35.50185,
        "lng": 126.586761
      }
    ],
    "color": "#c2e67d",
    "start_point_name": "송악  -  천년기념물367호",
    "length": 16,
    "time": "0"
  },
  {
    "path_id": 18,
    "path": [
      {
        "lat": 35.50185,
        "lng": 126.586761
      },
      {
        "lat": 35.501255,
        "lng": 126.58593
      }
    ],
    "color": "#2fde5c",
    "start_point_name": "꽃무릇위 송악",
    "length": 100,
    "time": "1"
  },
  {
    "path_id": 19,
    "path": [
      {
        "lat": 35.501255,
        "lng": 126.58593
      },
      {
        "lat": 35.500679,
        "lng": 126.585342
      }
    ],
    "color": "#24fda9",
    "start_point_name": "벚나무 좌판가게",
    "length": 83,
    "time": "1"
  },
  {
    "path_id": 20,
    "path": [
      {
        "lat": 35.500679,
        "lng": 126.585342
      },
      {
        "lat": 35.500446,
        "lng": 126.585075
      }
    ],
    "color": "#c1aea5",
    "start_point_name": "꽃무릇길",
    "length": 35,
    "time": "0"
  },
  {
    "path_id": 21,
    "path": [
      {
        "lat": 35.500446,
        "lng": 126.585075
      },
      {
        "lat": 35.50021,
        "lng": 126.584831
      }
    ],
    "color": "#603911",
    "start_point_name": "길가벤치",
    "length": 34,
    "time": "0"
  },
  {
    "path_id": 22,
    "path": [
      {
        "lat": 35.50021,
        "lng": 126.584831
      },
      {
        "lat": 35.5,
        "lng": 126.584587
      }
    ],
    "color": "#43c31e",
    "start_point_name": "생태숲",
    "length": 32,
    "time": "0"
  },
  {
    "path_id": 23,
    "path": [
      {
        "lat": 35.5,
        "lng": 126.584587
      },
      {
        "lat": 35.499626,
        "lng": 126.584244
      }
    ],
    "color": "#3f8f3a",
    "start_point_name": "꽃무릇길",
    "length": 51,
    "time": "0"
  },
  {
    "path_id": 24,
    "path": [
      {
        "lat": 35.499626,
        "lng": 126.584244
      },
      {
        "lat": 35.498814,
        "lng": 126.583534
      }
    ],
    "color": "#57ad5b",
    "start_point_name": "도솔천",
    "length": 110,
    "time": "1"
  },
  {
    "path_id": 25,
    "path": [
      {
        "lat": 35.498814,
        "lng": 126.583534
      },
      {
        "lat": 35.498695,
        "lng": 126.583328
      }
    ],
    "color": "#dc8c3f",
    "start_point_name": "꽃무릇",
    "length": 22,
    "time": "0"
  },
  {
    "path_id": 26,
    "path": [
      {
        "lat": 35.498695,
        "lng": 126.583328
      },
      {
        "lat": 35.498371,
        "lng": 126.582512
      }
    ],
    "color": "#52aa82",
    "start_point_name": "미당 서정주시비",
    "length": 82,
    "time": "1"
  },
  {
    "path_id": 27,
    "path": [
      {
        "lat": 35.498371,
        "lng": 126.582512
      },
      {
        "lat": 35.498093,
        "lng": 126.582268
      }
    ],
    "color": "#ca15d1",
    "start_point_name": "도솔산 선운사",
    "length": 37,
    "time": "0"
  },
  {
    "path_id": 28,
    "path": [
      {
        "lat": 35.498093,
        "lng": 126.582268
      },
      {
        "lat": 35.497959,
        "lng": 126.582108
      }
    ],
    "color": "#b07f0d",
    "start_point_name": "공중화장실",
    "length": 20,
    "time": "0"
  },
  {
    "path_id": 29,
    "path": [
      {
        "lat": 35.497959,
        "lng": 126.582108
      },
      {
        "lat": 35.497814,
        "lng": 126.581886
      }
    ],
    "color": "#2a8555",
    "start_point_name": "갈림길",
    "length": 25,
    "time": "0"
  },
  {
    "path_id": 30,
    "path": [
      {
        "lat": 35.497814,
        "lng": 126.581886
      },
      {
        "lat": 35.497585,
        "lng": 126.581619
      }
    ],
    "color": "#178551",
    "start_point_name": "꽃무릇",
    "length": 35,
    "time": "0"
  },
  {
    "path_id": 31,
    "path": [
      {
        "lat": 35.497585,
        "lng": 126.581619
      },
      {
        "lat": 35.497421,
        "lng": 126.581184
      }
    ],
    "color": "#bc1cc5",
    "start_point_name": "꽃무릇",
    "length": 43,
    "time": "0"
  },
  {
    "path_id": 32,
    "path": [
      {
        "lat": 35.497421,
        "lng": 126.581184
      },
      {
        "lat": 35.497364,
        "lng": 126.580086
      }
    ],
    "color": "#1c9ab0",
    "start_point_name": "벤치",
    "length": 99,
    "time": "1"
  },
  {
    "path_id": 33,
    "path": [
      {
        "lat": 35.497364,
        "lng": 126.580086
      },
      {
        "lat": 35.497356,
        "lng": 126.580048
      }
    ],
    "color": "#fbdf34",
    "start_point_name": "갈림길",
    "length": 3,
    "time": "0"
  },
  {
    "path_id": 34,
    "path": [
      {
        "lat": 35.497356,
        "lng": 126.580048
      },
      {
        "lat": 35.498123,
        "lng": 126.579399
      }
    ],
    "color": "#6363c0",
    "start_point_name": "쉼터광장",
    "length": 103,
    "time": "1"
  },
  {
    "path_id": 35,
    "path": [
      {
        "lat": 35.498123,
        "lng": 126.579399
      },
      {
        "lat": 35.498806,
        "lng": 126.578484
      }
    ],
    "color": "#336df2",
    "start_point_name": "차문화 체험관",
    "length": 112,
    "time": "1"
  },
  {
    "path_id": 36,
    "path": [
      {
        "lat": 35.498806,
        "lng": 126.578484
      },
      {
        "lat": 35.498882,
        "lng": 126.578438
      }
    ],
    "color": "#3ae119",
    "start_point_name": "선운골 생태마을",
    "length": 9,
    "time": "0"
  },
  {
    "path_id": 37,
    "path": [
      {
        "lat": 35.498882,
        "lng": 126.578438
      },
      {
        "lat": 35.499287,
        "lng": 126.578186
      }
    ],
    "color": "#611342",
    "start_point_name": "차밭과 꽃무릇",
    "length": 50,
    "time": "0"
  },
  {
    "path_id": 38,
    "path": [
      {
        "lat": 35.499287,
        "lng": 126.578186
      },
      {
        "lat": 35.499416,
        "lng": 126.578094
      }
    ],
    "color": "#fc2891",
    "start_point_name": "차밭에서 박새",
    "length": 16,
    "time": "0"
  },
  {
    "path_id": 39,
    "path": [
      {
        "lat": 35.499416,
        "lng": 126.578094
      },
      {
        "lat": 35.499859,
        "lng": 126.577728
      }
    ],
    "color": "#2fec2b",
    "start_point_name": "차밭",
    "length": 59,
    "time": "0"
  },
  {
    "path_id": 40,
    "path": [
      {
        "lat": 35.499859,
        "lng": 126.577728
      },
      {
        "lat": 35.501026,
        "lng": 126.575005
      }
    ],
    "color": "#646a47",
    "start_point_name": "차밭",
    "length": 278,
    "time": "4"
  },
  {
    "path_id": 41,
    "path": [
      {
        "lat": 35.501026,
        "lng": 126.575005
      },
      {
        "lat": 35.501469,
        "lng": 126.574745
      }
    ],
    "color": "#845188",
    "start_point_name": "갈림길",
    "length": 54,
    "time": "0"
  },
  {
    "path_id": 42,
    "path": [
      {
        "lat": 35.501469,
        "lng": 126.574745
      },
      {
        "lat": 35.501076,
        "lng": 126.574913
      }
    ],
    "color": "#331800",
    "start_point_name": "석상암",
    "length": 46,
    "time": "0"
  },
  {
    "path_id": 43,
    "path": [
      {
        "lat": 35.501076,
        "lng": 126.574913
      },
      {
        "lat": 35.50103,
        "lng": 126.574814
      }
    ],
    "color": "#bff394",
    "start_point_name": "꽃",
    "length": 10,
    "time": "0"
  },
  {
    "path_id": 44,
    "path": [
      {
        "lat": 35.50103,
        "lng": 126.574814
      },
      {
        "lat": 35.501099,
        "lng": 126.573814
      }
    ],
    "color": "#584989",
    "start_point_name": "꽃무릇",
    "length": 90,
    "time": "1"
  },
  {
    "path_id": 45,
    "path": [
      {
        "lat": 35.501099,
        "lng": 126.573814
      },
      {
        "lat": 35.501686,
        "lng": 126.571281
      }
    ],
    "color": "#ab76e2",
    "start_point_name": "자릿대군락",
    "length": 238,
    "time": "3"
  },
  {
    "path_id": 46,
    "path": [
      {
        "lat": 35.501686,
        "lng": 126.571281
      },
      {
        "lat": 35.502594,
        "lng": 126.570038
      }
    ],
    "color": "#fe1dd7",
    "start_point_name": "국가지점번호",
    "length": 151,
    "time": "2"
  },
  {
    "path_id": 47,
    "path": [
      {
        "lat": 35.502594,
        "lng": 126.570038
      },
      {
        "lat": 35.5037,
        "lng": 126.56826
      }
    ],
    "color": "#5d425b",
    "start_point_name": "야생화",
    "length": 202,
    "time": "3"
  },
  {
    "path_id": 48,
    "path": [
      {
        "lat": 35.5037,
        "lng": 126.56826
      },
      {
        "lat": 35.503689,
        "lng": 126.568237
      }
    ],
    "color": "#ff49b7",
    "start_point_name": "갈림길",
    "length": 2,
    "time": "0"
  },
  {
    "path_id": 49,
    "path": [
      {
        "lat": 35.503689,
        "lng": 126.568237
      },
      {
        "lat": 35.503628,
        "lng": 126.568222
      }
    ],
    "color": "#fccfd8",
    "start_point_name": "국가지점번호",
    "length": 6,
    "time": "0"
  },
  {
    "path_id": 50,
    "path": [
      {
        "lat": 35.503628,
        "lng": 126.568222
      },
      {
        "lat": 35.503616,
        "lng": 126.568207
      }
    ],
    "color": "#3eda18",
    "start_point_name": "등산위치알림판",
    "length": 1,
    "time": "0"
  },
  {
    "path_id": 51,
    "path": [
      {
        "lat": 35.503616,
        "lng": 126.568207
      },
      {
        "lat": 35.501801,
        "lng": 126.568939
      }
    ],
    "color": "#f69e5a",
    "start_point_name": "테이블쉼터",
    "length": 212,
    "time": "3"
  },
  {
    "path_id": 52,
    "path": [
      {
        "lat": 35.501801,
        "lng": 126.568939
      },
      {
        "lat": 35.498787,
        "lng": 126.569092
      }
    ],
    "color": "#f849c7",
    "start_point_name": "국가지점번호",
    "length": 335,
    "time": "5"
  },
  {
    "path_id": 53,
    "path": [
      {
        "lat": 35.498787,
        "lng": 126.569092
      },
      {
        "lat": 35.498791,
        "lng": 126.569077
      }
    ],
    "color": "#f352b9",
    "start_point_name": "테이블",
    "length": 1,
    "time": "0"
  },
  {
    "path_id": 54,
    "path": [
      {
        "lat": 35.498791,
        "lng": 126.569077
      },
      {
        "lat": 35.49876,
        "lng": 126.569077
      }
    ],
    "color": "#c7ceb6",
    "start_point_name": "국가지점번호",
    "length": 3,
    "time": "0"
  },
  {
    "path_id": 55,
    "path": [
      {
        "lat": 35.49876,
        "lng": 126.569077
      },
      {
        "lat": 35.498672,
        "lng": 126.568932
      }
    ],
    "color": "#09a8e3",
    "start_point_name": "이정표",
    "length": 16,
    "time": "0"
  },
  {
    "path_id": 56,
    "path": [
      {
        "lat": 35.498672,
        "lng": 126.568932
      },
      {
        "lat": 35.498516,
        "lng": 126.568794
      }
    ],
    "color": "#cf7766",
    "start_point_name": "선운산(도솔산) 수리봉",
    "length": 21,
    "time": "0"
  },
  {
    "path_id": 57,
    "path": [
      {
        "lat": 35.498516,
        "lng": 126.568794
      },
      {
        "lat": 35.498249,
        "lng": 126.568611
      }
    ],
    "color": "#eebf36",
    "start_point_name": "변산반도와 곰소항",
    "length": 33,
    "time": "0"
  },
  {
    "path_id": 58,
    "path": [
      {
        "lat": 35.498249,
        "lng": 126.568611
      },
      {
        "lat": 35.498219,
        "lng": 126.568604
      }
    ],
    "color": "#052805",
    "start_point_name": "국가지점번호",
    "length": 3,
    "time": "0"
  },
  {
    "path_id": 59,
    "path": [
      {
        "lat": 35.498219,
        "lng": 126.568604
      },
      {
        "lat": 35.49752,
        "lng": 126.568359
      }
    ],
    "color": "#89fdf1",
    "start_point_name": "여로",
    "length": 80,
    "time": "1"
  },
  {
    "path_id": 60,
    "path": [
      {
        "lat": 35.49752,
        "lng": 126.568359
      },
      {
        "lat": 35.49752,
        "lng": 126.568336
      }
    ],
    "color": "#ea766e",
    "start_point_name": "국가지점번호",
    "length": 2,
    "time": "0"
  },
  {
    "path_id": 61,
    "path": [
      {
        "lat": 35.49752,
        "lng": 126.568336
      },
      {
        "lat": 35.496162,
        "lng": 126.568604
      }
    ],
    "color": "#6269d7",
    "start_point_name": "갈림길",
    "length": 152,
    "time": "2"
  },
  {
    "path_id": 62,
    "path": [
      {
        "lat": 35.496162,
        "lng": 126.568604
      },
      {
        "lat": 35.495342,
        "lng": 126.568428
      }
    ],
    "color": "#9ddf04",
    "start_point_name": "도솔제",
    "length": 92,
    "time": "1"
  },
  {
    "path_id": 63,
    "path": [
      {
        "lat": 35.495342,
        "lng": 126.568428
      },
      {
        "lat": 35.494843,
        "lng": 126.56842
      }
    ],
    "color": "#d93046",
    "start_point_name": "집단시설지구 선운사",
    "length": 55,
    "time": "0"
  },
  {
    "path_id": 64,
    "path": [
      {
        "lat": 35.494843,
        "lng": 126.56842
      },
      {
        "lat": 35.494846,
        "lng": 126.568459
      }
    ],
    "color": "#cc7386",
    "start_point_name": "도솔제주변 능선",
    "length": 3,
    "time": "0"
  },
  {
    "path_id": 65,
    "path": [
      {
        "lat": 35.494846,
        "lng": 126.568459
      },
      {
        "lat": 35.494843,
        "lng": 126.568474
      }
    ],
    "color": "#7a6ccc",
    "start_point_name": "선운사집단시설지구와 선우사 주변 능선",
    "length": 1,
    "time": "0"
  },
  {
    "path_id": 66,
    "path": [
      {
        "lat": 35.494843,
        "lng": 126.568474
      },
      {
        "lat": 35.494614,
        "lng": 126.568283
      }
    ],
    "color": "#3012fa",
    "start_point_name": "도솔제",
    "length": 30,
    "time": "0"
  },
  {
    "path_id": 67,
    "path": [
      {
        "lat": 35.494614,
        "lng": 126.568283
      },
      {
        "lat": 35.494541,
        "lng": 126.568268
      }
    ],
    "color": "#f2f9a0",
    "start_point_name": "이정표",
    "length": 8,
    "time": "0"
  },
  {
    "path_id": 68,
    "path": [
      {
        "lat": 35.494541,
        "lng": 126.568268
      },
      {
        "lat": 35.493954,
        "lng": 126.568069
      }
    ],
    "color": "#0ff913",
    "start_point_name": "포갠바위",
    "length": 67,
    "time": "1"
  },
  {
    "path_id": 69,
    "path": [
      {
        "lat": 35.493954,
        "lng": 126.568069
      },
      {
        "lat": 35.493938,
        "lng": 126.568054
      }
    ],
    "color": "#ae4d70",
    "start_point_name": "너럭바위",
    "length": 2,
    "time": "0"
  },
  {
    "path_id": 70,
    "path": [
      {
        "lat": 35.493938,
        "lng": 126.568054
      },
      {
        "lat": 35.493862,
        "lng": 126.568069
      }
    ],
    "color": "#71e6e5",
    "start_point_name": "선운산도립공원내 능선들",
    "length": 8,
    "time": "0"
  },
  {
    "path_id": 71,
    "path": [
      {
        "lat": 35.493862,
        "lng": 126.568069
      },
      {
        "lat": 35.492153,
        "lng": 126.56752
      }
    ],
    "color": "#c5e8c1",
    "start_point_name": "층꽃",
    "length": 196,
    "time": "3"
  },
  {
    "path_id": 72,
    "path": [
      {
        "lat": 35.492153,
        "lng": 126.56752
      },
      {
        "lat": 35.489361,
        "lng": 126.570396
      }
    ],
    "color": "#faf8c3",
    "start_point_name": "갈림길",
    "length": 405,
    "time": "6"
  },
  {
    "path_id": 73,
    "path": [
      {
        "lat": 35.489361,
        "lng": 126.570396
      },
      {
        "lat": 35.490078,
        "lng": 126.571793
      }
    ],
    "color": "#018602",
    "start_point_name": "탑",
    "length": 149,
    "time": "2"
  },
  {
    "path_id": 74,
    "path": [
      {
        "lat": 35.490078,
        "lng": 126.571793
      },
      {
        "lat": 35.490906,
        "lng": 126.573425
      }
    ],
    "color": "#23a461",
    "start_point_name": "테이블과 벤치",
    "length": 174,
    "time": "2"
  },
  {
    "path_id": 75,
    "path": [
      {
        "lat": 35.490906,
        "lng": 126.573425
      },
      {
        "lat": 35.491062,
        "lng": 126.574799
      }
    ],
    "color": "#f7e394",
    "start_point_name": "꽃무릇 군락지",
    "length": 125,
    "time": "2"
  },
  {
    "path_id": 76,
    "path": [
      {
        "lat": 35.491062,
        "lng": 126.574799
      },
      {
        "lat": 35.491093,
        "lng": 126.574867
      }
    ],
    "color": "#c1ab94",
    "start_point_name": "템플스테이",
    "length": 7,
    "time": "0"
  },
  {
    "path_id": 77,
    "path": [
      {
        "lat": 35.491093,
        "lng": 126.574867
      },
      {
        "lat": 35.491161,
        "lng": 126.575005
      }
    ],
    "color": "#42c13a",
    "start_point_name": "선운사 연수원",
    "length": 14,
    "time": "0"
  },
  {
    "path_id": 78,
    "path": [
      {
        "lat": 35.491161,
        "lng": 126.575005
      },
      {
        "lat": 35.491177,
        "lng": 126.575012
      }
    ],
    "color": "#f020c9",
    "start_point_name": "탐방로",
    "length": 1,
    "time": "0"
  },
  {
    "path_id": 79,
    "path": [
      {
        "lat": 35.491177,
        "lng": 126.575012
      },
      {
        "lat": 35.491707,
        "lng": 126.57486
      }
    ],
    "color": "#9636a7",
    "start_point_name": "갈림길",
    "length": 60,
    "time": "1"
  },
  {
    "path_id": 80,
    "path": [
      {
        "lat": 35.491707,
        "lng": 126.57486
      },
      {
        "lat": 35.491768,
        "lng": 126.574867
      }
    ],
    "color": "#a93b0d",
    "start_point_name": "정자와 벤치",
    "length": 6,
    "time": "0"
  },
  {
    "path_id": 81,
    "path": [
      {
        "lat": 35.491768,
        "lng": 126.574867
      },
      {
        "lat": 35.491867,
        "lng": 126.574806
      }
    ],
    "color": "#cc5dac",
    "start_point_name": "도솔천",
    "length": 12,
    "time": "0"
  },
  {
    "path_id": 82,
    "path": [
      {
        "lat": 35.491867,
        "lng": 126.574806
      },
      {
        "lat": 35.494469,
        "lng": 126.574936
      }
    ],
    "color": "#9b8d8c",
    "start_point_name": "벤치",
    "length": 289,
    "time": "4"
  },
  {
    "path_id": 83,
    "path": [
      {
        "lat": 35.494469,
        "lng": 126.574936
      },
      {
        "lat": 35.494671,
        "lng": 126.57518
      }
    ],
    "color": "#976e4e",
    "start_point_name": "도솔천 건너 차밭",
    "length": 31,
    "time": "0"
  },
  {
    "path_id": 84,
    "path": [
      {
        "lat": 35.494671,
        "lng": 126.57518
      },
      {
        "lat": 35.494843,
        "lng": 126.575371
      }
    ],
    "color": "#3d2f8d",
    "start_point_name": "도솔천 식생",
    "length": 25,
    "time": "0"
  },
  {
    "path_id": 85,
    "path": [
      {
        "lat": 35.494843,
        "lng": 126.575371
      },
      {
        "lat": 35.495102,
        "lng": 126.575813
      }
    ],
    "color": "#5f410a",
    "start_point_name": "도솔천과 탕방로",
    "length": 49,
    "time": "0"
  },
  {
    "path_id": 86,
    "path": [
      {
        "lat": 35.495102,
        "lng": 126.575813
      },
      {
        "lat": 35.495274,
        "lng": 126.575912
      }
    ],
    "color": "#ec821c",
    "start_point_name": "도솔천 주변 꽃무릇",
    "length": 21,
    "time": "0"
  },
  {
    "path_id": 87,
    "path": [
      {
        "lat": 35.495274,
        "lng": 126.575912
      },
      {
        "lat": 35.49654,
        "lng": 126.578659
      }
    ],
    "color": "#7bbfb2",
    "start_point_name": "도솔천이 검게 보이는 이유:타닌성분",
    "length": 285,
    "time": "4"
  },
  {
    "path_id": 88,
    "path": [
      {
        "lat": 35.49654,
        "lng": 126.578659
      },
      {
        "lat": 35.496769,
        "lng": 126.578323
      }
    ],
    "color": "#c5ec5b",
    "start_point_name": "만세루",
    "length": 39,
    "time": "0"
  },
  {
    "path_id": 89,
    "path": [
      {
        "lat": 35.496769,
        "lng": 126.578323
      },
      {
        "lat": 35.497105,
        "lng": 126.578278
      }
    ],
    "color": "#27d3c5",
    "start_point_name": "영산전과 명부전일대",
    "length": 37,
    "time": "0"
  },
  {
    "path_id": 90,
    "path": [
      {
        "lat": 35.497105,
        "lng": 126.578278
      },
      {
        "lat": 35.497028,
        "lng": 126.5783
      }
    ],
    "color": "#1f1f1b",
    "start_point_name": "육층석탑",
    "length": 8,
    "time": "0"
  },
  {
    "path_id": 91,
    "path": [
      {
        "lat": 35.497028,
        "lng": 126.5783
      },
      {
        "lat": 35.497158,
        "lng": 126.578133
      }
    ],
    "color": "#ff8fd2",
    "start_point_name": "대웅보전과 육층석탑",
    "length": 20,
    "time": "0"
  },
  {
    "path_id": 92,
    "path": [
      {
        "lat": 35.497158,
        "lng": 126.578133
      },
      {
        "lat": 35.496983,
        "lng": 126.577599
      }
    ],
    "color": "#39d3b5",
    "start_point_name": "좌상",
    "length": 52,
    "time": "0"
  },
  {
    "path_id": 93,
    "path": [
      {
        "lat": 35.496983,
        "lng": 126.577599
      },
      {
        "lat": 35.496807,
        "lng": 126.577789
      }
    ],
    "color": "#1d4b6c",
    "start_point_name": "대웅보전과 만세루",
    "length": 26,
    "time": "0"
  },
  {
    "path_id": 94,
    "path": [
      {
        "lat": 35.496807,
        "lng": 126.577789
      },
      {
        "lat": 35.496849,
        "lng": 126.57785
      }
    ],
    "color": "#468fcc",
    "start_point_name": "영산전",
    "length": 7,
    "time": "0"
  },
  {
    "path_id": 95,
    "path": [
      {
        "lat": 35.496849,
        "lng": 126.57785
      },
      {
        "lat": 35.497158,
        "lng": 126.577759
      }
    ],
    "color": "#e8d1b5",
    "start_point_name": "마실수 있는문",
    "length": 35,
    "time": "0"
  },
  {
    "path_id": 96,
    "path": [
      {
        "lat": 35.497158,
        "lng": 126.577759
      },
      {
        "lat": 35.497345,
        "lng": 126.578239
      }
    ],
    "color": "#dee930",
    "start_point_name": "팔상전과 산신각",
    "length": 48,
    "time": "0"
  },
  {
    "path_id": 97,
    "path": [
      {
        "lat": 35.497345,
        "lng": 126.578239
      },
      {
        "lat": 35.497166,
        "lng": 126.577744
      }
    ],
    "color": "#2ff768",
    "start_point_name": "동백숲",
    "length": 49,
    "time": "0"
  },
  {
    "path_id": 98,
    "path": [
      {
        "lat": 35.497166,
        "lng": 126.577744
      },
      {
        "lat": 35.496601,
        "lng": 126.578316
      }
    ],
    "color": "#756fe0",
    "start_point_name": "꽃무릇과 동백숲",
    "length": 81,
    "time": "1"
  },
  {
    "path_id": 99,
    "path": [
      {
        "lat": 35.496601,
        "lng": 126.578316
      },
      {
        "lat": 35.496616,
        "lng": 126.578346
      }
    ],
    "color": "#e35629",
    "start_point_name": "범종",
    "length": 3,
    "time": "0"
  },
  {
    "path_id": 100,
    "path": [
      {
        "lat": 35.496616,
        "lng": 126.578346
      },
      {
        "lat": 35.497173,
        "lng": 126.578529
      }
    ],
    "color": "#a1c204",
    "start_point_name": "배롱나무와 만세루",
    "length": 64,
    "time": "1"
  },
  {
    "path_id": 101,
    "path": [
      {
        "lat": 35.497173,
        "lng": 126.578529
      },
      {
        "lat": 35.497398,
        "lng": 126.578651
      }
    ],
    "color": "#5e56f0",
    "start_point_name": "지장보살전",
    "length": 27,
    "time": "0"
  },
  {
    "path_id": 102,
    "path": [
      {
        "lat": 35.497398,
        "lng": 126.578651
      },
      {
        "lat": 35.497585,
        "lng": 126.578743
      }
    ],
    "color": "#996052",
    "start_point_name": "금동보살자살",
    "length": 22,
    "time": "0"
  },
  {
    "path_id": 103,
    "path": [
      {
        "lat": 35.497585,
        "lng": 126.578743
      },
      {
        "lat": 35.497261,
        "lng": 126.578873
      }
    ],
    "color": "#4b7d18",
    "start_point_name": "동백숲 -천년기념물184호",
    "length": 37,
    "time": "0"
  },
  {
    "path_id": 104,
    "path": [
      {
        "lat": 35.497261,
        "lng": 126.578873
      },
      {
        "lat": 35.497208,
        "lng": 126.57888
      }
    ],
    "color": "#a27750",
    "start_point_name": "선운사",
    "length": 5,
    "time": "0"
  },
  {
    "path_id": 105,
    "path": [
      {
        "lat": 35.497208,
        "lng": 126.57888
      },
      {
        "lat": 35.497078,
        "lng": 126.57888
      }
    ],
    "color": "#9d4f76",
    "start_point_name": "테이블벤치",
    "length": 14,
    "time": "0"
  },
  {
    "path_id": 106,
    "path": [
      {
        "lat": 35.497078,
        "lng": 126.57888
      },
      {
        "lat": 35.496948,
        "lng": 126.578957
      }
    ],
    "color": "#7c551d",
    "start_point_name": "선운사",
    "length": 16,
    "time": "0"
  },
  {
    "path_id": 107,
    "path": [
      {
        "lat": 35.496948,
        "lng": 126.578957
      },
      {
        "lat": 35.496689,
        "lng": 126.578529
      }
    ],
    "color": "#001a97",
    "start_point_name": "해우소",
    "length": 48,
    "time": "0"
  },
  {
    "path_id": 108,
    "path": [
      {
        "lat": 35.496689,
        "lng": 126.578529
      },
      {
        "lat": 35.496593,
        "lng": 126.578506
      }
    ],
    "color": "#94410a",
    "start_point_name": "배롱나무",
    "length": 10,
    "time": "0"
  },
  {
    "path_id": 109,
    "path": [
      {
        "lat": 35.496593,
        "lng": 126.578506
      },
      {
        "lat": 35.496529,
        "lng": 126.578674
      }
    ],
    "color": "#76bb45",
    "start_point_name": "인경봉",
    "length": 16,
    "time": "0"
  },
  {
    "path_id": 110,
    "path": [
      {
        "lat": 35.496529,
        "lng": 126.578674
      },
      {
        "lat": 35.496929,
        "lng": 126.579369
      }
    ],
    "color": "#f1bd81",
    "start_point_name": "선운사 천왕문",
    "length": 77,
    "time": "1"
  },
  {
    "path_id": 111,
    "path": [
      {
        "lat": 35.496929,
        "lng": 126.579369
      },
      {
        "lat": 35.497219,
        "lng": 126.579857
      }
    ],
    "color": "#9e1df8",
    "start_point_name": "선운사 옆 자연쉼터",
    "length": 54,
    "time": "0"
  },
  {
    "path_id": 112,
    "path": [
      {
        "lat": 35.497219,
        "lng": 126.579857
      },
      {
        "lat": 35.49762,
        "lng": 126.580833
      }
    ],
    "color": "#4f1460",
    "start_point_name": "도솔천",
    "length": 98,
    "time": "1"
  },
  {
    "path_id": 113,
    "path": [
      {
        "lat": 35.49762,
        "lng": 126.580833
      },
      {
        "lat": 35.498455,
        "lng": 126.582718
      }
    ],
    "color": "#7cb177",
    "start_point_name": "부도군",
    "length": 194,
    "time": "3"
  },
  {
    "path_id": 114,
    "path": [
      {
        "lat": 35.498455,
        "lng": 126.582718
      },
      {
        "lat": 35.498775,
        "lng": 126.583237
      }
    ],
    "color": "#434601",
    "start_point_name": "매표소",
    "length": 58,
    "time": "0"
  },
  {
    "path_id": 115,
    "path": [
      {
        "lat": 35.498775,
        "lng": 126.583237
      },
      {
        "lat": 35.498898,
        "lng": 126.583382
      }
    ],
    "color": "#d2eca2",
    "start_point_name": "선운산가비",
    "length": 18,
    "time": "0"
  },
  {
    "path_id": 116,
    "path": [
      {
        "lat": 35.498898,
        "lng": 126.583382
      },
      {
        "lat": 35.499355,
        "lng": 126.583786
      }
    ],
    "color": "#992a17",
    "start_point_name": "정자",
    "length": 62,
    "time": "1"
  },
  {
    "path_id": 117,
    "path": [
      {
        "lat": 35.499355,
        "lng": 126.583786
      },
      {
        "lat": 35.499882,
        "lng": 126.584297
      }
    ],
    "color": "#d6740d",
    "start_point_name": "꽃무릇군락",
    "length": 74,
    "time": "1"
  },
  {
    "path_id": 118,
    "path": [
      {
        "lat": 35.499882,
        "lng": 126.584297
      },
      {
        "lat": 35.500103,
        "lng": 126.584412
      }
    ],
    "color": "#1c9786",
    "start_point_name": "노점커피",
    "length": 26,
    "time": "0"
  },
  {
    "path_id": 119,
    "path": [
      {
        "lat": 35.500103,
        "lng": 126.584412
      },
      {
        "lat": 35.500301,
        "lng": 126.584259
      }
    ],
    "color": "#721373",
    "start_point_name": "등나무벤치",
    "length": 26,
    "time": "0"
  },
  {
    "path_id": 120,
    "path": [
      {
        "lat": 35.500301,
        "lng": 126.584259
      },
      {
        "lat": 35.501698,
        "lng": 126.584702
      }
    ],
    "color": "#a05eba",
    "start_point_name": "생태숲",
    "length": 160,
    "time": "2"
  },
  {
    "path_id": 121,
    "path": [
      {
        "lat": 35.501698,
        "lng": 126.584702
      },
      {
        "lat": 35.501671,
        "lng": 126.584839
      }
    ],
    "color": "#13ad67",
    "start_point_name": "생태숲방문자센터",
    "length": 12,
    "time": "0"
  },
  {
    "path_id": 122,
    "path": [
      {
        "lat": 35.501671,
        "lng": 126.584839
      },
      {
        "lat": 35.501602,
        "lng": 126.584824
      }
    ],
    "color": "#adf877",
    "start_point_name": "비학산",
    "length": 7,
    "time": "0"
  },
  {
    "path_id": 123,
    "path": [
      {
        "lat": 35.501602,
        "lng": 126.584824
      },
      {
        "lat": 35.501514,
        "lng": 126.585518
      }
    ],
    "color": "#1a4573",
    "start_point_name": "정자와벤치",
    "length": 63,
    "time": "1"
  },
  {
    "path_id": 124,
    "path": [
      {
        "lat": 35.501514,
        "lng": 126.585518
      },
      {
        "lat": 35.501541,
        "lng": 126.58564
      }
    ],
    "color": "#d8123a",
    "start_point_name": "선운산생태숲",
    "length": 11,
    "time": "0"
  },
  {
    "path_id": 125,
    "path": [
      {
        "lat": 35.501541,
        "lng": 126.58564
      },
      {
        "lat": 35.501404,
        "lng": 126.585808
      }
    ],
    "color": "#881ebb",
    "start_point_name": "벤치",
    "length": 21,
    "time": "0"
  },
  {
    "path_id": 126,
    "path": [
      {
        "lat": 35.501404,
        "lng": 126.585808
      },
      {
        "lat": 35.501648,
        "lng": 126.585915
      }
    ],
    "color": "#dc3ed7",
    "start_point_name": "생태숲 안내도",
    "length": 28,
    "time": "0"
  },
  {
    "path_id": 127,
    "path": [
      {
        "lat": 35.501648,
        "lng": 126.585915
      },
      {
        "lat": 35.501949,
        "lng": 126.586243
      }
    ],
    "color": "#f40332",
    "start_point_name": "벤치",
    "length": 44,
    "time": "0"
  },
  {
    "path_id": 128,
    "path": [
      {
        "lat": 35.501949,
        "lng": 126.586243
      },
      {
        "lat": 35.501984,
        "lng": 126.586327
      }
    ],
    "color": "#7158b6",
    "start_point_name": "까페",
    "length": 8,
    "time": "0"
  },
  {
    "path_id": 129,
    "path": [
      {
        "lat": 35.501984,
        "lng": 126.586327
      },
      {
        "lat": 35.502552,
        "lng": 126.586441
      }
    ],
    "color": "#e4c5d7",
    "start_point_name": "매점 및 농협",
    "length": 63,
    "time": "1"
  },
  {
    "path_id": 130,
    "path": [
      {
        "lat": 35.502552,
        "lng": 126.586441
      },
      {
        "lat": 35.502804,
        "lng": 126.586357
      }
    ],
    "color": "#6beb78",
    "start_point_name": "선운초서문화관",
    "length": 29,
    "time": "0"
  },
  {
    "path_id": 131,
    "path": [
      {
        "lat": 35.502804,
        "lng": 126.586357
      },
      {
        "lat": 35.503052,
        "lng": 126.58625
      }
    ],
    "color": "#8e0f33",
    "start_point_name": "쉼터광장",
    "length": 29,
    "time": "0"
  },
  {
    "path_id": 132,
    "path": [
      {
        "lat": 35.503052,
        "lng": 126.58625
      },
      {
        "lat": 35.503181,
        "lng": 126.586121
      }
    ],
    "color": "#c08cda",
    "start_point_name": "식당가 :실내보다 실외 테라스를 모두 갖춤",
    "length": 18,
    "time": "0"
  }
]