{
  "mnt_id": 50,
  "mnt_name": "선운산",
  "course_id": 137,
  "max_ele": 360.475,
  "total_length_km": "7.2km",
  "total_time": "1시간 29분",
  "start_name": "선운산버스터미널",
  "end_name": "선운초서문화관",
  "level": "중",
  "track": [
    {
      "path_id": 0,
      "path": [
        {
          "lat": 35.502979,
          "lng": 126.586983,
          "ele": 56.581
        },
        {
          "lat": 35.502544,
          "lng": 126.587006,
          "ele": 53.271
        }
      ],
      "color": "#c07f3a",
      "start_name": "선운산버스터미널 / 전라북도 관광 안내도 / 버스시간표 / 버스터비널 옆쉼터 / 쉼터광장 / 점자안내판 / 쉼터옆 화장실",
      "end_name": "관광안내소",
      "length_meter": 68.1,
      "time_minute": 1
    },
    {
      "path_id": 1,
      "path": [
        {
          "lat": 35.502544,
          "lng": 126.587006,
          "ele": 53.271
        },
        {
          "lat": 35.501942,
          "lng": 126.586617,
          "ele": 52.006
        }
      ],
      "color": "#6c8595",
      "start_name": "관광안내소 / 문화 생태탐방로 / 고창군관광안내도 / 선운산 도립 공원 등산 안내도 / 송악 - 천년기념물 367호",
      "end_name": "송악  -  천년기념물367호",
      "length_meter": 81.7,
      "time_minute": 1
    },
    {
      "path_id": 2,
      "path": [
        {
          "lat": 35.501942,
          "lng": 126.586617,
          "ele": 52.006
        },
        {
          "lat": 35.501255,
          "lng": 126.58593,
          "ele": 48.832
        }
      ],
      "color": "#337460",
      "start_name": "송악  -  천년기념물367호 / 꽃무릇위 송악",
      "end_name": "벚나무 좌판가게",
      "length_meter": 116.8,
      "time_minute": 1
    },
    {
      "path_id": 3,
      "path": [
        {
          "lat": 35.501255,
          "lng": 126.58593,
          "ele": 48.832
        },
        {
          "lat": 35.500679,
          "lng": 126.585342,
          "ele": 49.274
        }
      ],
      "color": "#308e7d",
      "start_name": "벚나무 좌판가게",
      "end_name": "꽃무릇길",
      "length_meter": 83.3,
      "time_minute": 1
    },
    {
      "path_id": 4,
      "path": [
        {
          "lat": 35.500679,
          "lng": 126.585342,
          "ele": 49.274
        },
        {
          "lat": 35.50021,
          "lng": 126.584831,
          "ele": 49.56
        }
      ],
      "color": "#3a7d50",
      "start_name": "꽃무릇길 / 길가벤치",
      "end_name": "생태숲",
      "length_meter": 69.7,
      "time_minute": 1
    },
    {
      "path_id": 5,
      "path": [
        {
          "lat": 35.50021,
          "lng": 126.584831,
          "ele": 49.56
        },
        {
          "lat": 35.499626,
          "lng": 126.584244,
          "ele": 50.46
        }
      ],
      "color": "#33b701",
      "start_name": "생태숲 / 꽃무릇길",
      "end_name": "도솔천",
      "length_meter": 84.0,
      "time_minute": 1
    },
    {
      "path_id": 6,
      "path": [
        {
          "lat": 35.499626,
          "lng": 126.584244,
          "ele": 50.46
        },
        {
          "lat": 35.498814,
          "lng": 126.583534,
          "ele": 50.611
        }
      ],
      "color": "#ab8e73",
      "start_name": "도솔천",
      "end_name": "꽃무릇",
      "length_meter": 110.8,
      "time_minute": 1
    },
    {
      "path_id": 7,
      "path": [
        {
          "lat": 35.498814,
          "lng": 126.583534,
          "ele": 50.611
        },
        {
          "lat": 35.498371,
          "lng": 126.582512,
          "ele": 51.424
        }
      ],
      "color": "#7a134e",
      "start_name": "꽃무릇 / 미당 서정주시비",
      "end_name": "도솔산 선운사",
      "length_meter": 105.1,
      "time_minute": 1
    },
    {
      "path_id": 8,
      "path": [
        {
          "lat": 35.498371,
          "lng": 126.582512,
          "ele": 51.424
        },
        {
          "lat": 35.498093,
          "lng": 126.582268,
          "ele": 51.639
        }
      ],
      "color": "#956a2c",
      "start_name": "도솔산 선운사",
      "end_name": "공중화장실",
      "length_meter": 38.0,
      "time_minute": 0
    },
    {
      "path_id": 9,
      "path": [
        {
          "lat": 35.498093,
          "lng": 126.582268,
          "ele": 51.639
        },
        {
          "lat": 35.497814,
          "lng": 126.581886,
          "ele": 52.153
        }
      ],
      "color": "#553fc0",
      "start_name": "공중화장실 / 갈림길",
      "end_name": "꽃무릇",
      "length_meter": 46.5,
      "time_minute": 0
    },
    {
      "path_id": 10,
      "path": [
        {
          "lat": 35.497814,
          "lng": 126.581886,
          "ele": 52.153
        },
        {
          "lat": 35.497364,
          "lng": 126.580086,
          "ele": 54.259
        }
      ],
      "color": "#8f849f",
      "start_name": "꽃무릇",
      "end_name": "갈림길",
      "length_meter": 170.5,
      "time_minute": 2
    },
    {
      "path_id": 11,
      "path": [
        {
          "lat": 35.497364,
          "lng": 126.580086,
          "ele": 54.259
        },
        {
          "lat": 35.498123,
          "lng": 126.579399,
          "ele": 54.569
        }
      ],
      "color": "#3cc0b9",
      "start_name": "갈림길 / 쉼터광장",
      "end_name": "차문화 체험관",
      "length_meter": 107.1,
      "time_minute": 1
    },
    {
      "path_id": 12,
      "path": [
        {
          "lat": 35.498123,
          "lng": 126.579399,
          "ele": 54.569
        },
        {
          "lat": 35.498806,
          "lng": 126.578484,
          "ele": 54.954
        }
      ],
      "color": "#5f69a9",
      "start_name": "차문화 체험관",
      "end_name": "선운골 생태마을",
      "length_meter": 112.4,
      "time_minute": 1
    },
    {
      "path_id": 13,
      "path": [
        {
          "lat": 35.498806,
          "lng": 126.578484,
          "ele": 54.954
        },
        {
          "lat": 35.499416,
          "lng": 126.578094,
          "ele": 56.554
        }
      ],
      "color": "#b99c04",
      "start_name": "선운골 생태마을 / 차밭과 꽃무릇 / 차밭에서 박새",
      "end_name": "차밭",
      "length_meter": 76.5,
      "time_minute": 1
    },
    {
      "path_id": 14,
      "path": [
        {
          "lat": 35.499416,
          "lng": 126.578094,
          "ele": 56.554
        },
        {
          "lat": 35.501026,
          "lng": 126.575005,
          "ele": 64.35
        }
      ],
      "color": "#2db861",
      "start_name": "차밭",
      "end_name": "갈림길",
      "length_meter": 332.0,
      "time_minute": 4
    },
    {
      "path_id": 15,
      "path": [
        {
          "lat": 35.501026,
          "lng": 126.575005,
          "ele": 64.35
        },
        {
          "lat": 35.501076,
          "lng": 126.574913,
          "ele": 77.877
        }
      ],
      "color": "#5a2baf",
      "start_name": "갈림길 / 석상암",
      "end_name": "꽃",
      "length_meter": 100.9,
      "time_minute": 1
    },
    {
      "path_id": 16,
      "path": [
        {
          "lat": 35.501076,
          "lng": 126.574913,
          "ele": 77.877
        },
        {
          "lat": 35.501099,
          "lng": 126.573814,
          "ele": 85.66
        }
      ],
      "color": "#1e3f16",
      "start_name": "꽃 / 꽃무릇",
      "end_name": "자릿대군락",
      "length_meter": 101.2,
      "time_minute": 1
    },
    {
      "path_id": 17,
      "path": [
        {
          "lat": 35.501099,
          "lng": 126.573814,
          "ele": 85.66
        },
        {
          "lat": 35.502594,
          "lng": 126.570038,
          "ele": 191.358
        }
      ],
      "color": "#c20ca7",
      "start_name": "자릿대군락",
      "end_name": "야생화",
      "length_meter": 380.1,
      "time_minute": 4
    },
    {
      "path_id": 18,
      "path": [
        {
          "lat": 35.502594,
          "lng": 126.570038,
          "ele": 191.358
        },
        {
          "lat": 35.5037,
          "lng": 126.56826,
          "ele": 229.173
        }
      ],
      "color": "#34c170",
      "start_name": "야생화",
      "end_name": "갈림길",
      "length_meter": 202.6,
      "time_minute": 2
    },
    {
      "path_id": 19,
      "path": [
        {
          "lat": 35.5037,
          "lng": 126.56826,
          "ele": 229.173
        },
        {
          "lat": 35.498787,
          "lng": 126.569092,
          "ele": 322.248
        }
      ],
      "color": "#197b94",
      "start_name": "갈림길 / 등산위치알림판 / 테이블쉼터",
      "end_name": "테이블",
      "length_meter": 553.5,
      "time_minute": 9
    },
    {
      "path_id": 20,
      "path": [
        {
          "lat": 35.498787,
          "lng": 126.569092,
          "ele": 322.248
        },
        {
          "lat": 35.498219,
          "lng": 126.568604,
          "ele": 360.442
        }
      ],
      "color": "#2933ba",
      "start_name": "테이블 / 선운산(도솔산) 수리봉 / 변산반도와 곰소항",
      "end_name": "여로",
      "length_meter": 77.9,
      "time_minute": 1
    },
    {
      "path_id": 21,
      "path": [
        {
          "lat": 35.498219,
          "lng": 126.568604,
          "ele": 360.442
        },
        {
          "lat": 35.49752,
          "lng": 126.568336,
          "ele": 359.481
        }
      ],
      "color": "#a060a5",
      "start_name": "여로",
      "end_name": "갈림길",
      "length_meter": 81.4,
      "time_minute": 1
    },
    {
      "path_id": 22,
      "path": [
        {
          "lat": 35.49752,
          "lng": 126.568336,
          "ele": 359.481
        },
        {
          "lat": 35.496162,
          "lng": 126.568604,
          "ele": 357.764
        }
      ],
      "color": "#2c135e",
      "start_name": "갈림길",
      "end_name": "도솔제",
      "length_meter": 152.9,
      "time_minute": 1
    },
    {
      "path_id": 23,
      "path": [
        {
          "lat": 35.496162,
          "lng": 126.568604,
          "ele": 357.764
        },
        {
          "lat": 35.495342,
          "lng": 126.568428,
          "ele": 354.976
        }
      ],
      "color": "#933c48",
      "start_name": "도솔제",
      "end_name": "집단시설지구 선운사",
      "length_meter": 92.6,
      "time_minute": 1
    },
    {
      "path_id": 24,
      "path": [
        {
          "lat": 35.495342,
          "lng": 126.568428,
          "ele": 354.976
        },
        {
          "lat": 35.494541,
          "lng": 126.568268,
          "ele": 354.52
        }
      ],
      "color": "#8ebd31",
      "start_name": "집단시설지구 선운사 / 도솔제주변 능선 / 선운사집단시설지구와 선우사 주변 능선 / 도솔제",
      "end_name": "포갠바위",
      "length_meter": 98.8,
      "time_minute": 1
    },
    {
      "path_id": 25,
      "path": [
        {
          "lat": 35.494541,
          "lng": 126.568268,
          "ele": 354.52
        },
        {
          "lat": 35.493862,
          "lng": 126.568069,
          "ele": 351.778
        }
      ],
      "color": "#620d97",
      "start_name": "포갠바위 / 너럭바위 / 선운산도립공원내 능선들",
      "end_name": "층꽃",
      "length_meter": 78.5,
      "time_minute": 1
    },
    {
      "path_id": 26,
      "path": [
        {
          "lat": 35.493862,
          "lng": 126.568069,
          "ele": 351.778
        },
        {
          "lat": 35.492153,
          "lng": 126.56752,
          "ele": 323.975
        }
      ],
      "color": "#bc5b4d",
      "start_name": "층꽃",
      "end_name": "갈림길",
      "length_meter": 196.4,
      "time_minute": 2
    },
    {
      "path_id": 27,
      "path": [
        {
          "lat": 35.492153,
          "lng": 126.56752,
          "ele": 323.975
        },
        {
          "lat": 35.489361,
          "lng": 126.570396,
          "ele": 147.942
        }
      ],
      "color": "#17599d",
      "start_name": "갈림길",
      "end_name": "탑",
      "length_meter": 405.2,
      "time_minute": 5
    },
    {
      "path_id": 28,
      "path": [
        {
          "lat": 35.489361,
          "lng": 126.570396,
          "ele": 147.942
        },
        {
          "lat": 35.490078,
          "lng": 126.571793,
          "ele": 125.377
        }
      ],
      "color": "#9f7dc5",
      "start_name": "탑",
      "end_name": "테이블과 벤치",
      "length_meter": 149.5,
      "time_minute": 1
    },
    {
      "path_id": 29,
      "path": [
        {
          "lat": 35.490078,
          "lng": 126.571793,
          "ele": 125.377
        },
        {
          "lat": 35.490906,
          "lng": 126.573425,
          "ele": 104.683
        }
      ],
      "color": "#9b0058",
      "start_name": "테이블과 벤치",
      "end_name": "꽃무릇 군락지",
      "length_meter": 174.1,
      "time_minute": 2
    },
    {
      "path_id": 30,
      "path": [
        {
          "lat": 35.490906,
          "lng": 126.573425,
          "ele": 104.683
        },
        {
          "lat": 35.491062,
          "lng": 126.574799,
          "ele": 92.858
        }
      ],
      "color": "#5cc336",
      "start_name": "꽃무릇 군락지",
      "end_name": "템플스테이",
      "length_meter": 125.6,
      "time_minute": 1
    },
    {
      "path_id": 31,
      "path": [
        {
          "lat": 35.491062,
          "lng": 126.574799,
          "ele": 92.858
        },
        {
          "lat": 35.491161,
          "lng": 126.575005,
          "ele": 89.241
        }
      ],
      "color": "#c04f1f",
      "start_name": "템플스테이 / 선운사 연수원",
      "end_name": "탐방로",
      "length_meter": 21.7,
      "time_minute": 0
    },
    {
      "path_id": 32,
      "path": [
        {
          "lat": 35.491161,
          "lng": 126.575005,
          "ele": 89.241
        },
        {
          "lat": 35.491707,
          "lng": 126.57486,
          "ele": 82.736
        }
      ],
      "color": "#6d05c6",
      "start_name": "탐방로 / 갈림길",
      "end_name": "정자와 벤치",
      "length_meter": 62.4,
      "time_minute": 1
    },
    {
      "path_id": 33,
      "path": [
        {
          "lat": 35.491707,
          "lng": 126.57486,
          "ele": 82.736
        },
        {
          "lat": 35.494469,
          "lng": 126.574936,
          "ele": 73.097
        }
      ],
      "color": "#244232",
      "start_name": "정자와 벤치 / 도솔천",
      "end_name": "도솔천 건너 차밭",
      "length_meter": 307.2,
      "time_minute": 5
    },
    {
      "path_id": 34,
      "path": [
        {
          "lat": 35.494469,
          "lng": 126.574936,
          "ele": 73.097
        },
        {
          "lat": 35.495102,
          "lng": 126.575813,
          "ele": 69.435
        }
      ],
      "color": "#513e0b",
      "start_name": "도솔천 건너 차밭 / 도솔천 식생 / 도솔천과 탕방로",
      "end_name": "도솔천 주변 꽃무릇",
      "length_meter": 106.6,
      "time_minute": 1
    },
    {
      "path_id": 35,
      "path": [
        {
          "lat": 35.495102,
          "lng": 126.575813,
          "ele": 69.435
        },
        {
          "lat": 35.49654,
          "lng": 126.578659,
          "ele": 65.468
        }
      ],
      "color": "#190f78",
      "start_name": "도솔천 주변 꽃무릇 / 도솔천이 검게 보이는 이유:타닌성분",
      "end_name": "만세루",
      "length_meter": 306.9,
      "time_minute": 5
    },
    {
      "path_id": 36,
      "path": [
        {
          "lat": 35.49654,
          "lng": 126.578659,
          "ele": 65.468
        },
        {
          "lat": 35.497105,
          "lng": 126.578278,
          "ele": 59.315
        }
      ],
      "color": "#041fbe",
      "start_name": "만세루 / 영산전과 명부전일대",
      "end_name": "육층석탑",
      "length_meter": 77.3,
      "time_minute": 1
    },
    {
      "path_id": 37,
      "path": [
        {
          "lat": 35.497105,
          "lng": 126.578278,
          "ele": 59.315
        },
        {
          "lat": 35.496983,
          "lng": 126.577599,
          "ele": 60.353
        }
      ],
      "color": "#6f0774",
      "start_name": "육층석탑 / 대웅보전과 육층석탑 / 좌상",
      "end_name": "대웅보전과 만세루",
      "length_meter": 81.8,
      "time_minute": 1
    },
    {
      "path_id": 38,
      "path": [
        {
          "lat": 35.496983,
          "lng": 126.577599,
          "ele": 60.353
        },
        {
          "lat": 35.497158,
          "lng": 126.577759,
          "ele": 60.816
        }
      ],
      "color": "#a0352e",
      "start_name": "대웅보전과 만세루 / 영산전 / 마실수 있는문",
      "end_name": "팔상전과 산신각",
      "length_meter": 68.6,
      "time_minute": 1
    },
    {
      "path_id": 39,
      "path": [
        {
          "lat": 35.497158,
          "lng": 126.577759,
          "ele": 60.816
        },
        {
          "lat": 35.497166,
          "lng": 126.577744,
          "ele": 60.85
        }
      ],
      "color": "#65b16e",
      "start_name": "팔상전과 산신각 / 동백숲",
      "end_name": "꽃무릇과 동백숲",
      "length_meter": 97.2,
      "time_minute": 1
    },
    {
      "path_id": 40,
      "path": [
        {
          "lat": 35.497166,
          "lng": 126.577744,
          "ele": 60.85
        },
        {
          "lat": 35.496601,
          "lng": 126.578316,
          "ele": 61.927
        }
      ],
      "color": "#824037",
      "start_name": "꽃무릇과 동백숲",
      "end_name": "범종",
      "length_meter": 81.4,
      "time_minute": 1
    },
    {
      "path_id": 41,
      "path": [
        {
          "lat": 35.496601,
          "lng": 126.578316,
          "ele": 61.927
        },
        {
          "lat": 35.497173,
          "lng": 126.578529,
          "ele": 59.659
        }
      ],
      "color": "#6d2b77",
      "start_name": "범종 / 배롱나무와 만세루",
      "end_name": "지장보살전",
      "length_meter": 67.3,
      "time_minute": 1
    },
    {
      "path_id": 42,
      "path": [
        {
          "lat": 35.497173,
          "lng": 126.578529,
          "ele": 59.659
        },
        {
          "lat": 35.497261,
          "lng": 126.578873,
          "ele": 62.083
        }
      ],
      "color": "#a7797b",
      "start_name": "지장보살전 / 금동보살자살 / 동백숲 -천년기념물184호",
      "end_name": "선운사",
      "length_meter": 87.6,
      "time_minute": 1
    },
    {
      "path_id": 43,
      "path": [
        {
          "lat": 35.497261,
          "lng": 126.578873,
          "ele": 62.083
        },
        {
          "lat": 35.496689,
          "lng": 126.578529,
          "ele": 65.108
        }
      ],
      "color": "#a23a77",
      "start_name": "선운사 / 테이블벤치 / 선운사 / 해우소",
      "end_name": "배롱나무",
      "length_meter": 84.7,
      "time_minute": 1
    },
    {
      "path_id": 44,
      "path": [
        {
          "lat": 35.496689,
          "lng": 126.578529,
          "ele": 65.108
        },
        {
          "lat": 35.496929,
          "lng": 126.579369,
          "ele": 63.382
        }
      ],
      "color": "#255b11",
      "start_name": "배롱나무 / 인경봉 / 선운사 천왕문",
      "end_name": "선운사 옆 자연쉼터",
      "length_meter": 104.7,
      "time_minute": 1
    },
    {
      "path_id": 45,
      "path": [
        {
          "lat": 35.496929,
          "lng": 126.579369,
          "ele": 63.382
        },
        {
          "lat": 35.49762,
          "lng": 126.580833,
          "ele": 61.956
        }
      ],
      "color": "#ad4a10",
      "start_name": "선운사 옆 자연쉼터 / 도솔천",
      "end_name": "부도군",
      "length_meter": 153.7,
      "time_minute": 2
    },
    {
      "path_id": 46,
      "path": [
        {
          "lat": 35.49762,
          "lng": 126.580833,
          "ele": 61.956
        },
        {
          "lat": 35.498455,
          "lng": 126.582718,
          "ele": 51.36
        }
      ],
      "color": "#b6b1b7",
      "start_name": "부도군",
      "end_name": "매표소",
      "length_meter": 194.3,
      "time_minute": 2
    },
    {
      "path_id": 47,
      "path": [
        {
          "lat": 35.498455,
          "lng": 126.582718,
          "ele": 51.36
        },
        {
          "lat": 35.498898,
          "lng": 126.583382,
          "ele": 57.696
        }
      ],
      "color": "#077e48",
      "start_name": "매표소 / 선운산가비",
      "end_name": "정자",
      "length_meter": 77.9,
      "time_minute": 1
    },
    {
      "path_id": 48,
      "path": [
        {
          "lat": 35.498898,
          "lng": 126.583382,
          "ele": 57.696
        },
        {
          "lat": 35.499882,
          "lng": 126.584297,
          "ele": 55.826
        }
      ],
      "color": "#3a0c2f",
      "start_name": "정자 / 꽃무릇군락",
      "end_name": "노점커피",
      "length_meter": 137.3,
      "time_minute": 2
    },
    {
      "path_id": 49,
      "path": [
        {
          "lat": 35.499882,
          "lng": 126.584297,
          "ele": 55.826
        },
        {
          "lat": 35.501698,
          "lng": 126.584702,
          "ele": 52.604
        }
      ],
      "color": "#400869",
      "start_name": "노점커피 / 등나무벤치 / 생태숲",
      "end_name": "생태숲방문자센터",
      "length_meter": 213.1,
      "time_minute": 3
    },
    {
      "path_id": 50,
      "path": [
        {
          "lat": 35.501698,
          "lng": 126.584702,
          "ele": 52.604
        },
        {
          "lat": 35.501514,
          "lng": 126.585518,
          "ele": 52.382
        }
      ],
      "color": "#358860",
      "start_name": "생태숲방문자센터 / 비학산 / 정자와벤치",
      "end_name": "선운산생태숲",
      "length_meter": 84.1,
      "time_minute": 1
    },
    {
      "path_id": 51,
      "path": [
        {
          "lat": 35.501514,
          "lng": 126.585518,
          "ele": 52.382
        },
        {
          "lat": 35.501949,
          "lng": 126.586243,
          "ele": 51.924
        }
      ],
      "color": "#43c523",
      "start_name": "선운산생태숲 / 생태숲 안내도",
      "end_name": "까페",
      "length_meter": 101.2,
      "time_minute": 1
    },
    {
      "path_id": 52,
      "path": [
        {
          "lat": 35.501949,
          "lng": 126.586243,
          "ele": 51.924
        },
        {
          "lat": 35.502552,
          "lng": 126.586441,
          "ele": 52.255
        }
      ],
      "color": "#227352",
      "start_name": "까페 / 매점 및 농협",
      "end_name": "선운초서문화관",
      "length_meter": 72.5,
      "time_minute": 1
    }
  ]
}