[
    {
        "name": "새재 화장실",
        "lat": 35.464317,
        "lon": 126.837601
    },
    {
        "name": "무장애 탐방로",
        "lat": 35.464375,
        "lon": 126.837382
    },
    {
        "name": "자연관찰로",
        "lat": 35.464378,
        "lon": 126.837387
    },
    {
        "name": "남창골 가마터",
        "lat": 35.463593,
        "lon": 126.837334
    },
    {
        "name": "너덜지대 지형",
        "lat": 35.463361,
        "lon": 126.837491
    },
    {
        "name": "그네 쉼터",
        "lat": 35.463184,
        "lon": 126.837677
    },
    {
        "name": "낙엽분해관찰",
        "lat": 35.462955,
        "lon": 126.83812
    },
    {
        "name": "남창골 새 이야기",
        "lat": 35.46278,
        "lon": 126.838283
    },
    {
        "name": "간이쉼터",
        "lat": 35.462715,
        "lon": 126.838432
    },
    {
        "name": "간이쉼터",
        "lat": 35.462612,
        "lon": 126.838585
    },
    {
        "name": "남창계곡",
        "lat": 35.462776,
        "lon": 126.838791
    },
    {
        "name": "간이쉼터",
        "lat": 35.463028,
        "lon": 126.838875
    },
    {
        "name": "바위글씨와 일제시대 아픈 역사 이야기",
        "lat": 35.463741,
        "lon": 126.838272
    },
    {
        "name": "전남대 장성학술팀 조림 현황 안내",
        "lat": 35.465112,
        "lon": 126.836134
    },
    {
        "name": "갈림길",
        "lat": 35.465084,
        "lon": 126.836128
    },
    {
        "name": "장성새재",
        "lat": 35.465073,
        "lon": 126.836151
    },
    {
        "name": "위치번호 백암19-04",
        "lat": 35.478726,
        "lon": 126.841195
    },
    {
        "name": "장성새재 오솔길",
        "lat": 35.47879,
        "lon": 126.841151
    },
    {
        "name": "월은치",
        "lat": 35.479706,
        "lon": 126.841058
    },
    {
        "name": "장성새재  쉼터",
        "lat": 35.480759,
        "lon": 126.841339
    },
    {
        "name": "갈림길",
        "lat": 35.48077,
        "lon": 126.841347
    },
    {
        "name": "위치번호 내장10-03",
        "lat": 35.479709,
        "lon": 126.848452
    },
    {
        "name": "길 안내표지",
        "lat": 35.480165,
        "lon": 126.850164
    },
    {
        "name": "순창새재 농가",
        "lat": 35.480165,
        "lon": 126.850164
    },
    {
        "name": "순창새재 탐방로 안내표지판",
        "lat": 35.480036,
        "lon": 126.850359
    },
    {
        "name": "길 안내표지",
        "lat": 35.479037,
        "lon": 126.852832
    },
    {
        "name": "위치번호 내장10-01",
        "lat": 35.478196,
        "lon": 126.855585
    },
    {
        "name": "갈림길",
        "lat": 35.477734,
        "lon": 126.860901
    },
    {
        "name": "순창새재",
        "lat": 35.477718,
        "lon": 126.860947
    },
    {
        "name": "산불진화장비 보관함",
        "lat": 35.477741,
        "lon": 126.86097
    },
    {
        "name": "야생화",
        "lat": 35.480006,
        "lon": 126.849795
    },
    {
        "name": "위치번호 내장10-06",
        "lat": 35.488693,
        "lon": 126.840309
    },
    {
        "name": "장성새재 옛길",
        "lat": 35.491187,
        "lon": 126.841468
    },
    {
        "name": "위치번호 10-07",
        "lat": 35.493176,
        "lon": 126.84111
    },
    {
        "name": "입암공원지킴터",
        "lat": 35.496754,
        "lon": 126.841637
    },
    {
        "name": "입암분소",
        "lat": 35.496761,
        "lon": 126.841644
    },
    {
        "name": "입암공원 지킴터 탐방로",
        "lat": 35.496845,
        "lon": 126.841601
    },
    {
        "name": "위치번호 안내판",
        "lat": 35.496625,
        "lon": 126.841616
    },
    {
        "name": "내장산 단풍",
        "lat": 35.472843,
        "lon": 126.841454
    },
    {
        "name": "형제농원",
        "lat": 35.460835,
        "lon": 126.840881
    }
]