[
    {
        "name": "백양 탐방지원센터",
        "lat": 35.429295,
        "lon": 126.879654
    },
    {
        "name": "길안내",
        "lat": 35.429432,
        "lon": 126.879673
    },
    {
        "name": "일주문 화장실",
        "lat": 35.429432,
        "lon": 126.879646
    },
    {
        "name": "갈림길",
        "lat": 35.430752,
        "lon": 126.880035
    },
    {
        "name": "쉼터",
        "lat": 35.431175,
        "lon": 126.879997
    },
    {
        "name": "가인 민박마을 입구",
        "lat": 35.431318,
        "lon": 126.880086
    },
    {
        "name": "길안내",
        "lat": 35.431396,
        "lon": 126.880466
    },
    {
        "name": "가인 화장실",
        "lat": 35.43145,
        "lon": 126.880402
    },
    {
        "name": "백양 수변길",
        "lat": 35.431488,
        "lon": 126.880379
    },
    {
        "name": "박물관 화장실",
        "lat": 35.434124,
        "lon": 126.882545
    },
    {
        "name": "백양사 박물관",
        "lat": 35.434505,
        "lon": 126.882721
    },
    {
        "name": "백양사 주차장",
        "lat": 35.43536,
        "lon": 126.883209
    },
    {
        "name": "백암골 자연관찰로",
        "lat": 35.436501,
        "lon": 126.883614
    },
    {
        "name": "인명구조함",
        "lat": 35.436317,
        "lon": 126.883125
    },
    {
        "name": "자연관찰로 포토존",
        "lat": 35.436329,
        "lon": 126.883095
    },
    {
        "name": "자연관찰로 쉼터",
        "lat": 35.436783,
        "lon": 126.88282
    },
    {
        "name": "백양사 템플스테이 숙소",
        "lat": 35.437996,
        "lon": 126.883492
    },
    {
        "name": "백양사  템플스테이 화장실",
        "lat": 35.439186,
        "lon": 126.883629
    },
    {
        "name": "백양사 종무소",
        "lat": 35.439665,
        "lon": 126.883618
    },
    {
        "name": "백양사 직영 찻집",
        "lat": 35.439663,
        "lon": 126.883644
    },
    {
        "name": "백양사 보리수 나무",
        "lat": 35.439579,
        "lon": 126.883374
    },
    {
        "name": "백양사 대웅전",
        "lat": 35.439499,
        "lon": 126.882996
    },
    {
        "name": "갈림길",
        "lat": 35.440014,
        "lon": 126.883667
    },
    {
        "name": "청량원",
        "lat": 35.440487,
        "lon": 126.882988
    },
    {
        "name": "백양공원 지킴터",
        "lat": 35.443939,
        "lon": 126.879982
    },
    {
        "name": "갈림길",
        "lat": 35.443939,
        "lon": 126.879951
    },
    {
        "name": "위험등급구간",
        "lat": 35.444103,
        "lon": 126.879913
    },
    {
        "name": "생각하며 걷는 오르막길",
        "lat": 35.444298,
        "lon": 126.880205
    },
    {
        "name": "국립공원 건강알림 안내",
        "lat": 35.444439,
        "lon": 126.88022
    },
    {
        "name": "바자나무",
        "lat": 35.444969,
        "lon": 126.880196
    },
    {
        "name": "계단이용 건강정보(200계단)",
        "lat": 35.44522,
        "lon": 126.880361
    },
    {
        "name": "백학봉 오르막길 조망1",
        "lat": 35.445145,
        "lon": 126.880753
    },
    {
        "name": "백학봉 오르막길 조망2",
        "lat": 35.445162,
        "lon": 126.880732
    },
    {
        "name": "백학봉 오르막길 조망3",
        "lat": 35.445162,
        "lon": 126.880732
    },
    {
        "name": "약사암",
        "lat": 35.445152,
        "lon": 126.881035
    },
    {
        "name": "백양사 조망",
        "lat": 35.445135,
        "lon": 126.881121
    },
    {
        "name": "길안내",
        "lat": 35.445133,
        "lon": 126.881271
    },
    {
        "name": "약사암 종무소",
        "lat": 35.445145,
        "lon": 126.881276
    },
    {
        "name": "약사암 종무소 쉼터",
        "lat": 35.445145,
        "lon": 126.881279
    },
    {
        "name": "위치번호 백암 12-01",
        "lat": 35.445358,
        "lon": 126.881828
    },
    {
        "name": "영천굴에서의 조망1",
        "lat": 35.445337,
        "lon": 126.881841
    },
    {
        "name": "영천굴에서의 조망2",
        "lat": 35.445337,
        "lon": 126.881841
    },
    {
        "name": "영천굴",
        "lat": 35.445337,
        "lon": 126.881841
    },
    {
        "name": "낙석주의",
        "lat": 35.445709,
        "lon": 126.881805
    },
    {
        "name": "추락주의",
        "lat": 35.445763,
        "lon": 126.881691
    },
    {
        "name": "낙석주의",
        "lat": 35.445934,
        "lon": 126.881432
    },
    {
        "name": "길안내",
        "lat": 35.445923,
        "lon": 126.881424
    },
    {
        "name": "낙석주의",
        "lat": 35.44627,
        "lon": 126.88118
    },
    {
        "name": "추락주의",
        "lat": 35.446308,
        "lon": 126.881157
    },
    {
        "name": "추락위험",
        "lat": 35.446392,
        "lon": 126.881081
    },
    {
        "name": "계단이용 건강정보(800계단)",
        "lat": 35.446421,
        "lon": 126.88108
    },
    {
        "name": "쉼터에서 내장사 조망",
        "lat": 35.446373,
        "lon": 126.881042
    },
    {
        "name": "쉼터에서의 내장사 조망",
        "lat": 35.446377,
        "lon": 126.881043
    },
    {
        "name": "쉼터",
        "lat": 35.446377,
        "lon": 126.881042
    },
    {
        "name": "낙석위험",
        "lat": 35.446396,
        "lon": 126.881027
    },
    {
        "name": "계단이용 건강정보(1000계단)",
        "lat": 35.446641,
        "lon": 126.881641
    },
    {
        "name": "낙석주의",
        "lat": 35.446873,
        "lon": 126.882103
    },
    {
        "name": "위치번호 백암 12-02",
        "lat": 35.446888,
        "lon": 126.882149
    },
    {
        "name": "추락주의",
        "lat": 35.447159,
        "lon": 126.883095
    },
    {
        "name": "길안내",
        "lat": 35.447372,
        "lon": 126.882408
    },
    {
        "name": "백학봉 능선에서 바라본 전망",
        "lat": 35.447525,
        "lon": 126.882309
    },
    {
        "name": "백학봉 능선 전망",
        "lat": 35.447558,
        "lon": 126.882285
    },
    {
        "name": "가을단풍",
        "lat": 35.447996,
        "lon": 126.882496
    },
    {
        "name": "백학봉",
        "lat": 35.448833,
        "lon": 126.882294
    },
    {
        "name": "구조 구급함",
        "lat": 35.448864,
        "lon": 126.882301
    },
    {
        "name": "낙뢰주의",
        "lat": 35.448868,
        "lon": 126.882294
    },
    {
        "name": "백학봉 정상에서 바라본 전망",
        "lat": 35.448872,
        "lon": 126.882324
    },
    {
        "name": "탐방로 안내",
        "lat": 35.448872,
        "lon": 126.882321
    },
    {
        "name": "백양계곡 갈림길",
        "lat": 35.452305,
        "lon": 126.880417
    },
    {
        "name": "구암사 갈림길",
        "lat": 35.453091,
        "lon": 126.880554
    },
    {
        "name": "쉼터",
        "lat": 35.454857,
        "lon": 126.880882
    },
    {
        "name": "백학송에서 바라본 전망1",
        "lat": 35.456299,
        "lon": 126.875893
    },
    {
        "name": "백학송 쉼터",
        "lat": 35.456299,
        "lon": 126.875885
    },
    {
        "name": "백학송에서 바라본 전망2",
        "lat": 35.456295,
        "lon": 126.875873
    },
    {
        "name": "백학송에서 바라본 전망3",
        "lat": 35.456295,
        "lon": 126.875873
    },
    {
        "name": "백학송 전망대",
        "lat": 35.456295,
        "lon": 126.875873
    },
    {
        "name": "백학송 앞 쉼터",
        "lat": 35.456322,
        "lon": 126.875881
    },
    {
        "name": "상왕봉 능선길 조망",
        "lat": 35.460449,
        "lon": 126.869812
    },
    {
        "name": "갈림길",
        "lat": 35.461227,
        "lon": 126.86869
    },
    {
        "name": "상왕봉 구급함",
        "lat": 35.461235,
        "lon": 126.868698
    },
    {
        "name": "상왕봉",
        "lat": 35.461258,
        "lon": 126.868553
    },
    {
        "name": "상왕봉에서 바라본 전망1",
        "lat": 35.461239,
        "lon": 126.868439
    },
    {
        "name": "상왕봉에서 바라본 전망2",
        "lat": 35.46124,
        "lon": 126.868439
    },
    {
        "name": "상왕봉에서 바라본 전망3",
        "lat": 35.46124,
        "lon": 126.868439
    },
    {
        "name": "가을 단풍",
        "lat": 35.458992,
        "lon": 126.865356
    },
    {
        "name": "사거리 쉼터",
        "lat": 35.458481,
        "lon": 126.864906
    },
    {
        "name": "능선 사거리 갈림길",
        "lat": 35.458481,
        "lon": 126.864914
    },
    {
        "name": "사자봉",
        "lat": 35.457378,
        "lon": 126.86338
    },
    {
        "name": "사자봉 능선에서 바라본 전망1",
        "lat": 35.455856,
        "lon": 126.864326
    },
    {
        "name": "사자봉 능선에서 바라본 전망2",
        "lat": 35.45584,
        "lon": 126.864338
    },
    {
        "name": "사자봉 능선 전망",
        "lat": 35.455758,
        "lon": 126.864362
    },
    {
        "name": "사자봉에서 바라본 전망1",
        "lat": 35.455757,
        "lon": 126.864365
    },
    {
        "name": "사자봉에서 바라본 전망2",
        "lat": 35.45575,
        "lon": 126.86434
    },
    {
        "name": "사자봉에서 바라본 전망3",
        "lat": 35.455741,
        "lon": 126.86434
    },
    {
        "name": "위치번호 백암 12-10",
        "lat": 35.453274,
        "lon": 126.864609
    },
    {
        "name": "탐방로 안내",
        "lat": 35.450071,
        "lon": 126.866787
    },
    {
        "name": "옹달샘 갈림길",
        "lat": 35.450069,
        "lon": 126.866798
    },
    {
        "name": "길안내",
        "lat": 35.450063,
        "lon": 126.866811
    },
    {
        "name": "위치번호 백암 12-11",
        "lat": 35.450062,
        "lon": 126.866814
    },
    {
        "name": "출입금지",
        "lat": 35.449696,
        "lon": 126.866844
    },
    {
        "name": "가을단풍",
        "lat": 35.449093,
        "lon": 126.867973
    },
    {
        "name": "가을단풍",
        "lat": 35.448601,
        "lon": 126.868515
    },
    {
        "name": "길안내",
        "lat": 35.447063,
        "lon": 126.869583
    },
    {
        "name": "위치번호 백암 12-14",
        "lat": 35.442165,
        "lon": 126.867371
    },
    {
        "name": "가을단풍",
        "lat": 35.440093,
        "lon": 126.870255
    },
    {
        "name": "단풍",
        "lat": 35.439846,
        "lon": 126.870895
    },
    {
        "name": "추락주의",
        "lat": 35.440022,
        "lon": 126.871239
    },
    {
        "name": "웨이포인트 162",
        "lat": 35.440008,
        "lon": 126.871252
    },
    {
        "name": "갈림길",
        "lat": 35.439083,
        "lon": 126.873024
    },
    {
        "name": "탐방로 안내",
        "lat": 35.439096,
        "lon": 126.872953
    },
    {
        "name": "청류암",
        "lat": 35.439117,
        "lon": 126.872589
    },
    {
        "name": "길안내",
        "lat": 35.436287,
        "lon": 126.876022
    },
    {
        "name": "백양고로쇠 판매장",
        "lat": 35.435566,
        "lon": 126.877174
    },
    {
        "name": "가인마을 전경1",
        "lat": 35.434841,
        "lon": 126.878059
    },
    {
        "name": "가인마을 계곡",
        "lat": 35.434469,
        "lon": 126.878292
    },
    {
        "name": "가인마을 전경2",
        "lat": 35.433184,
        "lon": 126.879165
    },
    {
        "name": "가인마을 전경3",
        "lat": 35.432916,
        "lon": 126.879343
    },
    {
        "name": "가인마을 민박소개",
        "lat": 35.432266,
        "lon": 126.879925
    },
    {
        "name": "가인 야영장",
        "lat": 35.432037,
        "lon": 126.880127
    },
    {
        "name": "가인 주차장",
        "lat": 35.430538,
        "lon": 126.879471
    },
    {
        "name": "가인 주차장 쉼터",
        "lat": 35.429718,
        "lon": 126.879318
    },
    {
        "name": "백양사 매표소",
        "lat": 35.427971,
        "lon": 126.879196
    }
]