[
  {
    "path_id": 0,
    "path": [
      {
        "lat": 36.371922,
        "lng": 127.257866
      },
      {
        "lat": 36.371876,
        "lng": 127.255363
      }
    ],
    "color": "#9c3941",
    "start_name": "병사골 입구 / 탐방로 안내판",
    "length_meter": 254.2,
    "time_minute": 4
  },
  {
    "path_id": 1,
    "path": [
      {
        "lat": 36.371876,
        "lng": 127.255363
      },
      {
        "lat": 36.373089,
        "lng": 127.253181
      }
    ],
    "color": "#2801e8",
    "start_name": "안내표지(이정표)",
    "length_meter": 237.4,
    "time_minute": 3
  },
  {
    "path_id": 2,
    "path": [
      {
        "lat": 36.373089,
        "lng": 127.253181
      },
      {
        "lat": 36.373123,
        "lng": 127.252258
      }
    ],
    "color": "#b3a887",
    "start_name": "장군봉 오름길",
    "length_meter": 82.7,
    "time_minute": 1
  },
  {
    "path_id": 3,
    "path": [
      {
        "lat": 36.373123,
        "lng": 127.252258
      },
      {
        "lat": 36.372166,
        "lng": 127.248909
      }
    ],
    "color": "#4e725c",
    "start_name": "안내 표지(이정표)",
    "length_meter": 318.2,
    "time_minute": 5
  },
  {
    "path_id": 4,
    "path": [
      {
        "lat": 36.372166,
        "lng": 127.248909
      },
      {
        "lat": 36.371403,
        "lng": 127.247757
      }
    ],
    "color": "#e708ae",
    "start_name": "위험지역",
    "length_meter": 133.6,
    "time_minute": 2
  },
  {
    "path_id": 5,
    "path": [
      {
        "lat": 36.371403,
        "lng": 127.247757
      },
      {
        "lat": 36.371021,
        "lng": 127.245514
      }
    ],
    "color": "#75c98e",
    "start_name": "안내표지(이정표) / 장군봉 조망점 / 장군봉",
    "length_meter": 227.3,
    "time_minute": 3
  },
  {
    "path_id": 6,
    "path": [
      {
        "lat": 36.371021,
        "lng": 127.245514
      },
      {
        "lat": 36.370533,
        "lng": 127.244629
      }
    ],
    "color": "#46f866",
    "start_name": "안내표지(이정표)",
    "length_meter": 96.0,
    "time_minute": 1
  },
  {
    "path_id": 7,
    "path": [
      {
        "lat": 36.370533,
        "lng": 127.244629
      },
      {
        "lat": 36.370476,
        "lng": 127.243927
      }
    ],
    "color": "#d761be",
    "start_name": "조망점",
    "length_meter": 63.2,
    "time_minute": 1
  },
  {
    "path_id": 8,
    "path": [
      {
        "lat": 36.370476,
        "lng": 127.243927
      },
      {
        "lat": 36.369461,
        "lng": 127.239922
      }
    ],
    "color": "#05f0c1",
    "start_name": "계룡산국립공원 위치번호",
    "length_meter": 375.9,
    "time_minute": 6
  },
  {
    "path_id": 9,
    "path": [
      {
        "lat": 36.369461,
        "lng": 127.239922
      },
      {
        "lat": 36.368526,
        "lng": 127.23674
      }
    ],
    "color": "#c70d0e",
    "start_name": "계룡산 국립공원 위치표시",
    "length_meter": 303.3,
    "time_minute": 5
  },
  {
    "path_id": 10,
    "path": [
      {
        "lat": 36.368526,
        "lng": 127.23674
      },
      {
        "lat": 36.367981,
        "lng": 127.234161
      }
    ],
    "color": "#f2e998",
    "start_name": "안내표지(이정표)",
    "length_meter": 238.7,
    "time_minute": 3
  },
  {
    "path_id": 11,
    "path": [
      {
        "lat": 36.367981,
        "lng": 127.234161
      },
      {
        "lat": 36.366245,
        "lng": 127.234344
      }
    ],
    "color": "#5a55e8",
    "start_name": "안내표지(이정표) / 갈림길 / 갓바위 삼거리 쉼터",
    "length_meter": 199.6,
    "time_minute": 3
  },
  {
    "path_id": 12,
    "path": [
      {
        "lat": 36.366245,
        "lng": 127.234344
      },
      {
        "lat": 36.367001,
        "lng": 127.229919
      }
    ],
    "color": "#449ea2",
    "start_name": "갈림길 / 안내표지(이정표)",
    "length_meter": 409.2,
    "time_minute": 6
  },
  {
    "path_id": 13,
    "path": [
      {
        "lat": 36.367001,
        "lng": 127.229919
      },
      {
        "lat": 36.366428,
        "lng": 127.226433
      }
    ],
    "color": "#b36b3a",
    "start_name": "계룡산국립공원 위치표시",
    "length_meter": 318.6,
    "time_minute": 5
  },
  {
    "path_id": 14,
    "path": [
      {
        "lat": 36.366428,
        "lng": 127.226433
      },
      {
        "lat": 36.366112,
        "lng": 127.222359
      }
    ],
    "color": "#424850",
    "start_name": "갈림길 / 안내표지(이정표)",
    "length_meter": 366.7,
    "time_minute": 6
  },
  {
    "path_id": 15,
    "path": [
      {
        "lat": 36.366112,
        "lng": 127.222359
      },
      {
        "lat": 36.366241,
        "lng": 127.219101
      }
    ],
    "color": "#43b8a4",
    "start_name": "쉼터 / 계룡산국립공원 위치표시",
    "length_meter": 292.4,
    "time_minute": 4
  },
  {
    "path_id": 16,
    "path": [
      {
        "lat": 36.366241,
        "lng": 127.219101
      },
      {
        "lat": 36.366108,
        "lng": 127.217453
      }
    ],
    "color": "#ee471e",
    "start_name": "계룡산국립공원 위치표시",
    "length_meter": 148.3,
    "time_minute": 2
  },
  {
    "path_id": 17,
    "path": [
      {
        "lat": 36.366108,
        "lng": 127.217453
      },
      {
        "lat": 36.365913,
        "lng": 127.216888
      }
    ],
    "color": "#961388",
    "start_name": "계룡산국립공원위치표시 / 큰배재 쉼터 / 갈림길 / 안내표지(이정표)",
    "length_meter": 74.9,
    "time_minute": 1
  },
  {
    "path_id": 18,
    "path": [
      {
        "lat": 36.365913,
        "lng": 127.216888
      },
      {
        "lat": 36.364307,
        "lng": 127.215858
      }
    ],
    "color": "#79609c",
    "start_name": "갈림길 / 안내표지(이정표)",
    "length_meter": 201.0,
    "time_minute": 3
  },
  {
    "path_id": 19,
    "path": [
      {
        "lat": 36.364307,
        "lng": 127.215858
      },
      {
        "lat": 36.363018,
        "lng": 127.214401
      }
    ],
    "color": "#2186ce",
    "start_name": "안내표지(이정표) / 계룡산국립공원위치표시",
    "length_meter": 196.0,
    "time_minute": 3
  },
  {
    "path_id": 20,
    "path": [
      {
        "lat": 36.363018,
        "lng": 127.214401
      },
      {
        "lat": 36.362743,
        "lng": 127.213799
      }
    ],
    "color": "#6c422e",
    "start_name": "갈림길 / 안내표지(이정표) / 남매탑",
    "length_meter": 65.4,
    "time_minute": 1
  },
  {
    "path_id": 21,
    "path": [
      {
        "lat": 36.362743,
        "lng": 127.213799
      },
      {
        "lat": 36.362896,
        "lng": 127.21315
      }
    ],
    "color": "#818cdf",
    "start_name": "안내표지(이정표) / 남매탑 쉼터 / 계룡산국립공원위치표시",
    "length_meter": 79.4,
    "time_minute": 1
  },
  {
    "path_id": 22,
    "path": [
      {
        "lat": 36.362896,
        "lng": 127.21315
      },
      {
        "lat": 36.3624,
        "lng": 127.21154
      }
    ],
    "color": "#0bb778",
    "start_name": "급경사(낙석)위험지역",
    "length_meter": 154.4,
    "time_minute": 2
  },
  {
    "path_id": 23,
    "path": [
      {
        "lat": 36.3624,
        "lng": 127.21154
      },
      {
        "lat": 36.362228,
        "lng": 127.211433
      }
    ],
    "color": "#c3ff37",
    "start_name": "갈림길 / 안내표지( 이정표) / 계룡산국립공원위치표시 / 삼불봉고개 쉼터",
    "length_meter": 31.0,
    "time_minute": 0
  }
]