[
  {
    "path_id": 0,
    "path": [
      {
        "lat": 36.361523,
        "lng": 127.210403
      },
      {
        "lat": 36.36158,
        "lng": 127.210022
      }
    ],
    "color": "#684e5a",
    "start_name": "계룡산 삼불봉 / 낙석, 추락 미끄럼 주의 / 삼불봉 / 삼불봉 조망",
    "length_meter": 50.0,
    "time_minute": 0
  },
  {
    "path_id": 1,
    "path": [
      {
        "lat": 36.36158,
        "lng": 127.210022
      },
      {
        "lat": 36.360435,
        "lng": 127.208046
      }
    ],
    "color": "#698937",
    "start_name": "자연경관 / 갈림길",
    "length_meter": 222.7,
    "time_minute": 3
  },
  {
    "path_id": 2,
    "path": [
      {
        "lat": 36.360435,
        "lng": 127.208046
      },
      {
        "lat": 36.359627,
        "lng": 127.207649
      }
    ],
    "color": "#3c3d03",
    "start_name": "자연경관 / 포토존 / 자연성릉 자연경관 / 자연성릉 조망점 / 자연성릉 포토스팟",
    "length_meter": 100.0,
    "time_minute": 1
  },
  {
    "path_id": 3,
    "path": [
      {
        "lat": 36.359627,
        "lng": 127.207649
      },
      {
        "lat": 36.352859,
        "lng": 127.207756
      }
    ],
    "color": "#03b2ab",
    "start_name": "암벽",
    "length_meter": 752.6,
    "time_minute": 12
  },
  {
    "path_id": 4,
    "path": [
      {
        "lat": 36.352859,
        "lng": 127.207756
      },
      {
        "lat": 36.352993,
        "lng": 127.208504
      }
    ],
    "color": "#61508a",
    "start_name": "은선폭포상단 안전쉼터",
    "length_meter": 68.6,
    "time_minute": 1
  },
  {
    "path_id": 5,
    "path": [
      {
        "lat": 36.352993,
        "lng": 127.208504
      },
      {
        "lat": 36.352432,
        "lng": 127.209068
      }
    ],
    "color": "#7f1fa0",
    "start_name": "낙석 추락미끄럼주의",
    "length_meter": 80.3,
    "time_minute": 1
  },
  {
    "path_id": 6,
    "path": [
      {
        "lat": 36.352432,
        "lng": 127.209068
      },
      {
        "lat": 36.35215,
        "lng": 127.209595
      }
    ],
    "color": "#a5beb9",
    "start_name": "은선폭포 / 갈림길",
    "length_meter": 69.5,
    "time_minute": 1
  },
  {
    "path_id": 7,
    "path": [
      {
        "lat": 36.35215,
        "lng": 127.209595
      },
      {
        "lat": 36.351288,
        "lng": 127.210587
      }
    ],
    "color": "#927bb1",
    "start_name": "쌀개봉 조망점",
    "length_meter": 130.7,
    "time_minute": 2
  },
  {
    "path_id": 8,
    "path": [
      {
        "lat": 36.351288,
        "lng": 127.210587
      },
      {
        "lat": 36.351387,
        "lng": 127.21199
      }
    ],
    "color": "#198404",
    "start_name": "은선폭포 하단 계곡",
    "length_meter": 126.1,
    "time_minute": 2
  },
  {
    "path_id": 9,
    "path": [
      {
        "lat": 36.351387,
        "lng": 127.21199
      },
      {
        "lat": 36.35334,
        "lng": 127.219627
      }
    ],
    "color": "#8a7818",
    "start_name": "미끄럼주의(상습결빙구간) / 급경사지 위험지역",
    "length_meter": 719.1,
    "time_minute": 11
  },
  {
    "path_id": 10,
    "path": [
      {
        "lat": 36.35334,
        "lng": 127.219627
      },
      {
        "lat": 36.353027,
        "lng": 127.221054
      }
    ],
    "color": "#be3114",
    "start_name": "공주 청량사지 칠층석탑 / 대웅전 / 동학사",
    "length_meter": 135.6,
    "time_minute": 2
  },
  {
    "path_id": 11,
    "path": [
      {
        "lat": 36.353027,
        "lng": 127.221054
      },
      {
        "lat": 36.352982,
        "lng": 127.222473
      }
    ],
    "color": "#c0b45c",
    "start_name": "정자 / 갈림길 / 벤치",
    "length_meter": 139.4,
    "time_minute": 2
  },
  {
    "path_id": 12,
    "path": [
      {
        "lat": 36.352982,
        "lng": 127.222473
      },
      {
        "lat": 36.355259,
        "lng": 127.228546
      }
    ],
    "color": "#2f912d",
    "start_name": "미타암 / 길상암",
    "length_meter": 603.2,
    "time_minute": 10
  },
  {
    "path_id": 13,
    "path": [
      {
        "lat": 36.355259,
        "lng": 127.228546
      },
      {
        "lat": 36.355724,
        "lng": 127.229103
      }
    ],
    "color": "#0228ac",
    "start_name": "벤치",
    "length_meter": 71.8,
    "time_minute": 1
  },
  {
    "path_id": 14,
    "path": [
      {
        "lat": 36.355724,
        "lng": 127.229103
      },
      {
        "lat": 36.355968,
        "lng": 127.230812
      }
    ],
    "color": "#8e380a",
    "start_name": "기념품샵",
    "length_meter": 155.4,
    "time_minute": 2
  },
  {
    "path_id": 15,
    "path": [
      {
        "lat": 36.355968,
        "lng": 127.230812
      },
      {
        "lat": 36.356571,
        "lng": 127.231804
      }
    ],
    "color": "#753d35",
    "start_name": "벤치",
    "length_meter": 111.3,
    "time_minute": 1
  },
  {
    "path_id": 16,
    "path": [
      {
        "lat": 36.356571,
        "lng": 127.231804
      },
      {
        "lat": 36.356468,
        "lng": 127.232735
      }
    ],
    "color": "#9b091c",
    "start_name": "동학계곡 신록",
    "length_meter": 84.2,
    "time_minute": 1
  },
  {
    "path_id": 17,
    "path": [
      {
        "lat": 36.356468,
        "lng": 127.232735
      },
      {
        "lat": 36.357143,
        "lng": 127.232948
      }
    ],
    "color": "#c367c3",
    "start_name": "계룡산탐방안내소 / 계룡산국립공원사무소",
    "length_meter": 77.4,
    "time_minute": 1
  },
  {
    "path_id": 18,
    "path": [
      {
        "lat": 36.357143,
        "lng": 127.232948
      },
      {
        "lat": 36.357109,
        "lng": 127.233002
      }
    ],
    "color": "#a7a614",
    "start_name": "동학사 입구",
    "length_meter": 6.1,
    "time_minute": 0
  }
]