{
  "max_ele": 799.099,
  "total_length_km": "3.6km",
  "total_time": "0시간 45분",
  "track": [
    {
      "path_id": 0,
      "path": [
        {
          "lat": 36.361523,
          "lng": 127.210403
        },
        {
          "lat": 36.36158,
          "lng": 127.210022
        }
      ],
      "color": "#a59378",
      "start_name": "계룡산 삼불봉 / 삼불봉 / 삼불봉 조망",
      "length_meter": 38.7,
      "time_minute": 0
    },
    {
      "path_id": 1,
      "path": [
        {
          "lat": 36.36158,
          "lng": 127.210022
        },
        {
          "lat": 36.360435,
          "lng": 127.208046
        }
      ],
      "color": "#334510",
      "start_name": "자연경관 / 갈림길",
      "length_meter": 222.7,
      "time_minute": 3
    },
    {
      "path_id": 2,
      "path": [
        {
          "lat": 36.360435,
          "lng": 127.208046
        },
        {
          "lat": 36.359627,
          "lng": 127.207649
        }
      ],
      "color": "#2fa4b4",
      "start_name": "자연경관 / 자연성릉 자연경관 / 자연성릉 조망점",
      "length_meter": 98.7,
      "time_minute": 1
    },
    {
      "path_id": 3,
      "path": [
        {
          "lat": 36.359627,
          "lng": 127.207649
        },
        {
          "lat": 36.352859,
          "lng": 127.207756
        }
      ],
      "color": "#314256",
      "start_name": "암벽",
      "length_meter": 752.6,
      "time_minute": 9
    },
    {
      "path_id": 4,
      "path": [
        {
          "lat": 36.352859,
          "lng": 127.207756
        },
        {
          "lat": 36.352432,
          "lng": 127.209068
        }
      ],
      "color": "#551394",
      "start_name": "은선폭포상단 안전쉼터",
      "length_meter": 126.7,
      "time_minute": 1
    },
    {
      "path_id": 5,
      "path": [
        {
          "lat": 36.352432,
          "lng": 127.209068
        },
        {
          "lat": 36.35215,
          "lng": 127.209595
        }
      ],
      "color": "#ac2803",
      "start_name": "은선폭포 / 갈림길",
      "length_meter": 69.5,
      "time_minute": 1
    },
    {
      "path_id": 6,
      "path": [
        {
          "lat": 36.35215,
          "lng": 127.209595
        },
        {
          "lat": 36.351288,
          "lng": 127.210587
        }
      ],
      "color": "#ab9711",
      "start_name": "쌀개봉 조망점",
      "length_meter": 130.7,
      "time_minute": 1
    },
    {
      "path_id": 7,
      "path": [
        {
          "lat": 36.351288,
          "lng": 127.210587
        },
        {
          "lat": 36.35334,
          "lng": 127.219627
        }
      ],
      "color": "#7c443d",
      "start_name": "은선폭포 하단 계곡",
      "length_meter": 841.1,
      "time_minute": 10
    },
    {
      "path_id": 8,
      "path": [
        {
          "lat": 36.35334,
          "lng": 127.219627
        },
        {
          "lat": 36.353027,
          "lng": 127.221054
        }
      ],
      "color": "#03c76e",
      "start_name": "공주 청량사지 칠층석탑 / 대웅전 / 동학사",
      "length_meter": 135.6,
      "time_minute": 2
    },
    {
      "path_id": 9,
      "path": [
        {
          "lat": 36.353027,
          "lng": 127.221054
        },
        {
          "lat": 36.352982,
          "lng": 127.222473
        }
      ],
      "color": "#960c3c",
      "start_name": "정자 / 갈림길",
      "length_meter": 131.1,
      "time_minute": 2
    },
    {
      "path_id": 10,
      "path": [
        {
          "lat": 36.352982,
          "lng": 127.222473
        },
        {
          "lat": 36.355724,
          "lng": 127.229103
        }
      ],
      "color": "#602727",
      "start_name": "미타암 / 길상암",
      "length_meter": 670.2,
      "time_minute": 11
    },
    {
      "path_id": 11,
      "path": [
        {
          "lat": 36.355724,
          "lng": 127.229103
        },
        {
          "lat": 36.356571,
          "lng": 127.231804
        }
      ],
      "color": "#22392f",
      "start_name": "기념품샵",
      "length_meter": 259.6,
      "time_minute": 3
    },
    {
      "path_id": 12,
      "path": [
        {
          "lat": 36.356571,
          "lng": 127.231804
        },
        {
          "lat": 36.356468,
          "lng": 127.232735
        }
      ],
      "color": "#c46045",
      "start_name": "동학계곡 신록",
      "length_meter": 84.2,
      "time_minute": 1
    },
    {
      "path_id": 13,
      "path": [
        {
          "lat": 36.356468,
          "lng": 127.232735
        },
        {
          "lat": 36.357143,
          "lng": 127.232948
        }
      ],
      "color": "#90af72",
      "start_name": "계룡산탐방안내소 / 계룡산국립공원사무소",
      "length_meter": 77.4,
      "time_minute": 1
    },
    {
      "path_id": 14,
      "path": [
        {
          "lat": 36.357143,
          "lng": 127.232948
        },
        {
          "lat": 36.357109,
          "lng": 127.233002
        }
      ],
      "color": "#9c5633",
      "start_name": "동학사 입구",
      "length_meter": 6.1,
      "time_minute": 0
    }
  ]
}