{
    "max_ele": 1228.403,
    "track": [
        {
            "path_id": 1,
            "name": "명지산 입구",
            "lat": 37.935547,
            "lon": 127.489571,
            "ele": 232.335
        },
        {
            "path_id": 2,
            "name": "안성집",
            "lat": 37.935555,
            "lon": 127.489182,
            "ele": 221.046
        },
        {
            "path_id": 3,
            "name": "공중화장실",
            "lat": 37.935604,
            "lon": 127.489105,
            "ele": 218.917
        },
        {
            "path_id": 4,
            "name": "명지천",
            "lat": 37.935547,
            "lon": 127.487617,
            "ele": 218.467
        },
        {
            "path_id": 5,
            "name": "관광안내도",
            "lat": 37.935627,
            "lon": 127.487373,
            "ele": 270.316
        },
        {
            "path_id": 6,
            "name": "명지산 종합안내판",
            "lat": 37.935787,
            "lon": 127.486961,
            "ele": 220.768
        },
        {
            "path_id": 7,
            "name": "자연학습원",
            "lat": 37.935692,
            "lon": 127.487183,
            "ele": 220.5
        },
        {
            "path_id": 8,
            "name": "쉼터",
            "lat": 37.935959,
            "lon": 127.486465,
            "ele": 222.531
        },
        {
            "path_id": 9,
            "name": "잣나무 군락지",
            "lat": 37.938766,
            "lon": 127.483543,
            "ele": 313.161
        },
        {
            "path_id": 10,
            "name": "갈림길",
            "lat": 37.940659,
            "lon": 127.480316,
            "ele": 408.652
        },
        {
            "path_id": 17,
            "name": "사향봉",
            "lat": 37.945206,
            "lon": 127.457642,
            "ele": 1005.17
        },
        {
            "path_id": 18,
            "name": "사향봉 근처 야생화",
            "lat": 37.946274,
            "lon": 127.454414,
            "ele": 1028.617
        },
        {
            "path_id": 19,
            "name": "갈림길",
            "lat": 37.946903,
            "lon": 127.452881,
            "ele": 1023.845
        },
        {
            "path_id": 20,
            "name": "장막봉",
            "lat": 37.946911,
            "lon": 127.45285,
            "ele": 1023.926
        },
        {
            "path_id": 21,
            "name": "명지산 부근 야생화",
            "lat": 37.943367,
            "lon": 127.442856,
            "ele": 1045.933
        },
        {
            "path_id": 22,
            "name": "갈림길",
            "lat": 37.942753,
            "lon": 127.441101,
            "ele": 1092.763
        },
        {
            "path_id": 24,
            "name": "명지산 야생화",
            "lat": 37.941956,
            "lon": 127.433258,
            "ele": 1181.443
        },
        {
            "path_id": 26,
            "name": "갈림길",
            "lat": 37.941437,
            "lon": 127.432465,
            "ele": 1206.252
        },
        {
            "path_id": 29,
            "name": "명지산 정상석",
            "lat": 37.941265,
            "lon": 127.432411,
            "ele": 1228.403
        },
        {
            "path_id": 30,
            "name": "명지천 냇물",
            "lat": 37.936073,
            "lon": 127.448608,
            "ele": 705.764
        },
        {
            "path_id": 31,
            "name": "명지천 합류점",
            "lat": 37.935062,
            "lon": 127.448814,
            "ele": 669.201
        },
        {
            "path_id": 32,
            "name": "갈림길",
            "lat": 37.934673,
            "lon": 127.449181,
            "ele": 659.023
        },
        {
            "path_id": 33,
            "name": "명지천",
            "lat": 37.934563,
            "lon": 127.449188,
            "ele": 653.233
        },
        {
            "path_id": 34,
            "name": "보전지역의  동.식물",
            "lat": 37.934284,
            "lon": 127.44944,
            "ele": 638.905
        },
        {
            "path_id": 35,
            "name": "명지천",
            "lat": 37.934303,
            "lon": 127.449959,
            "ele": 630.515
        },
        {
            "path_id": 36,
            "name": "갈림길",
            "lat": 37.933823,
            "lon": 127.45356,
            "ele": 600.515
        },
        {
            "path_id": 37,
            "name": "명지천",
            "lat": 37.933697,
            "lon": 127.455208,
            "ele": 557.062
        },
        {
            "path_id": 38,
            "name": "명지천 생태계 보전지역",
            "lat": 37.935097,
            "lon": 127.462578,
            "ele": 452.105
        },
        {
            "path_id": 39,
            "name": "생태계 보전지역",
            "lat": 37.935295,
            "lon": 127.462891,
            "ele": 435.04
        },
        {
            "path_id": 41,
            "name": "명지계곡",
            "lat": 37.934437,
            "lon": 127.473602,
            "ele": 355.263
        },
        {
            "path_id": 42,
            "name": "승천사 사찰",
            "lat": 37.934559,
            "lon": 127.476654,
            "ele": 321.736
        },
        {
            "path_id": 43,
            "name": "승천사 사탑",
            "lat": 37.935413,
            "lon": 127.478233,
            "ele": 287.343
        },
        {
            "path_id": 44,
            "name": "갈림길",
            "lat": 37.936508,
            "lon": 127.484558,
            "ele": 224.066
        },
        {
            "path_id": 46,
            "name": "명지산 안내소",
            "lat": 37.935898,
            "lon": 127.486649,
            "ele": 221.375
        },
        {
            "path_id": 47,
            "name": "명지산 생태전시관",
            "lat": 37.935612,
            "lon": 127.487495,
            "ele": 219.275
        }
    ]
}