{
  "mnt_id": 92,
  "mnt_name": "한라산",
  "course_id": 236,
  "max_ele": 654.68,
  "total_length_km": "15.9km",
  "total_time": "3시간 18분",
  "start_name": "사려니숲길 정류소",
  "end_name": "붉은오름 정류소",
  "level": "중",
  "track": [
    {
      "path_id": 0,
      "path": [
        {
          "lat": 33.423141,
          "lng": 126.627083,
          "ele": 628.567
        },
        {
          "lat": 33.422638,
          "lng": 126.626442,
          "ele": 623.012
        }
      ],
      "color": "#a73664",
      "start_name": "사려니숲길 정류소",
      "end_name": "사려니숲길 입구 쉼터",
      "length_meter": 81.7,
      "time_minute": 1
    },
    {
      "path_id": 1,
      "path": [
        {
          "lat": 33.422638,
          "lng": 126.626442,
          "ele": 623.012
        },
        {
          "lat": 33.422546,
          "lng": 126.626511,
          "ele": 621.779
        }
      ],
      "color": "#7443a2",
      "start_name": "사려니숲길 입구 쉼터 / 사려니숲길 입구 화장실",
      "end_name": "사려니숲길 탐방안내소",
      "length_meter": 84.9,
      "time_minute": 1
    },
    {
      "path_id": 2,
      "path": [
        {
          "lat": 33.422546,
          "lng": 126.626511,
          "ele": 621.779
        },
        {
          "lat": 33.421295,
          "lng": 126.626381,
          "ele": 622.406
        }
      ],
      "color": "#062182",
      "start_name": "사려니숲길 탐방안내소",
      "end_name": "갈림길",
      "length_meter": 139.6,
      "time_minute": 1
    },
    {
      "path_id": 3,
      "path": [
        {
          "lat": 33.421295,
          "lng": 126.626381,
          "ele": 622.406
        },
        {
          "lat": 33.420338,
          "lng": 126.627304,
          "ele": 626.34
        }
      ],
      "color": "#107db3",
      "start_name": "갈림길",
      "end_name": "쉼터",
      "length_meter": 136.6,
      "time_minute": 1
    },
    {
      "path_id": 4,
      "path": [
        {
          "lat": 33.420338,
          "lng": 126.627304,
          "ele": 626.34
        },
        {
          "lat": 33.419743,
          "lng": 126.628723,
          "ele": 622.427
        }
      ],
      "color": "#8ab7a7",
      "start_name": "쉼터",
      "end_name": "갈림길",
      "length_meter": 147.4,
      "time_minute": 1
    },
    {
      "path_id": 5,
      "path": [
        {
          "lat": 33.419743,
          "lng": 126.628723,
          "ele": 622.427
        },
        {
          "lat": 33.417751,
          "lng": 126.634567,
          "ele": 583.254
        }
      ],
      "color": "#b44395",
      "start_name": "갈림길",
      "end_name": "천미천",
      "length_meter": 585.9,
      "time_minute": 7
    },
    {
      "path_id": 6,
      "path": [
        {
          "lat": 33.417751,
          "lng": 126.634567,
          "ele": 583.254
        },
        {
          "lat": 33.417274,
          "lng": 126.637779,
          "ele": 580.405
        }
      ],
      "color": "#764490",
      "start_name": "천미천 / 천미천앞 화장실",
      "end_name": "쉼터",
      "length_meter": 308.3,
      "time_minute": 4
    },
    {
      "path_id": 7,
      "path": [
        {
          "lat": 33.417274,
          "lng": 126.637779,
          "ele": 580.405
        },
        {
          "lat": 33.415733,
          "lng": 126.642761,
          "ele": 576.965
        }
      ],
      "color": "#8a3aad",
      "start_name": "쉼터 / 서어나무",
      "end_name": "이나무",
      "length_meter": 495.0,
      "time_minute": 8
    },
    {
      "path_id": 8,
      "path": [
        {
          "lat": 33.415733,
          "lng": 126.642761,
          "ele": 576.965
        },
        {
          "lat": 33.415161,
          "lng": 126.643547,
          "ele": 568.866
        }
      ],
      "color": "#0d3052",
      "start_name": "이나무",
      "end_name": "쉼터",
      "length_meter": 96.8,
      "time_minute": 1
    },
    {
      "path_id": 9,
      "path": [
        {
          "lat": 33.415161,
          "lng": 126.643547,
          "ele": 568.866
        },
        {
          "lat": 33.413013,
          "lng": 126.646225,
          "ele": 579.538
        }
      ],
      "color": "#1d6fbd",
      "start_name": "쉼터",
      "end_name": "개서어나무",
      "length_meter": 344.7,
      "time_minute": 4
    },
    {
      "path_id": 10,
      "path": [
        {
          "lat": 33.413013,
          "lng": 126.646225,
          "ele": 579.538
        },
        {
          "lat": 33.411949,
          "lng": 126.646439,
          "ele": 585.993
        }
      ],
      "color": "#13c098",
      "start_name": "개서어나무",
      "end_name": "누리장나무",
      "length_meter": 120.0,
      "time_minute": 1
    },
    {
      "path_id": 11,
      "path": [
        {
          "lat": 33.411949,
          "lng": 126.646439,
          "ele": 585.993
        },
        {
          "lat": 33.410984,
          "lng": 126.646698,
          "ele": 593.875
        }
      ],
      "color": "#89c57b",
      "start_name": "누리장나무 / 산악기상관측장비",
      "end_name": "쉼터",
      "length_meter": 111.1,
      "time_minute": 1
    },
    {
      "path_id": 12,
      "path": [
        {
          "lat": 33.410984,
          "lng": 126.646698,
          "ele": 593.875
        },
        {
          "lat": 33.411819,
          "lng": 126.646416,
          "ele": 586.758
        }
      ],
      "color": "#c49fbe",
      "start_name": "쉼터",
      "end_name": "산악기상관측장비",
      "length_meter": 96.5,
      "time_minute": 1
    },
    {
      "path_id": 13,
      "path": [
        {
          "lat": 33.411819,
          "lng": 126.646416,
          "ele": 586.758
        },
        {
          "lat": 33.400517,
          "lng": 126.646088,
          "ele": 636.078
        }
      ],
      "color": "#abbe59",
      "start_name": "산악기상관측장비",
      "end_name": "조릿대",
      "length_meter": 1257.1,
      "time_minute": 15
    },
    {
      "path_id": 14,
      "path": [
        {
          "lat": 33.400517,
          "lng": 126.646088,
          "ele": 636.078
        },
        {
          "lat": 33.422546,
          "lng": 126.626511,
          "ele": 621.779
        }
      ],
      "color": "#95042e",
      "start_name": "조릿대 / 쉼터",
      "end_name": "사려니숲길 탐방안내소/사려니숲길 입구",
      "length_meter": 3071.3,
      "time_minute": 51
    },
    {
      "path_id": 15,
      "path": [
        {
          "lat": 33.422546,
          "lng": 126.626511,
          "ele": 621.779
        },
        {
          "lat": 33.395603,
          "lng": 126.644783,
          "ele": 643.598
        }
      ],
      "color": "#107396",
      "start_name": "사려니숲길 탐방안내소/사려니숲길 입구",
      "end_name": "쉼터",
      "length_meter": 3442.7,
      "time_minute": 43
    },
    {
      "path_id": 16,
      "path": [
        {
          "lat": 33.395603,
          "lng": 126.644783,
          "ele": 643.598
        },
        {
          "lat": 33.39468,
          "lng": 126.644318,
          "ele": 646.318
        }
      ],
      "color": "#65ac74",
      "start_name": "쉼터 / 멧돼지출몰지역 / 물찻오름 / 물찻오름 안내소 / 물찻오름 앞 쉼터",
      "end_name": "물찻오름 입구 앞 화장실",
      "length_meter": 124.9,
      "time_minute": 1
    },
    {
      "path_id": 17,
      "path": [
        {
          "lat": 33.39468,
          "lng": 126.644318,
          "ele": 646.318
        },
        {
          "lat": 33.392937,
          "lng": 126.642288,
          "ele": 654.68
        }
      ],
      "color": "#372d48",
      "start_name": "물찻오름 입구 앞 화장실 / 물찻오름 입구",
      "end_name": "쉼터",
      "length_meter": 373.9,
      "time_minute": 6
    },
    {
      "path_id": 18,
      "path": [
        {
          "lat": 33.392937,
          "lng": 126.642288,
          "ele": 654.68
        },
        {
          "lat": 33.391506,
          "lng": 126.646477,
          "ele": 636.14
        }
      ],
      "color": "#5aaa5f",
      "start_name": "쉼터",
      "end_name": "꽝꽝나무",
      "length_meter": 420.2,
      "time_minute": 5
    },
    {
      "path_id": 19,
      "path": [
        {
          "lat": 33.391506,
          "lng": 126.646477,
          "ele": 636.14
        },
        {
          "lat": 33.390976,
          "lng": 126.647736,
          "ele": 623.379
        }
      ],
      "color": "#c66f07",
      "start_name": "꽝꽝나무",
      "end_name": "쉼터",
      "length_meter": 130.9,
      "time_minute": 1
    },
    {
      "path_id": 20,
      "path": [
        {
          "lat": 33.390976,
          "lng": 126.647736,
          "ele": 623.379
        },
        {
          "lat": 33.390434,
          "lng": 126.653816,
          "ele": 585.471
        }
      ],
      "color": "#a8ad01",
      "start_name": "쉼터",
      "end_name": "산림세라피",
      "length_meter": 567.7,
      "time_minute": 7
    },
    {
      "path_id": 21,
      "path": [
        {
          "lat": 33.390434,
          "lng": 126.653816,
          "ele": 585.471
        },
        {
          "lat": 33.390629,
          "lng": 126.654358,
          "ele": 585.099
        }
      ],
      "color": "#a8847b",
      "start_name": "산림세라피",
      "end_name": "쉼터",
      "length_meter": 54.8,
      "time_minute": 0
    },
    {
      "path_id": 22,
      "path": [
        {
          "lat": 33.390629,
          "lng": 126.654358,
          "ele": 585.099
        },
        {
          "lat": 33.391327,
          "lng": 126.65564,
          "ele": 582.861
        }
      ],
      "color": "#55a71f",
      "start_name": "쉼터",
      "end_name": "갈림길",
      "length_meter": 142.1,
      "time_minute": 1
    },
    {
      "path_id": 23,
      "path": [
        {
          "lat": 33.391327,
          "lng": 126.65564,
          "ele": 582.861
        },
        {
          "lat": 33.392582,
          "lng": 126.658287,
          "ele": 578.491
        }
      ],
      "color": "#6e980f",
      "start_name": "갈림길 / 월든삼거리 쉼터 / 월든삼거리 삼나무숲",
      "end_name": "쉼터",
      "length_meter": 304.1,
      "time_minute": 5
    },
    {
      "path_id": 24,
      "path": [
        {
          "lat": 33.392582,
          "lng": 126.658287,
          "ele": 578.491
        },
        {
          "lat": 33.394665,
          "lng": 126.660973,
          "ele": 567.801
        }
      ],
      "color": "#6c43b7",
      "start_name": "쉼터",
      "end_name": "갈림길",
      "length_meter": 340.3,
      "time_minute": 4
    },
    {
      "path_id": 25,
      "path": [
        {
          "lat": 33.394665,
          "lng": 126.660973,
          "ele": 567.801
        },
        {
          "lat": 33.397621,
          "lng": 126.669228,
          "ele": 537.072
        }
      ],
      "color": "#aa50be",
      "start_name": "갈림길 / 가친오름 입구 쉼터",
      "end_name": "쉼터",
      "length_meter": 833.9,
      "time_minute": 13
    },
    {
      "path_id": 26,
      "path": [
        {
          "lat": 33.397621,
          "lng": 126.669228,
          "ele": 537.072
        },
        {
          "lat": 33.393158,
          "lng": 126.676308,
          "ele": 520.031
        }
      ],
      "color": "#7c2846",
      "start_name": "쉼터",
      "end_name": "갈림길",
      "length_meter": 823.6,
      "time_minute": 10
    },
    {
      "path_id": 27,
      "path": [
        {
          "lat": 33.393158,
          "lng": 126.676308,
          "ele": 520.031
        },
        {
          "lat": 33.391506,
          "lng": 126.677124,
          "ele": 515.497
        }
      ],
      "color": "#549db9",
      "start_name": "갈림길 / 가수기목",
      "end_name": "쉼터",
      "length_meter": 203.3,
      "time_minute": 3
    },
    {
      "path_id": 28,
      "path": [
        {
          "lat": 33.391506,
          "lng": 126.677124,
          "ele": 515.497
        },
        {
          "lat": 33.392227,
          "lng": 126.679161,
          "ele": 499.594
        }
      ],
      "color": "#a63b05",
      "start_name": "쉼터",
      "end_name": "삼나무숲길 포토존",
      "length_meter": 205.4,
      "time_minute": 2
    },
    {
      "path_id": 29,
      "path": [
        {
          "lat": 33.392227,
          "lng": 126.679161,
          "ele": 499.594
        },
        {
          "lat": 33.392227,
          "lng": 126.679161,
          "ele": 499.594
        }
      ],
      "color": "#99a299",
      "start_name": "삼나무숲길 포토존 / 삼나무숲길 포토존2",
      "end_name": "삼나무숲길 포토존1",
      "length_meter": 129.7,
      "time_minute": 1
    },
    {
      "path_id": 30,
      "path": [
        {
          "lat": 33.392227,
          "lng": 126.679161,
          "ele": 499.594
        },
        {
          "lat": 33.393089,
          "lng": 126.680328,
          "ele": 495.135
        }
      ],
      "color": "#a952c5",
      "start_name": "삼나무숲길 포토존1",
      "end_name": "미로숲길 입구",
      "length_meter": 144.7,
      "time_minute": 1
    },
    {
      "path_id": 31,
      "path": [
        {
          "lat": 33.393089,
          "lng": 126.680328,
          "ele": 495.135
        },
        {
          "lat": 33.393517,
          "lng": 126.68132,
          "ele": 505.743
        }
      ],
      "color": "#c00c97",
      "start_name": "미로숲길 입구",
      "end_name": "산수국",
      "length_meter": 103.7,
      "time_minute": 1
    },
    {
      "path_id": 32,
      "path": [
        {
          "lat": 33.393517,
          "lng": 126.68132,
          "ele": 505.743
        },
        {
          "lat": 33.395027,
          "lng": 126.68277,
          "ele": 494.189
        }
      ],
      "color": "#5676b2",
      "start_name": "산수국 / 쉼터 / 산수국",
      "end_name": "미로숲길",
      "length_meter": 219.4,
      "time_minute": 3
    },
    {
      "path_id": 33,
      "path": [
        {
          "lat": 33.395027,
          "lng": 126.68277,
          "ele": 494.189
        },
        {
          "lat": 33.394901,
          "lng": 126.684013,
          "ele": 494.321
        }
      ],
      "color": "#9ab71a",
      "start_name": "미로숲길 / 미로숲길 쉼터 / 미로숲길 쉼터/열린무대 / 사려니숲 무장애나눔길",
      "end_name": "쉼터",
      "length_meter": 144.3,
      "time_minute": 2
    },
    {
      "path_id": 34,
      "path": [
        {
          "lat": 33.394901,
          "lng": 126.684013,
          "ele": 494.321
        },
        {
          "lat": 33.395073,
          "lng": 126.684906,
          "ele": 493.44
        }
      ],
      "color": "#336d7e",
      "start_name": "쉼터 / 한라산둘레길 숲길센터 화장실",
      "end_name": "한라산둘레길 숲길센터",
      "length_meter": 85.3,
      "time_minute": 1
    },
    {
      "path_id": 35,
      "path": [
        {
          "lat": 33.395073,
          "lng": 126.684906,
          "ele": 493.44
        },
        {
          "lat": 33.395298,
          "lng": 126.685043,
          "ele": 493.425
        }
      ],
      "color": "#b7bec2",
      "start_name": "한라산둘레길 숲길센터 / 사려니숲길 붉은오름 입출구",
      "end_name": "붉은오름 정류소",
      "length_meter": 37.5,
      "time_minute": 0
    }
  ],
  "min_ele": 493.425
}