{
    "max_ele": 1028.211,
    "track": [
        {
            "path_id": 1,
            "name": "산림문화휴양관 주차장",
            "lat": 37.865097,
            "lon": 127.981506,
            "ele": 376.222
        },
        {
            "path_id": 2,
            "name": "가리산강우레이더관측소 주차장",
            "lat": 37.866718,
            "lon": 127.977547,
            "ele": 423.068
        },
        {
            "path_id": 3,
            "name": "모노레일 출발/도착 정거장",
            "lat": 37.866898,
            "lon": 127.976837,
            "ele": 428.364
        },
        {
            "path_id": 4,
            "name": "갈림길",
            "lat": 37.867962,
            "lon": 127.972809,
            "ele": 493.044
        },
        {
            "path_id": 5,
            "name": "중간 자연쉼터",
            "lat": 37.87299,
            "lon": 127.972061,
            "ele": 674.797
        },
        {
            "path_id": 6,
            "name": "갈림길",
            "lat": 37.873352,
            "lon": 127.972115,
            "ele": 689.303
        },
        {
            "path_id": 7,
            "name": "중간 평지",
            "lat": 37.873791,
            "lon": 127.972488,
            "ele": 699.369
        },
        {
            "path_id": 8,
            "name": "갈림길",
            "lat": 37.878952,
            "lon": 127.967575,
            "ele": 893.9
        },
        {
            "path_id": 9,
            "name": "한 천자 이야기",
            "lat": 37.874443,
            "lon": 127.959641,
            "ele": 935.905
        },
        {
            "path_id": 10,
            "name": "갈림길",
            "lat": 37.87442,
            "lon": 127.959267,
            "ele": 940.044
        },
        {
            "path_id": 13,
            "name": "큰바위얼굴",
            "lat": 37.871983,
            "lon": 127.956566,
            "ele": 1023.069
        },
        {
            "path_id": 14,
            "name": "2봉",
            "lat": 37.872055,
            "lon": 127.956329,
            "ele": 1026.829
        },
        {
            "path_id": 15,
            "name": "3봉",
            "lat": 37.872437,
            "lon": 127.956154,
            "ele": 1023.606
        },
        {
            "path_id": 16,
            "name": "가리산 정상",
            "lat": 37.871387,
            "lon": 127.956276,
            "ele": 1028.211
        },
        {
            "path_id": 17,
            "name": "갈림길",
            "lat": 37.870937,
            "lon": 127.956886,
            "ele": 939.61
        },
        {
            "path_id": 18,
            "name": "가리산 제1봉 석간수",
            "lat": 37.870586,
            "lon": 127.957031,
            "ele": 915.214
        },
        {
            "path_id": 19,
            "name": "갈림길",
            "lat": 37.865997,
            "lon": 127.960678,
            "ele": 860.672
        },
        {
            "path_id": 20,
            "name": "무쇠말재",
            "lat": 37.865925,
            "lon": 127.960648,
            "ele": 859.599
        },
        {
            "path_id": 21,
            "name": "괴목",
            "lat": 37.866467,
            "lon": 127.963112,
            "ele": 0.0
        },
        {
            "path_id": 22,
            "name": "연리목",
            "lat": 37.86681,
            "lon": 127.964844,
            "ele": 710.107
        },
        {
            "path_id": 23,
            "name": "합수곡",
            "lat": 37.868435,
            "lon": 127.971527,
            "ele": 489.188
        },
        {
            "path_id": 25,
            "name": "식당옆 휴양림 데크",
            "lat": 37.865086,
            "lon": 127.982491,
            "ele": 372.273
        }
    ]
}