[
    {
        "path_id": 1,
        "name": "택시승강장",
        "lat": 34.796551,
        "lon": 126.70266
    },
    {
        "path_id": 2,
        "name": "영암터미널",
        "lat": 34.796406,
        "lon": 126.702766
    },
    {
        "path_id": 3,
        "name": "편의점",
        "lat": 34.796326,
        "lon": 126.702797
    },
    {
        "path_id": 4,
        "name": "산성대주차장 입구",
        "lat": 34.794174,
        "lon": 126.697754
    },
    {
        "path_id": 5,
        "name": "공영주차장",
        "lat": 34.793907,
        "lon": 126.697632
    },
    {
        "path_id": 6,
        "name": "영암관광안내도",
        "lat": 34.793316,
        "lon": 126.697411
    },
    {
        "path_id": 7,
        "name": "운동시설 및 놀이기구",
        "lat": 34.793274,
        "lon": 126.697395
    },
    {
        "path_id": 8,
        "name": "정자쉼터",
        "lat": 34.792984,
        "lon": 126.697296
    },
    {
        "path_id": 9,
        "name": "탐방제한일정",
        "lat": 34.791893,
        "lon": 126.696991
    },
    {
        "path_id": 10,
        "name": "국가지점번호",
        "lat": 34.788662,
        "lon": 126.698692
    },
    {
        "path_id": 11,
        "name": "바위",
        "lat": 34.785637,
        "lon": 126.700378
    },
    {
        "path_id": 12,
        "name": "영암읍내전경",
        "lat": 34.785576,
        "lon": 126.700287
    },
    {
        "path_id": 13,
        "name": "국가지점번호",
        "lat": 34.784882,
        "lon": 126.700272
    },
    {
        "path_id": 14,
        "name": "ㅊ",
        "lat": 34.783249,
        "lon": 126.700661
    },
    {
        "path_id": 15,
        "name": "국가지점번호",
        "lat": 34.7813,
        "lon": 126.700218
    },
    {
        "path_id": 17,
        "name": "영암일대",
        "lat": 34.780674,
        "lon": 126.700294
    },
    {
        "path_id": 18,
        "name": "천황봉",
        "lat": 34.77869,
        "lon": 126.699959
    },
    {
        "path_id": 19,
        "name": "바위",
        "lat": 34.77866,
        "lon": 126.700119
    },
    {
        "path_id": 20,
        "name": "국가지점번호",
        "lat": 34.77787,
        "lon": 126.701012
    },
    {
        "path_id": 21,
        "name": "영암읍내전경",
        "lat": 34.775547,
        "lon": 126.702965
    },
    {
        "path_id": 22,
        "name": "이정표",
        "lat": 34.775536,
        "lon": 126.703003
    },
    {
        "path_id": 23,
        "name": "국가지점번호",
        "lat": 34.775017,
        "lon": 126.703842
    },
    {
        "path_id": 24,
        "name": "고사목과  영암일대",
        "lat": 34.774307,
        "lon": 126.704422
    },
    {
        "path_id": 25,
        "name": "사자봉",
        "lat": 34.773907,
        "lon": 126.704269
    },
    {
        "path_id": 26,
        "name": "천황봉",
        "lat": 34.77375,
        "lon": 126.704369
    },
    {
        "path_id": 27,
        "name": "암릉구간",
        "lat": 34.772068,
        "lon": 126.704605
    },
    {
        "path_id": 28,
        "name": "국가지점번호",
        "lat": 34.77177,
        "lon": 126.704712
    },
    {
        "path_id": 29,
        "name": "산성대 암릉구간",
        "lat": 34.770508,
        "lon": 126.705872
    },
    {
        "path_id": 30,
        "name": "바위길",
        "lat": 34.770161,
        "lon": 126.706169
    },
    {
        "path_id": 31,
        "name": "사자봉",
        "lat": 34.768333,
        "lon": 126.706345
    },
    {
        "path_id": 32,
        "name": "구름다리",
        "lat": 34.770195,
        "lon": 126.707748
    },
    {
        "path_id": 33,
        "name": "이정표",
        "lat": 34.770313,
        "lon": 126.707817
    },
    {
        "path_id": 34,
        "name": "육형제바위",
        "lat": 34.769836,
        "lon": 126.708061
    },
    {
        "path_id": 35,
        "name": "벤치3",
        "lat": 34.769653,
        "lon": 126.709274
    },
    {
        "path_id": 36,
        "name": "추락주의",
        "lat": 34.76965,
        "lon": 126.709526
    },
    {
        "path_id": 37,
        "name": "구름다리",
        "lat": 34.769825,
        "lon": 126.709717
    },
    {
        "path_id": 38,
        "name": "탐방로안내",
        "lat": 34.769676,
        "lon": 126.709816
    },
    {
        "path_id": 39,
        "name": "출입금지",
        "lat": 34.769726,
        "lon": 126.709908
    },
    {
        "path_id": 40,
        "name": "바람폭포",
        "lat": 34.769745,
        "lon": 126.709999
    },
    {
        "path_id": 41,
        "name": "쉼터",
        "lat": 34.769642,
        "lon": 126.709961
    },
    {
        "path_id": 43,
        "name": "국가지점번호",
        "lat": 34.769657,
        "lon": 126.710083
    },
    {
        "path_id": 44,
        "name": "갈림길",
        "lat": 34.770058,
        "lon": 126.711594
    },
    {
        "path_id": 45,
        "name": "탐방로 안내",
        "lat": 34.770061,
        "lon": 126.711609
    },
    {
        "path_id": 46,
        "name": "국가지점번호",
        "lat": 34.770565,
        "lon": 126.712662
    },
    {
        "path_id": 47,
        "name": "계곡",
        "lat": 34.770935,
        "lon": 126.713219
    },
    {
        "path_id": 48,
        "name": "낙석위험",
        "lat": 34.77103,
        "lon": 126.713577
    },
    {
        "path_id": 49,
        "name": "급경사 붕괴 위험지역",
        "lat": 34.771019,
        "lon": 126.713524
    },
    {
        "path_id": 50,
        "name": "갈림길",
        "lat": 34.771973,
        "lon": 126.716721
    },
    {
        "path_id": 51,
        "name": "탐방로 안내",
        "lat": 34.771988,
        "lon": 126.716675
    },
    {
        "path_id": 52,
        "name": "국가지점번호",
        "lat": 34.771973,
        "lon": 126.716705
    },
    {
        "path_id": 53,
        "name": "자연경관",
        "lat": 34.772022,
        "lon": 126.716904
    },
    {
        "path_id": 54,
        "name": "낙뢰다발지역",
        "lat": 34.772392,
        "lon": 126.718178
    },
    {
        "path_id": 55,
        "name": "국가지점번호",
        "lat": 34.772484,
        "lon": 126.71817
    },
    {
        "path_id": 56,
        "name": "월출산 시노암길",
        "lat": 34.773739,
        "lon": 126.71904
    },
    {
        "path_id": 57,
        "name": "천황사지구 탐방로 입구",
        "lat": 34.774002,
        "lon": 126.719208
    },
    {
        "path_id": 58,
        "name": "월출산인증  포토존",
        "lat": 34.774036,
        "lon": 126.719223
    },
    {
        "path_id": 59,
        "name": "탕0",
        "lat": 34.774162,
        "lon": 126.71933
    },
    {
        "path_id": 60,
        "name": "흙먼지털이기",
        "lat": 34.774155,
        "lon": 126.719337
    },
    {
        "path_id": 61,
        "name": "갈림길",
        "lat": 34.774128,
        "lon": 126.719383
    },
    {
        "path_id": 62,
        "name": "야영장",
        "lat": 34.774109,
        "lon": 126.719566
    },
    {
        "path_id": 63,
        "name": "산새둥지",
        "lat": 34.775364,
        "lon": 126.721252
    },
    {
        "path_id": 64,
        "name": "월출산밥상",
        "lat": 34.776325,
        "lon": 126.722046
    },
    {
        "path_id": 65,
        "name": "천황탐방지원센터",
        "lat": 34.776993,
        "lon": 126.722137
    },
    {
        "path_id": 66,
        "name": "주차장쉼터",
        "lat": 34.777054,
        "lon": 126.722153
    },
    {
        "path_id": 67,
        "name": "승강ㅈ1ㆍㅇ",
        "lat": 34.777153,
        "lon": 126.722481
    },
    {
        "path_id": 68,
        "name": "월출산",
        "lat": 34.777206,
        "lon": 126.722496
    },
    {
        "path_id": 69,
        "name": "편의점 및 식당",
        "lat": 34.777218,
        "lon": 126.722488
    },
    {
        "path_id": 70,
        "name": "대형주차장앞",
        "lat": 34.777287,
        "lon": 126.722572
    }
]