[
    {
        "path_id": 1,
        "name": "경포대탐방지원센터",
        "lat": 34.745522,
        "lon": 126.709076
    },
    {
        "path_id": 2,
        "name": "경포대탐방지원센터 앞",
        "lat": 34.745533,
        "lon": 126.709084
    },
    {
        "path_id": 3,
        "name": "월출산국립공원 안내도",
        "lat": 34.746647,
        "lon": 126.70874
    },
    {
        "path_id": 4,
        "name": "경포대음수화장실",
        "lat": 34.746716,
        "lon": 126.708633
    },
    {
        "path_id": 5,
        "name": "탐방로안내",
        "lat": 34.746994,
        "lon": 126.70842
    },
    {
        "path_id": 6,
        "name": "전남월출학생수련장",
        "lat": 34.746971,
        "lon": 126.708481
    },
    {
        "path_id": 7,
        "name": "경포대탐방로입구",
        "lat": 34.747181,
        "lon": 126.708412
    },
    {
        "path_id": 8,
        "name": "탐방로안내",
        "lat": 34.747318,
        "lon": 126.708336
    },
    {
        "path_id": 9,
        "name": "족욕탕",
        "lat": 34.747337,
        "lon": 126.708305
    },
    {
        "path_id": 10,
        "name": "뱀주의",
        "lat": 34.74741,
        "lon": 126.708275
    },
    {
        "path_id": 11,
        "name": "국가지점번호",
        "lat": 34.74789,
        "lon": 126.708244
    },
    {
        "path_id": 12,
        "name": "물놀이주의",
        "lat": 34.747871,
        "lon": 126.708221
    },
    {
        "path_id": 13,
        "name": "탐방로안내",
        "lat": 34.748138,
        "lon": 126.708511
    },
    {
        "path_id": 14,
        "name": "야생멧돼지 출현주의",
        "lat": 34.748161,
        "lon": 126.708549
    },
    {
        "path_id": 15,
        "name": "국가지점번호",
        "lat": 34.748192,
        "lon": 126.708641
    },
    {
        "path_id": 17,
        "name": "벤치",
        "lat": 34.750721,
        "lon": 126.708824
    },
    {
        "path_id": 19,
        "name": "굴참나무터널",
        "lat": 34.757198,
        "lon": 126.707916
    },
    {
        "path_id": 20,
        "name": "국가지점번호",
        "lat": 34.758327,
        "lon": 126.708107
    },
    {
        "path_id": 21,
        "name": "편백나무숲",
        "lat": 34.760738,
        "lon": 126.707672
    },
    {
        "path_id": 23,
        "name": "사자봉능선",
        "lat": 34.763618,
        "lon": 126.706718
    },
    {
        "path_id": 24,
        "name": "쉼터광장",
        "lat": 34.763901,
        "lon": 126.706741
    },
    {
        "path_id": 25,
        "name": "국가지점번호",
        "lat": 34.763874,
        "lon": 126.706657
    },
    {
        "path_id": 26,
        "name": "경포대옹달샘음수대",
        "lat": 34.763866,
        "lon": 126.706673
    },
    {
        "path_id": 27,
        "name": "사자봉",
        "lat": 34.763966,
        "lon": 126.706863
    },
    {
        "path_id": 28,
        "name": "국가지점번호",
        "lat": 34.76659,
        "lon": 126.70649
    },
    {
        "path_id": 29,
        "name": "추락위험",
        "lat": 34.766579,
        "lon": 126.70652
    },
    {
        "path_id": 30,
        "name": "탐방로제한안내",
        "lat": 34.766582,
        "lon": 126.706665
    },
    {
        "path_id": 31,
        "name": "사고위험지역",
        "lat": 34.766582,
        "lon": 126.706711
    },
    {
        "path_id": 32,
        "name": "탐방로안내",
        "lat": 34.766624,
        "lon": 126.706757
    },
    {
        "path_id": 33,
        "name": "갈림길",
        "lat": 34.766632,
        "lon": 126.706696
    },
    {
        "path_id": 34,
        "name": "구름다리 사자봉",
        "lat": 34.766693,
        "lon": 126.706078
    },
    {
        "path_id": 35,
        "name": "사자봉-양자봉능선",
        "lat": 34.766628,
        "lon": 126.706108
    },
    {
        "path_id": 36,
        "name": "육형제봉과 사자봉",
        "lat": 34.766727,
        "lon": 126.705948
    },
    {
        "path_id": 37,
        "name": "자연경관",
        "lat": 34.765251,
        "lon": 126.702171
    },
    {
        "path_id": 38,
        "name": "비상구급함",
        "lat": 34.764786,
        "lon": 126.70137
    },
    {
        "path_id": 39,
        "name": "안전쉼터",
        "lat": 34.764767,
        "lon": 126.70137
    },
    {
        "path_id": 40,
        "name": "향로봉, 구정봉,노적봉능선",
        "lat": 34.764782,
        "lon": 126.701378
    },
    {
        "path_id": 41,
        "name": "돼지바위",
        "lat": 34.763062,
        "lon": 126.700569
    },
    {
        "path_id": 42,
        "name": "구정봉 의 큰바위얼굴",
        "lat": 34.760811,
        "lon": 126.696648
    },
    {
        "path_id": 43,
        "name": "갈림길",
        "lat": 34.760395,
        "lon": 126.694763
    },
    {
        "path_id": 44,
        "name": "베틀굴",
        "lat": 34.760593,
        "lon": 126.694641
    },
    {
        "path_id": 45,
        "name": "포토존",
        "lat": 34.760738,
        "lon": 126.696732
    },
    {
        "path_id": 46,
        "name": "국가지점번호",
        "lat": 34.758957,
        "lon": 126.698532
    },
    {
        "path_id": 49,
        "name": "예추구간",
        "lat": 34.756641,
        "lon": 126.705421
    },
    {
        "path_id": 50,
        "name": "금릉경포대에 이르는 폭포",
        "lat": 34.756523,
        "lon": 126.705696
    },
    {
        "path_id": 51,
        "name": "소폭포",
        "lat": 34.756489,
        "lon": 126.705826
    },
    {
        "path_id": 52,
        "name": "대피로",
        "lat": 34.748207,
        "lon": 126.708725
    },
    {
        "path_id": 53,
        "name": "뱀, 벌주의",
        "lat": 34.748066,
        "lon": 126.708473
    },
    {
        "path_id": 54,
        "name": "국가지점번호",
        "lat": 34.747993,
        "lon": 126.708458
    },
    {
        "path_id": 55,
        "name": "테이블과 벤치",
        "lat": 34.747875,
        "lon": 126.708336
    },
    {
        "path_id": 56,
        "name": "계곡",
        "lat": 34.74786,
        "lon": 126.708328
    }
]