{
    "max_ele": 1099.423,
    "track": [
        {
            "path_id": 1,
            "name": "예수원정류장",
            "lat": 37.304321,
            "lon": 128.991989,
            "ele": 736.322
        },
        {
            "path_id": 2,
            "name": "덕항산 등산로입구, 외나무골",
            "lat": 37.304699,
            "lon": 129.003616,
            "ele": 779.989
        },
        {
            "path_id": 3,
            "name": "갈림길",
            "lat": 37.304607,
            "lon": 129.004608,
            "ele": 795.581
        },
        {
            "path_id": 4,
            "name": "갈림길",
            "lat": 37.304588,
            "lon": 129.006256,
            "ele": 811.492
        },
        {
            "path_id": 5,
            "name": "갈림길",
            "lat": 37.304111,
            "lon": 129.012299,
            "ele": 883.27
        },
        {
            "path_id": 6,
            "name": "갈림길",
            "lat": 37.303417,
            "lon": 129.01503,
            "ele": 918.688
        },
        {
            "path_id": 7,
            "name": "갈림길",
            "lat": 37.302109,
            "lon": 129.017395,
            "ele": 953.847
        },
        {
            "path_id": 8,
            "name": "웨이포인트 10",
            "lat": 37.303388,
            "lon": 129.018327,
            "ele": 991.733
        },
        {
            "path_id": 9,
            "name": "갈림길",
            "lat": 37.304821,
            "lon": 129.017838,
            "ele": 1004.54
        },
        {
            "path_id": 10,
            "name": "갈림길",
            "lat": 37.304844,
            "lon": 129.016815,
            "ele": 1030.569
        },
        {
            "path_id": 11,
            "name": "웨이포인트 13",
            "lat": 37.304924,
            "lon": 129.016636,
            "ele": 1030.209
        },
        {
            "path_id": 12,
            "name": "전망좋은곳",
            "lat": 37.305382,
            "lon": 129.0159,
            "ele": 1028.956
        },
        {
            "path_id": 13,
            "name": "덕항산 정상",
            "lat": 37.308937,
            "lon": 129.012405,
            "ele": 1059.078
        },
        {
            "path_id": 14,
            "name": "쉼터 가기전",
            "lat": 37.310471,
            "lon": 129.011871,
            "ele": 1099.423
        },
        {
            "path_id": 15,
            "name": "낭떠러지",
            "lat": 37.310726,
            "lon": 129.011688,
            "ele": 1096.217
        },
        {
            "path_id": 16,
            "name": "나무쓰러짐",
            "lat": 37.309258,
            "lon": 129.008606,
            "ele": 1025.198
        },
        {
            "path_id": 17,
            "name": "나무다리 중간",
            "lat": 37.306412,
            "lon": 128.993835,
            "ele": 759.603
        },
        {
            "path_id": 18,
            "name": "예수원정류장",
            "lat": 37.306538,
            "lon": 128.993561,
            "ele": 0.0
        }
    ]
}