[
    {
        "path_id": 1,
        "name": "유명산종점",
        "lat": 37.596073,
        "lon": 127.491005
    },
    {
        "path_id": 2,
        "name": "들꽃여울",
        "lat": 37.597321,
        "lon": 127.505936
    },
    {
        "path_id": 3,
        "name": "어비산안내도",
        "lat": 37.59045,
        "lon": 127.51062
    },
    {
        "path_id": 4,
        "name": "갈림길",
        "lat": 37.590233,
        "lon": 127.509872
    },
    {
        "path_id": 5,
        "name": "능선등산로",
        "lat": 37.584229,
        "lon": 127.503082
    },
    {
        "path_id": 6,
        "name": "등산로",
        "lat": 37.583637,
        "lon": 127.503044
    },
    {
        "path_id": 7,
        "name": "조망쉼터",
        "lat": 37.582394,
        "lon": 127.503349
    },
    {
        "path_id": 9,
        "name": "어비산 인근",
        "lat": 37.577847,
        "lon": 127.506325
    },
    {
        "path_id": 10,
        "name": "조망쉼터",
        "lat": 37.577152,
        "lon": 127.506218
    },
    {
        "path_id": 11,
        "name": "어비산",
        "lat": 37.57526,
        "lon": 127.506462
    },
    {
        "path_id": 12,
        "name": "갈림길",
        "lat": 37.571224,
        "lon": 127.498482
    },
    {
        "path_id": 14,
        "name": "어비계곡 쉼터",
        "lat": 37.576553,
        "lon": 127.50972
    },
    {
        "path_id": 15,
        "name": "갈림길",
        "lat": 37.581085,
        "lon": 127.51664
    },
    {
        "path_id": 17,
        "name": "앨리스",
        "lat": 37.592522,
        "lon": 127.511444
    }
]