[
    {
        "name": "갈림길",
        "lat": 36.731834,
        "lon": 127.987541
    },
    {
        "name": "주치봉",
        "lat": 36.724079,
        "lon": 127.976753
    },
    {
        "name": "갈림길",
        "lat": 36.724098,
        "lon": 127.976753
    },
    {
        "name": "적송군락",
        "lat": 36.724888,
        "lon": 127.974861
    },
    {
        "name": "갈림길",
        "lat": 36.725864,
        "lon": 127.973732
    },
    {
        "name": "산산제 장소",
        "lat": 36.725929,
        "lon": 127.973785
    },
    {
        "name": "산림유전자원보호구역안내판",
        "lat": 36.725925,
        "lon": 127.973701
    },
    {
        "name": "조망바위",
        "lat": 36.728561,
        "lon": 127.971947
    },
    {
        "name": "마분봉배경",
        "lat": 36.730888,
        "lon": 127.970482
    },
    {
        "name": "갈림길",
        "lat": 36.73407,
        "lon": 127.96373
    },
    {
        "name": "갈림길",
        "lat": 36.736866,
        "lon": 127.961662
    },
    {
        "name": "멧돼지출현흔적",
        "lat": 36.737095,
        "lon": 127.961708
    },
    {
        "name": "갈림길",
        "lat": 36.739548,
        "lon": 127.963234
    },
    {
        "name": "간이쉼터",
        "lat": 36.739513,
        "lon": 127.963158
    },
    {
        "name": "간이쉼터",
        "lat": 36.737175,
        "lon": 127.972755
    },
    {
        "name": "갈림길",
        "lat": 36.735992,
        "lon": 127.980141
    },
    {
        "name": "날머리",
        "lat": 36.734627,
        "lon": 127.983803
    },
    {
        "name": "들머리",
        "lat": 36.737457,
        "lon": 127.989098
    }
]