[
    {
        "path_id": 1,
        "name": "상천휴게소 주차장",
        "lat": 36.964703,
        "lon": 128.240112
    },
    {
        "path_id": 2,
        "name": "금수산순두부",
        "lat": 36.96521,
        "lon": 128.240067
    },
    {
        "path_id": 4,
        "name": "매점",
        "lat": 36.964947,
        "lon": 128.239716
    },
    {
        "path_id": 5,
        "name": "상천주차장 버스 정류장",
        "lat": 36.965115,
        "lon": 128.239441
    },
    {
        "path_id": 6,
        "name": "금슈산 상천코스 들머리",
        "lat": 36.970646,
        "lon": 128.241531
    },
    {
        "path_id": 7,
        "name": "갈림길",
        "lat": 36.970665,
        "lon": 128.241531
    },
    {
        "path_id": 8,
        "name": "계곡",
        "lat": 36.972004,
        "lon": 128.240967
    },
    {
        "path_id": 10,
        "name": "용담폭포",
        "lat": 36.972702,
        "lon": 128.240356
    },
    {
        "path_id": 11,
        "name": "조망지점",
        "lat": 36.978508,
        "lon": 128.240204
    },
    {
        "path_id": 12,
        "name": "독수리바위",
        "lat": 36.978512,
        "lon": 128.240158
    },
    {
        "path_id": 13,
        "name": "갈림길",
        "lat": 36.986458,
        "lon": 128.241318
    },
    {
        "path_id": 14,
        "name": "망덕봉",
        "lat": 36.986404,
        "lon": 128.240936
    },
    {
        "path_id": 15,
        "name": "갈림길",
        "lat": 36.986595,
        "lon": 128.255814
    },
    {
        "path_id": 16,
        "name": "조망지점",
        "lat": 36.986504,
        "lon": 128.255737
    },
    {
        "path_id": 17,
        "name": "금수산정상",
        "lat": 36.985031,
        "lon": 128.256729
    },
    {
        "path_id": 18,
        "name": "갈림길",
        "lat": 36.982075,
        "lon": 128.256958
    },
    {
        "path_id": 19,
        "name": "낙석주의지점",
        "lat": 36.977463,
        "lon": 128.254242
    },
    {
        "path_id": 20,
        "name": "주의지점",
        "lat": 36.977245,
        "lon": 128.253189
    },
    {
        "path_id": 21,
        "name": "계곡",
        "lat": 36.974777,
        "lon": 128.247787
    },
    {
        "path_id": 22,
        "name": "보문정사",
        "lat": 36.968594,
        "lon": 128.239517
    }
]