[
    {
        "path_id": 1,
        "name": "금수산 상학주차장 버스정류장",
        "lat": 36.975719,
        "lon": 128.274933
    },
    {
        "path_id": 2,
        "name": "상학주차장",
        "lat": 36.975479,
        "lon": 128.274689
    },
    {
        "path_id": 4,
        "name": "대추나무집",
        "lat": 36.97728,
        "lon": 128.273529
    },
    {
        "path_id": 5,
        "name": "들머리",
        "lat": 36.978851,
        "lon": 128.269379
    },
    {
        "path_id": 6,
        "name": "갈림길",
        "lat": 36.978901,
        "lon": 128.269394
    },
    {
        "path_id": 8,
        "name": "대비사",
        "lat": 36.980644,
        "lon": 128.265945
    },
    {
        "path_id": 11,
        "name": "갈림길",
        "lat": 36.985901,
        "lon": 128.267044
    },
    {
        "path_id": 13,
        "name": "남근석공원",
        "lat": 36.985889,
        "lon": 128.26683
    },
    {
        "path_id": 15,
        "name": "갈림길",
        "lat": 36.985851,
        "lon": 128.265991
    },
    {
        "path_id": 16,
        "name": "옹달샘",
        "lat": 36.986027,
        "lon": 128.263458
    },
    {
        "path_id": 17,
        "name": "왕제비꽃 서식지",
        "lat": 36.98613,
        "lon": 128.263046
    },
    {
        "path_id": 18,
        "name": "갈림길",
        "lat": 36.986168,
        "lon": 128.26265
    },
    {
        "path_id": 19,
        "name": "설금전망대",
        "lat": 36.986786,
        "lon": 128.263672
    },
    {
        "path_id": 20,
        "name": "낙석주의지점",
        "lat": 36.985992,
        "lon": 128.258774
    },
    {
        "path_id": 21,
        "name": "낙석주의구간",
        "lat": 36.986458,
        "lon": 128.257004
    },
    {
        "path_id": 22,
        "name": "갈림길",
        "lat": 36.986546,
        "lon": 128.25589
    },
    {
        "path_id": 23,
        "name": "전망대",
        "lat": 36.986488,
        "lon": 128.255814
    },
    {
        "path_id": 24,
        "name": "금수산정상",
        "lat": 36.985016,
        "lon": 128.256775
    },
    {
        "path_id": 25,
        "name": "갈림길",
        "lat": 36.98204,
        "lon": 128.257004
    },
    {
        "path_id": 26,
        "name": "전망대",
        "lat": 36.981266,
        "lon": 128.258682
    },
    {
        "path_id": 27,
        "name": "갈림길",
        "lat": 36.97739,
        "lon": 128.264038
    },
    {
        "path_id": 28,
        "name": "금수산 들머리앞 주차장",
        "lat": 36.978764,
        "lon": 128.269806
    }
]