[
    {
        "path_id": 1,
        "name": "칠연계곡. 동엽령 시작 버스 종점",
        "lat": 35.839462,
        "lon": 127.690956
    },
    {
        "path_id": 2,
        "name": "통안 시내버스 정류장",
        "lat": 35.839451,
        "lon": 127.690979
    },
    {
        "path_id": 3,
        "name": "윤식당",
        "lat": 35.839298,
        "lon": 127.691307
    },
    {
        "path_id": 4,
        "name": "늘푸른식당",
        "lat": 35.838905,
        "lon": 127.691902
    },
    {
        "path_id": 5,
        "name": "안성탐방지원센터 주차장",
        "lat": 35.838058,
        "lon": 127.699928
    },
    {
        "path_id": 6,
        "name": "안성탐방지원센터 화장실",
        "lat": 35.837906,
        "lon": 127.700165
    },
    {
        "path_id": 7,
        "name": "안성탐방지원센터",
        "lat": 35.837887,
        "lon": 127.700172
    },
    {
        "path_id": 8,
        "name": "갈림길",
        "lat": 35.837631,
        "lon": 127.700302
    },
    {
        "path_id": 9,
        "name": "벤취",
        "lat": 35.835529,
        "lon": 127.709389
    },
    {
        "path_id": 11,
        "name": "갈림길",
        "lat": 35.833458,
        "lon": 127.710632
    },
    {
        "path_id": 12,
        "name": "간이화장실",
        "lat": 35.833328,
        "lon": 127.710609
    },
    {
        "path_id": 13,
        "name": "칠연폭포",
        "lat": 35.831696,
        "lon": 127.711433
    },
    {
        "path_id": 17,
        "name": "갈림길",
        "lat": 35.827244,
        "lon": 127.739182
    },
    {
        "path_id": 18,
        "name": "긴급재난 안전쉼터",
        "lat": 35.82719,
        "lon": 127.739227
    },
    {
        "path_id": 19,
        "name": "갈림길",
        "lat": 35.843819,
        "lon": 127.745018
    }
]