[
  {
    "path_id": 0,
    "path": [
      {
        "lat": 34.845146,
        "lng": 128.220139
      },
      {
        "lat": 34.844978,
        "lng": 128.218674
      }
    ],
    "color": "#3ad3a1",
    "start_name": "사량면사무소 / 화장실",
    "length_meter": 136.8,
    "time_minute": 2
  },
  {
    "path_id": 1,
    "path": [
      {
        "lat": 34.844978,
        "lng": 128.218674
      },
      {
        "lat": 34.84594,
        "lng": 128.216248
      }
    ],
    "color": "#ff1667",
    "start_name": "(들머리) 미정식당",
    "length_meter": 245.9,
    "time_minute": 4
  },
  {
    "path_id": 2,
    "path": [
      {
        "lat": 34.84594,
        "lng": 128.216248
      },
      {
        "lat": 34.846512,
        "lng": 128.214264
      }
    ],
    "color": "#26f538",
    "start_name": "갈림길",
    "length_meter": 191.9,
    "time_minute": 3
  },
  {
    "path_id": 3,
    "path": [
      {
        "lat": 34.846512,
        "lng": 128.214264
      },
      {
        "lat": 34.846741,
        "lng": 128.212692
      }
    ],
    "color": "#a0aad2",
    "start_name": "고동산 & 사량대교 / 사량도 하도",
    "length_meter": 146.4,
    "time_minute": 2
  },
  {
    "path_id": 4,
    "path": [
      {
        "lat": 34.846741,
        "lng": 128.212692
      },
      {
        "lat": 34.846725,
        "lng": 128.211853
      }
    ],
    "color": "#b83340",
    "start_name": "사량대교 & 사량도 하도 / 옥녀봉",
    "length_meter": 77.7,
    "time_minute": 1
  },
  {
    "path_id": 5,
    "path": [
      {
        "lat": 34.846725,
        "lng": 128.211853
      },
      {
        "lat": 34.846973,
        "lng": 128.211105
      }
    ],
    "color": "#f0d0ad",
    "start_name": "갈림길",
    "length_meter": 73.6,
    "time_minute": 1
  },
  {
    "path_id": 6,
    "path": [
      {
        "lat": 34.846973,
        "lng": 128.211105
      },
      {
        "lat": 34.847424,
        "lng": 128.208069
      }
    ],
    "color": "#d2b33d",
    "start_name": "두미도 / 가마봉",
    "length_meter": 281.6,
    "time_minute": 4
  },
  {
    "path_id": 7,
    "path": [
      {
        "lat": 34.847424,
        "lng": 128.208069
      },
      {
        "lat": 34.84721,
        "lng": 128.206421
      }
    ],
    "color": "#a898d6",
    "start_name": "출렁다리 / 출렁다리 2",
    "length_meter": 152.3,
    "time_minute": 2
  },
  {
    "path_id": 8,
    "path": [
      {
        "lat": 34.84721,
        "lng": 128.206421
      },
      {
        "lat": 34.847317,
        "lng": 128.205704
      }
    ],
    "color": "#222ea2",
    "start_name": "가마봉",
    "length_meter": 66.5,
    "time_minute": 1
  },
  {
    "path_id": 9,
    "path": [
      {
        "lat": 34.847317,
        "lng": 128.205704
      },
      {
        "lat": 34.847504,
        "lng": 128.205032
      }
    ],
    "color": "#ae8882",
    "start_name": "갈림길",
    "length_meter": 64.8,
    "time_minute": 1
  },
  {
    "path_id": 10,
    "path": [
      {
        "lat": 34.847504,
        "lng": 128.205032
      },
      {
        "lat": 34.84898,
        "lng": 128.200928
      }
    ],
    "color": "#1e7702",
    "start_name": "가마봉 정상 / 불모산",
    "length_meter": 410.0,
    "time_minute": 6
  },
  {
    "path_id": 11,
    "path": [
      {
        "lat": 34.84898,
        "lng": 128.200928
      },
      {
        "lat": 34.851212,
        "lng": 128.198105
      }
    ],
    "color": "#95c046",
    "start_name": "갈림길",
    "length_meter": 357.7,
    "time_minute": 5
  },
  {
    "path_id": 12,
    "path": [
      {
        "lat": 34.851212,
        "lng": 128.198105
      },
      {
        "lat": 34.850994,
        "lng": 128.197205
      }
    ],
    "color": "#7bf247",
    "start_name": "불모산",
    "length_meter": 85.6,
    "time_minute": 1
  },
  {
    "path_id": 13,
    "path": [
      {
        "lat": 34.850994,
        "lng": 128.197205
      },
      {
        "lat": 34.847961,
        "lng": 128.189774
      }
    ],
    "color": "#97e48c",
    "start_name": "갈림길",
    "length_meter": 757.3,
    "time_minute": 12
  },
  {
    "path_id": 14,
    "path": [
      {
        "lat": 34.847961,
        "lng": 128.189774
      },
      {
        "lat": 34.845924,
        "lng": 128.188065
      }
    ],
    "color": "#2f3e16",
    "start_name": "사량도",
    "length_meter": 275.0,
    "time_minute": 4
  },
  {
    "path_id": 15,
    "path": [
      {
        "lat": 34.845924,
        "lng": 128.188065
      },
      {
        "lat": 34.84589,
        "lng": 128.182281
      }
    ],
    "color": "#bb0105",
    "start_name": "남해",
    "length_meter": 527.8,
    "time_minute": 8
  },
  {
    "path_id": 16,
    "path": [
      {
        "lat": 34.84589,
        "lng": 128.182281
      },
      {
        "lat": 34.846317,
        "lng": 128.17923
      }
    ],
    "color": "#8a2ccc",
    "start_name": "지리산 정상",
    "length_meter": 282.4,
    "time_minute": 4
  },
  {
    "path_id": 17,
    "path": [
      {
        "lat": 34.846317,
        "lng": 128.17923
      },
      {
        "lat": 34.846291,
        "lng": 128.175949
      }
    ],
    "color": "#0aeaa8",
    "start_name": "내지선착장",
    "length_meter": 299.4,
    "time_minute": 4
  },
  {
    "path_id": 18,
    "path": [
      {
        "lat": 34.846291,
        "lng": 128.175949
      },
      {
        "lat": 34.853977,
        "lng": 128.174789
      }
    ],
    "color": "#5daab7",
    "start_name": "갈림길",
    "length_meter": 861.2,
    "time_minute": 14
  },
  {
    "path_id": 19,
    "path": [
      {
        "lat": 34.853977,
        "lng": 128.174789
      },
      {
        "lat": 34.855335,
        "lng": 128.179657
      }
    ],
    "color": "#59e589",
    "start_name": "(날머리) 내지마을",
    "length_meter": 469.2,
    "time_minute": 7
  },
  {
    "path_id": 20,
    "path": [
      {
        "lat": 34.855335,
        "lng": 128.179657
      },
      {
        "lat": 34.855602,
        "lng": 128.180298
      }
    ],
    "color": "#056b8e",
    "start_name": "화장실",
    "length_meter": 65.6,
    "time_minute": 1
  },
  {
    "path_id": 21,
    "path": [
      {
        "lat": 34.855602,
        "lng": 128.180298
      },
      {
        "lat": 34.85535,
        "lng": 128.180176
      }
    ],
    "color": "#5153d8",
    "start_name": "사량도~고성 용암포 / 내지마을 / 사량도 지리산 등산안내도 / 사량도 콜택시",
    "length_meter": 54.5,
    "time_minute": 0
  }
]