[
  {
    "path_id": 0,
    "path": [
      {
        "lat": 34.84515,
        "lng": 128.220078
      },
      {
        "lat": 34.844978,
        "lng": 128.218674
      }
    ],
    "color": "#371bb5",
    "start_name": "쉼터 / 사량면사무소 / 화장실",
    "length_meter": 142.4,
    "time_minute": 2
  },
  {
    "path_id": 1,
    "path": [
      {
        "lat": 34.844978,
        "lng": 128.218674
      },
      {
        "lat": 34.84594,
        "lng": 128.216248
      }
    ],
    "color": "#75a1b6",
    "start_name": "(들머리) 미정식당",
    "length_meter": 245.9,
    "time_minute": 4
  },
  {
    "path_id": 2,
    "path": [
      {
        "lat": 34.84594,
        "lng": 128.216248
      },
      {
        "lat": 34.846512,
        "lng": 128.214264
      }
    ],
    "color": "#50c437",
    "start_name": "갈림길",
    "length_meter": 191.9,
    "time_minute": 3
  },
  {
    "path_id": 3,
    "path": [
      {
        "lat": 34.846512,
        "lng": 128.214264
      },
      {
        "lat": 34.846741,
        "lng": 128.212692
      }
    ],
    "color": "#4ca4a8",
    "start_name": "고동산 & 사량대교 / 사량도 하도",
    "length_meter": 146.4,
    "time_minute": 2
  },
  {
    "path_id": 4,
    "path": [
      {
        "lat": 34.846741,
        "lng": 128.212692
      },
      {
        "lat": 34.846733,
        "lng": 128.211929
      }
    ],
    "color": "#34d8dc",
    "start_name": "사량대교 & 사량도 하도 / 옥녀봉",
    "length_meter": 70.8,
    "time_minute": 1
  },
  {
    "path_id": 5,
    "path": [
      {
        "lat": 34.846733,
        "lng": 128.211929
      },
      {
        "lat": 34.846973,
        "lng": 128.211105
      }
    ],
    "color": "#07cab3",
    "start_name": "쉼터 / 갈림길 / 갈림길",
    "length_meter": 85.0,
    "time_minute": 1
  },
  {
    "path_id": 6,
    "path": [
      {
        "lat": 34.846973,
        "lng": 128.211105
      },
      {
        "lat": 34.846989,
        "lng": 128.209244
      }
    ],
    "color": "#cbe02f",
    "start_name": "두미도 / 가마봉",
    "length_meter": 170.3,
    "time_minute": 2
  },
  {
    "path_id": 7,
    "path": [
      {
        "lat": 34.846989,
        "lng": 128.209244
      },
      {
        "lat": 34.847424,
        "lng": 128.208069
      }
    ],
    "color": "#018a81",
    "start_name": "조망점 / 조망점",
    "length_meter": 118.9,
    "time_minute": 1
  },
  {
    "path_id": 8,
    "path": [
      {
        "lat": 34.847424,
        "lng": 128.208069
      },
      {
        "lat": 34.84721,
        "lng": 128.206421
      }
    ],
    "color": "#6affed",
    "start_name": "출렁다리 / 출렁다리 / 출렁다리 2",
    "length_meter": 154.5,
    "time_minute": 2
  },
  {
    "path_id": 9,
    "path": [
      {
        "lat": 34.84721,
        "lng": 128.206421
      },
      {
        "lat": 34.847317,
        "lng": 128.205704
      }
    ],
    "color": "#b1f699",
    "start_name": "가마봉",
    "length_meter": 66.5,
    "time_minute": 1
  },
  {
    "path_id": 10,
    "path": [
      {
        "lat": 34.847317,
        "lng": 128.205704
      },
      {
        "lat": 34.847504,
        "lng": 128.205032
      }
    ],
    "color": "#5d43e3",
    "start_name": "갈림길 / 조망점",
    "length_meter": 65.3,
    "time_minute": 1
  },
  {
    "path_id": 11,
    "path": [
      {
        "lat": 34.847504,
        "lng": 128.205032
      },
      {
        "lat": 34.84898,
        "lng": 128.200928
      }
    ],
    "color": "#38685a",
    "start_name": "가마봉 정상 / 불모산",
    "length_meter": 410.0,
    "time_minute": 6
  },
  {
    "path_id": 12,
    "path": [
      {
        "lat": 34.84898,
        "lng": 128.200928
      },
      {
        "lat": 34.849579,
        "lng": 128.200058
      }
    ],
    "color": "#bb4337",
    "start_name": "갈림길",
    "length_meter": 103.6,
    "time_minute": 1
  },
  {
    "path_id": 13,
    "path": [
      {
        "lat": 34.849579,
        "lng": 128.200058
      },
      {
        "lat": 34.850349,
        "lng": 128.200165
      }
    ],
    "color": "#eb2b8f",
    "start_name": "쉼터 / 갈림길",
    "length_meter": 94.5,
    "time_minute": 1
  },
  {
    "path_id": 14,
    "path": [
      {
        "lat": 34.850349,
        "lng": 128.200165
      },
      {
        "lat": 34.851212,
        "lng": 128.198105
      }
    ],
    "color": "#e0d450",
    "start_name": "조망점",
    "length_meter": 211.1,
    "time_minute": 3
  },
  {
    "path_id": 15,
    "path": [
      {
        "lat": 34.851212,
        "lng": 128.198105
      },
      {
        "lat": 34.850994,
        "lng": 128.197205
      }
    ],
    "color": "#1d3a76",
    "start_name": "불모산",
    "length_meter": 85.6,
    "time_minute": 1
  },
  {
    "path_id": 16,
    "path": [
      {
        "lat": 34.850994,
        "lng": 128.197205
      },
      {
        "lat": 34.849106,
        "lng": 128.191254
      }
    ],
    "color": "#8a0c21",
    "start_name": "갈림길",
    "length_meter": 582.2,
    "time_minute": 9
  },
  {
    "path_id": 17,
    "path": [
      {
        "lat": 34.849106,
        "lng": 128.191254
      },
      {
        "lat": 34.847961,
        "lng": 128.189774
      }
    ],
    "color": "#89f982",
    "start_name": "갈림길",
    "length_meter": 185.6,
    "time_minute": 3
  },
  {
    "path_id": 18,
    "path": [
      {
        "lat": 34.847961,
        "lng": 128.189774
      },
      {
        "lat": 34.845936,
        "lng": 128.18808
      }
    ],
    "color": "#dca555",
    "start_name": "조망점 / 사량도",
    "length_meter": 273.1,
    "time_minute": 4
  },
  {
    "path_id": 19,
    "path": [
      {
        "lat": 34.845936,
        "lng": 128.18808
      },
      {
        "lat": 34.84589,
        "lng": 128.182281
      }
    ],
    "color": "#c1e6f0",
    "start_name": "조망점 / 남해",
    "length_meter": 529.8,
    "time_minute": 8
  },
  {
    "path_id": 20,
    "path": [
      {
        "lat": 34.84589,
        "lng": 128.182281
      },
      {
        "lat": 34.846317,
        "lng": 128.17923
      }
    ],
    "color": "#ac620b",
    "start_name": "지리산 정상",
    "length_meter": 282.4,
    "time_minute": 4
  },
  {
    "path_id": 21,
    "path": [
      {
        "lat": 34.846317,
        "lng": 128.17923
      },
      {
        "lat": 34.846291,
        "lng": 128.175949
      }
    ],
    "color": "#7e8a97",
    "start_name": "내지선착장",
    "length_meter": 299.4,
    "time_minute": 4
  },
  {
    "path_id": 22,
    "path": [
      {
        "lat": 34.846291,
        "lng": 128.175949
      },
      {
        "lat": 34.853401,
        "lng": 128.174484
      }
    ],
    "color": "#f3fb58",
    "start_name": "갈림길",
    "length_meter": 801.8,
    "time_minute": 13
  },
  {
    "path_id": 23,
    "path": [
      {
        "lat": 34.853401,
        "lng": 128.174484
      },
      {
        "lat": 34.853977,
        "lng": 128.174789
      }
    ],
    "color": "#6671fe",
    "start_name": "갈림길",
    "length_meter": 69.8,
    "time_minute": 1
  },
  {
    "path_id": 24,
    "path": [
      {
        "lat": 34.853977,
        "lng": 128.174789
      },
      {
        "lat": 34.855335,
        "lng": 128.179657
      }
    ],
    "color": "#41350a",
    "start_name": "(날머리) 내지마을",
    "length_meter": 469.2,
    "time_minute": 7
  },
  {
    "path_id": 25,
    "path": [
      {
        "lat": 34.855335,
        "lng": 128.179657
      },
      {
        "lat": 34.855602,
        "lng": 128.180298
      }
    ],
    "color": "#79bbcb",
    "start_name": "화장실 / 쉼터",
    "length_meter": 72.2,
    "time_minute": 1
  },
  {
    "path_id": 26,
    "path": [
      {
        "lat": 34.855602,
        "lng": 128.180298
      },
      {
        "lat": 34.85535,
        "lng": 128.180176
      }
    ],
    "color": "#86d964",
    "start_name": "사량도~고성 용암포 / 내지마을 / 사량도 지리산 등산안내도 / 사량도 콜택시",
    "length_meter": 54.5,
    "time_minute": 0
  }
]