[
  {
    "path_id": 0,
    "path": [
      {
        "lat": 34.845146,
        "lng": 128.220139
      },
      {
        "lat": 34.844978,
        "lng": 128.218674
      }
    ],
    "color": "#65ad57",
    "start_name": "사량면사무소 / 화장실",
    "length_meter": 136.8,
    "time_minute": 2
  },
  {
    "path_id": 1,
    "path": [
      {
        "lat": 34.844978,
        "lng": 128.218674
      },
      {
        "lat": 34.84594,
        "lng": 128.216248
      }
    ],
    "color": "#2ca81d",
    "start_name": "(들머리) 미정식당",
    "length_meter": 245.9,
    "time_minute": 4
  },
  {
    "path_id": 2,
    "path": [
      {
        "lat": 34.84594,
        "lng": 128.216248
      },
      {
        "lat": 34.846512,
        "lng": 128.214264
      }
    ],
    "color": "#226813",
    "start_name": "갈림길",
    "length_meter": 191.9,
    "time_minute": 3
  },
  {
    "path_id": 3,
    "path": [
      {
        "lat": 34.846512,
        "lng": 128.214264
      },
      {
        "lat": 34.846741,
        "lng": 128.212692
      }
    ],
    "color": "#3e0335",
    "start_name": "고동산 & 사량대교 / 사량도 하도",
    "length_meter": 146.4,
    "time_minute": 2
  },
  {
    "path_id": 4,
    "path": [
      {
        "lat": 34.846741,
        "lng": 128.212692
      },
      {
        "lat": 34.84679,
        "lng": 128.212189
      }
    ],
    "color": "#7c79c2",
    "start_name": "사량대교 & 사량도 하도",
    "length_meter": 46.2,
    "time_minute": 0
  },
  {
    "path_id": 5,
    "path": [
      {
        "lat": 34.84679,
        "lng": 128.212189
      },
      {
        "lat": 34.846973,
        "lng": 128.211105
      }
    ],
    "color": "#31ab0e",
    "start_name": "옥녀봉 / 갈림길",
    "length_meter": 105.1,
    "time_minute": 1
  },
  {
    "path_id": 6,
    "path": [
      {
        "lat": 34.846973,
        "lng": 128.211105
      },
      {
        "lat": 34.847424,
        "lng": 128.208069
      }
    ],
    "color": "#2cc4a9",
    "start_name": "두미도 / 가마봉",
    "length_meter": 281.6,
    "time_minute": 4
  },
  {
    "path_id": 7,
    "path": [
      {
        "lat": 34.847424,
        "lng": 128.208069
      },
      {
        "lat": 34.84721,
        "lng": 128.206421
      }
    ],
    "color": "#1749b1",
    "start_name": "출렁다리 / 출렁다리 2",
    "length_meter": 152.3,
    "time_minute": 2
  },
  {
    "path_id": 8,
    "path": [
      {
        "lat": 34.84721,
        "lng": 128.206421
      },
      {
        "lat": 34.847317,
        "lng": 128.205704
      }
    ],
    "color": "#8261bb",
    "start_name": "가마봉",
    "length_meter": 66.5,
    "time_minute": 1
  },
  {
    "path_id": 9,
    "path": [
      {
        "lat": 34.847317,
        "lng": 128.205704
      },
      {
        "lat": 34.847504,
        "lng": 128.205032
      }
    ],
    "color": "#0a4537",
    "start_name": "갈림길",
    "length_meter": 64.8,
    "time_minute": 1
  },
  {
    "path_id": 10,
    "path": [
      {
        "lat": 34.847504,
        "lng": 128.205032
      },
      {
        "lat": 34.847603,
        "lng": 128.20491
      }
    ],
    "color": "#ad6ebb",
    "start_name": "가마봉 정상",
    "length_meter": 15.7,
    "time_minute": 0
  },
  {
    "path_id": 11,
    "path": [
      {
        "lat": 34.847603,
        "lng": 128.20491
      },
      {
        "lat": 34.84898,
        "lng": 128.200928
      }
    ],
    "color": "#89978d",
    "start_name": "불모산",
    "length_meter": 394.3,
    "time_minute": 6
  },
  {
    "path_id": 12,
    "path": [
      {
        "lat": 34.84898,
        "lng": 128.200928
      },
      {
        "lat": 34.851212,
        "lng": 128.198105
      }
    ],
    "color": "#85b959",
    "start_name": "갈림길",
    "length_meter": 357.7,
    "time_minute": 5
  },
  {
    "path_id": 13,
    "path": [
      {
        "lat": 34.851212,
        "lng": 128.198105
      },
      {
        "lat": 34.850994,
        "lng": 128.197205
      }
    ],
    "color": "#425610",
    "start_name": "불모산",
    "length_meter": 85.6,
    "time_minute": 1
  },
  {
    "path_id": 14,
    "path": [
      {
        "lat": 34.850994,
        "lng": 128.197205
      },
      {
        "lat": 34.847961,
        "lng": 128.189774
      }
    ],
    "color": "#827b72",
    "start_name": "갈림길",
    "length_meter": 757.3,
    "time_minute": 12
  },
  {
    "path_id": 15,
    "path": [
      {
        "lat": 34.847961,
        "lng": 128.189774
      },
      {
        "lat": 34.845924,
        "lng": 128.188065
      }
    ],
    "color": "#b080c4",
    "start_name": "사량도",
    "length_meter": 275.0,
    "time_minute": 4
  },
  {
    "path_id": 16,
    "path": [
      {
        "lat": 34.845924,
        "lng": 128.188065
      },
      {
        "lat": 34.84589,
        "lng": 128.182281
      }
    ],
    "color": "#7604b4",
    "start_name": "남해",
    "length_meter": 527.8,
    "time_minute": 8
  },
  {
    "path_id": 17,
    "path": [
      {
        "lat": 34.84589,
        "lng": 128.182281
      },
      {
        "lat": 34.846317,
        "lng": 128.17923
      }
    ],
    "color": "#4f8522",
    "start_name": "지리산 정상",
    "length_meter": 282.4,
    "time_minute": 4
  },
  {
    "path_id": 18,
    "path": [
      {
        "lat": 34.846317,
        "lng": 128.17923
      },
      {
        "lat": 34.846291,
        "lng": 128.175949
      }
    ],
    "color": "#3ea41c",
    "start_name": "내지선착장",
    "length_meter": 299.4,
    "time_minute": 4
  },
  {
    "path_id": 19,
    "path": [
      {
        "lat": 34.846291,
        "lng": 128.175949
      },
      {
        "lat": 34.853977,
        "lng": 128.174789
      }
    ],
    "color": "#5f996f",
    "start_name": "갈림길",
    "length_meter": 861.2,
    "time_minute": 14
  },
  {
    "path_id": 20,
    "path": [
      {
        "lat": 34.853977,
        "lng": 128.174789
      },
      {
        "lat": 34.855335,
        "lng": 128.179657
      }
    ],
    "color": "#996015",
    "start_name": "(날머리) 내지마을",
    "length_meter": 469.2,
    "time_minute": 7
  },
  {
    "path_id": 21,
    "path": [
      {
        "lat": 34.855335,
        "lng": 128.179657
      },
      {
        "lat": 34.855602,
        "lng": 128.180298
      }
    ],
    "color": "#30a5a2",
    "start_name": "화장실",
    "length_meter": 65.6,
    "time_minute": 1
  },
  {
    "path_id": 22,
    "path": [
      {
        "lat": 34.855602,
        "lng": 128.180298
      },
      {
        "lat": 34.85535,
        "lng": 128.180176
      }
    ],
    "color": "#77238d",
    "start_name": "사량도~고성 용암포 / 내지마을 / 사량도 지리산 등산안내도 / 사량도 콜택시",
    "length_meter": 54.5,
    "time_minute": 0
  }
]