[
  {
    "path_id": 0,
    "path": [
      {
        "lat": 36.780079,
        "lng": 128.927841
      },
      {
        "lat": 36.777374,
        "lng": 128.927246
      }
    ],
    "color": "#cdffe7",
    "start_name": "산성입구 / 산성입구 화장실 / 들머리 산성입구 / 산성입구 쉼터",
    "length_meter": 336.5,
    "time_minute": 5
  },
  {
    "path_id": 1,
    "path": [
      {
        "lat": 36.777374,
        "lng": 128.927246
      },
      {
        "lat": 36.777885,
        "lng": 128.924225
      }
    ],
    "color": "#67f753",
    "start_name": "갈림길",
    "length_meter": 275.0,
    "time_minute": 4
  },
  {
    "path_id": 2,
    "path": [
      {
        "lat": 36.777885,
        "lng": 128.924225
      },
      {
        "lat": 36.778534,
        "lng": 128.925018
      }
    ],
    "color": "#0f5369",
    "start_name": "갈림길",
    "length_meter": 101.0,
    "time_minute": 1
  },
  {
    "path_id": 3,
    "path": [
      {
        "lat": 36.778534,
        "lng": 128.925018
      },
      {
        "lat": 36.777328,
        "lng": 128.91983
      }
    ],
    "color": "#5b91dc",
    "start_name": "밀성대 조망",
    "length_meter": 481.1,
    "time_minute": 8
  },
  {
    "path_id": 4,
    "path": [
      {
        "lat": 36.777328,
        "lng": 128.91983
      },
      {
        "lat": 36.77618,
        "lng": 128.917709
      }
    ],
    "color": "#5f5d96",
    "start_name": "청량사,응전전 조망",
    "length_meter": 228.0,
    "time_minute": 3
  },
  {
    "path_id": 5,
    "path": [
      {
        "lat": 36.77618,
        "lng": 128.917709
      },
      {
        "lat": 36.774254,
        "lng": 128.914886
      }
    ],
    "color": "#308347",
    "start_name": "북문지 전망대 / 위치정보",
    "length_meter": 330.5,
    "time_minute": 5
  },
  {
    "path_id": 6,
    "path": [
      {
        "lat": 36.774254,
        "lng": 128.914886
      },
      {
        "lat": 36.77433,
        "lng": 128.912964
      }
    ],
    "color": "#1738a0",
    "start_name": "갈림길 / 위치정보",
    "length_meter": 172.6,
    "time_minute": 2
  },
  {
    "path_id": 7,
    "path": [
      {
        "lat": 36.77433,
        "lng": 128.912964
      },
      {
        "lat": 36.77388,
        "lng": 128.913361
      }
    ],
    "color": "#383511",
    "start_name": "축융봉 해발 845.2m / 갈림길",
    "length_meter": 77.1,
    "time_minute": 1
  },
  {
    "path_id": 8,
    "path": [
      {
        "lat": 36.77388,
        "lng": 128.913361
      },
      {
        "lat": 36.774101,
        "lng": 128.920044
      }
    ],
    "color": "#e9cb94",
    "start_name": "갈림길",
    "length_meter": 595.7,
    "time_minute": 9
  },
  {
    "path_id": 9,
    "path": [
      {
        "lat": 36.774101,
        "lng": 128.920044
      },
      {
        "lat": 36.77618,
        "lng": 128.924393
      }
    ],
    "color": "#1ad26d",
    "start_name": "갈림길",
    "length_meter": 451.1,
    "time_minute": 7
  },
  {
    "path_id": 10,
    "path": [
      {
        "lat": 36.77618,
        "lng": 128.924393
      },
      {
        "lat": 36.779991,
        "lng": 128.927597
      }
    ],
    "color": "#8ac2b3",
    "start_name": "위치정보",
    "length_meter": 510.9,
    "time_minute": 8
  },
  {
    "path_id": 11,
    "path": [
      {
        "lat": 36.779991,
        "lng": 128.927597
      },
      {
        "lat": 36.781143,
        "lng": 128.924622
      }
    ],
    "color": "#92a11b",
    "start_name": "날머리 산성입구",
    "length_meter": 294.3,
    "time_minute": 4
  },
  {
    "path_id": 12,
    "path": [
      {
        "lat": 36.781143,
        "lng": 128.924622
      },
      {
        "lat": 36.781727,
        "lng": 128.920486
      }
    ],
    "color": "#1f2890",
    "start_name": "갈림길",
    "length_meter": 374.0,
    "time_minute": 6
  },
  {
    "path_id": 13,
    "path": [
      {
        "lat": 36.781727,
        "lng": 128.920486
      },
      {
        "lat": 36.781391,
        "lng": 128.924393
      }
    ],
    "color": "#9ce266",
    "start_name": "금탕봉,연화봉",
    "length_meter": 350.0,
    "time_minute": 5
  },
  {
    "path_id": 14,
    "path": [
      {
        "lat": 36.781391,
        "lng": 128.924393
      },
      {
        "lat": 36.780197,
        "lng": 128.927643
      }
    ],
    "color": "#870f00",
    "start_name": "입석쉼터",
    "length_meter": 318.4,
    "time_minute": 5
  }
]