[
  {
    "path_id": 0,
    "path": [
      {
        "lat": 36.780079,
        "lng": 128.927841
      },
      {
        "lat": 36.780125,
        "lng": 128.927872
      }
    ],
    "color": "#0c8871",
    "start_point_name": "산성입구",
    "length": 5,
    "time": "0"
  },
  {
    "path_id": 1,
    "path": [
      {
        "lat": 36.780125,
        "lng": 128.927872
      },
      {
        "lat": 36.780121,
        "lng": 128.927917
      }
    ],
    "color": "#55f000",
    "start_point_name": "산성입구 화장실",
    "length": 4,
    "time": "0"
  },
  {
    "path_id": 2,
    "path": [
      {
        "lat": 36.780121,
        "lng": 128.927917
      },
      {
        "lat": 36.780067,
        "lng": 128.927643
      }
    ],
    "color": "#d59041",
    "start_point_name": "들머리 산성입구",
    "length": 25,
    "time": "0"
  },
  {
    "path_id": 3,
    "path": [
      {
        "lat": 36.780067,
        "lng": 128.927643
      },
      {
        "lat": 36.777374,
        "lng": 128.927246
      }
    ],
    "color": "#e4369c",
    "start_point_name": "산성입구 쉼터",
    "length": 301,
    "time": "5"
  },
  {
    "path_id": 4,
    "path": [
      {
        "lat": 36.777374,
        "lng": 128.927246
      },
      {
        "lat": 36.777885,
        "lng": 128.924225
      }
    ],
    "color": "#e04fa1",
    "start_point_name": "갈림길",
    "length": 274,
    "time": "4"
  },
  {
    "path_id": 5,
    "path": [
      {
        "lat": 36.777885,
        "lng": 128.924225
      },
      {
        "lat": 36.778534,
        "lng": 128.925018
      }
    ],
    "color": "#00d728",
    "start_point_name": "갈림길",
    "length": 100,
    "time": "1"
  },
  {
    "path_id": 6,
    "path": [
      {
        "lat": 36.778534,
        "lng": 128.925018
      },
      {
        "lat": 36.777328,
        "lng": 128.91983
      }
    ],
    "color": "#4ecad3",
    "start_point_name": "밀성대 조망",
    "length": 481,
    "time": "8"
  },
  {
    "path_id": 7,
    "path": [
      {
        "lat": 36.777328,
        "lng": 128.91983
      },
      {
        "lat": 36.77618,
        "lng": 128.917709
      }
    ],
    "color": "#5a8c2e",
    "start_point_name": "청량사,응전전 조망",
    "length": 227,
    "time": "3"
  },
  {
    "path_id": 8,
    "path": [
      {
        "lat": 36.77618,
        "lng": 128.917709
      },
      {
        "lat": 36.776089,
        "lng": 128.917618
      }
    ],
    "color": "#7d4556",
    "start_point_name": "북문지 전망대",
    "length": 12,
    "time": "0"
  },
  {
    "path_id": 9,
    "path": [
      {
        "lat": 36.776089,
        "lng": 128.917618
      },
      {
        "lat": 36.774254,
        "lng": 128.914886
      }
    ],
    "color": "#0cf49a",
    "start_point_name": "위치정보",
    "length": 317,
    "time": "5"
  },
  {
    "path_id": 10,
    "path": [
      {
        "lat": 36.774254,
        "lng": 128.914886
      },
      {
        "lat": 36.774227,
        "lng": 128.914841
      }
    ],
    "color": "#3f53cf",
    "start_point_name": "갈림길",
    "length": 5,
    "time": "0"
  },
  {
    "path_id": 11,
    "path": [
      {
        "lat": 36.774227,
        "lng": 128.914841
      },
      {
        "lat": 36.77433,
        "lng": 128.912964
      }
    ],
    "color": "#feda7e",
    "start_point_name": "위치정보",
    "length": 167,
    "time": "2"
  },
  {
    "path_id": 12,
    "path": [
      {
        "lat": 36.77433,
        "lng": 128.912964
      },
      {
        "lat": 36.774128,
        "lng": 128.912857
      }
    ],
    "color": "#aeca67",
    "start_point_name": "축융봉 해발 845.2m",
    "length": 24,
    "time": "0"
  },
  {
    "path_id": 13,
    "path": [
      {
        "lat": 36.774128,
        "lng": 128.912857
      },
      {
        "lat": 36.77388,
        "lng": 128.913361
      }
    ],
    "color": "#b099ce",
    "start_point_name": "갈림길",
    "length": 52,
    "time": "0"
  },
  {
    "path_id": 14,
    "path": [
      {
        "lat": 36.77388,
        "lng": 128.913361
      },
      {
        "lat": 36.774101,
        "lng": 128.920044
      }
    ],
    "color": "#be2dcb",
    "start_point_name": "갈림길",
    "length": 595,
    "time": "9"
  },
  {
    "path_id": 15,
    "path": [
      {
        "lat": 36.774101,
        "lng": 128.920044
      },
      {
        "lat": 36.77618,
        "lng": 128.924393
      }
    ],
    "color": "#1fbab3",
    "start_point_name": "갈림길",
    "length": 451,
    "time": "7"
  },
  {
    "path_id": 16,
    "path": [
      {
        "lat": 36.77618,
        "lng": 128.924393
      },
      {
        "lat": 36.779991,
        "lng": 128.927597
      }
    ],
    "color": "#d03fe5",
    "start_point_name": "위치정보",
    "length": 510,
    "time": "8"
  },
  {
    "path_id": 17,
    "path": [
      {
        "lat": 36.779991,
        "lng": 128.927597
      },
      {
        "lat": 36.781143,
        "lng": 128.924622
      }
    ],
    "color": "#7313b2",
    "start_point_name": "날머리 산성입구",
    "length": 294,
    "time": "4"
  },
  {
    "path_id": 18,
    "path": [
      {
        "lat": 36.781143,
        "lng": 128.924622
      },
      {
        "lat": 36.781727,
        "lng": 128.920486
      }
    ],
    "color": "#a2df2b",
    "start_point_name": "갈림길",
    "length": 374,
    "time": "6"
  },
  {
    "path_id": 19,
    "path": [
      {
        "lat": 36.781727,
        "lng": 128.920486
      },
      {
        "lat": 36.781391,
        "lng": 128.924393
      }
    ],
    "color": "#0e90c6",
    "start_point_name": "금탕봉,연화봉",
    "length": 349,
    "time": "5"
  },
  {
    "path_id": 20,
    "path": [
      {
        "lat": 36.781391,
        "lng": 128.924393
      },
      {
        "lat": 36.780197,
        "lng": 128.927643
      }
    ],
    "color": "#cb6f1f",
    "start_point_name": "입석쉼터",
    "length": 318,
    "time": "5"
  }
]