{
    "max_ele": 1080.079,
    "track": [
        {
            "path_id": 1,
            "name": "대견사 - 천왕봉 사이",
            "lat": 35.711494,
            "lon": 128.528824,
            "ele": 1080.079
        },
        {
            "path_id": 3,
            "name": "갈림길",
            "lat": 35.710075,
            "lon": 128.529953,
            "ele": 1039.085
        },
        {
            "path_id": 4,
            "name": "대견사 - 천왕봉 사이",
            "lat": 35.709129,
            "lon": 128.529877,
            "ele": 1027.301
        },
        {
            "path_id": 5,
            "name": "갈림길",
            "lat": 35.708691,
            "lon": 128.530014,
            "ele": 1007.567
        },
        {
            "path_id": 6,
            "name": "대견사 - 천왕봉 사이",
            "lat": 35.706913,
            "lon": 128.531281,
            "ele": 964.001
        },
        {
            "path_id": 13,
            "name": "갈림길",
            "lat": 35.699013,
            "lon": 128.526367,
            "ele": 1050.496
        },
        {
            "path_id": 15,
            "name": "유가사 방향 쉼터",
            "lat": 35.708511,
            "lon": 128.518661,
            "ele": 710.57
        },
        {
            "path_id": 16,
            "name": "유가사 방향",
            "lat": 35.709641,
            "lon": 128.515671,
            "ele": 638.516
        },
        {
            "path_id": 17,
            "name": "갈림길",
            "lat": 35.709755,
            "lon": 128.515564,
            "ele": 635.65
        },
        {
            "path_id": 18,
            "name": "유가사 방향 쉼터",
            "lat": 35.709755,
            "lon": 128.514816,
            "ele": 631.074
        },
        {
            "path_id": 24,
            "name": "유가사 사찰",
            "lat": 35.712589,
            "lon": 128.507309,
            "ele": 486.567
        },
        {
            "path_id": 25,
            "name": "유가사 화장실",
            "lat": 35.712521,
            "lon": 128.506622,
            "ele": 475.821
        },
        {
            "path_id": 26,
            "name": "문화관광 안내소",
            "lat": 35.712357,
            "lon": 128.50589,
            "ele": 471.153
        },
        {
            "path_id": 27,
            "name": "유가사 계곡",
            "lat": 35.712326,
            "lon": 128.505234,
            "ele": 464.242
        }
    ]
}