[
  {
    "path_id": 0,
    "path": [
      {
        "lat": 38.067619,
        "lng": 127.325066
      },
      {
        "lat": 38.068504,
        "lng": 127.325447
      }
    ],
    "color": "#015eac",
    "start_name": "산정호수화장실 / 산정호수식당 / 산정호수매점 / 안내소 / 상동주차장",
    "length_meter": 115.0,
    "time_minute": 1
  },
  {
    "path_id": 1,
    "path": [
      {
        "lat": 38.068504,
        "lng": 127.325447
      },
      {
        "lat": 38.067596,
        "lng": 127.328758
      }
    ],
    "color": "#bea9c3",
    "start_name": "명성산입구",
    "length_meter": 306.9,
    "time_minute": 5
  },
  {
    "path_id": 2,
    "path": [
      {
        "lat": 38.067596,
        "lng": 127.328758
      },
      {
        "lat": 38.074516,
        "lng": 127.340317
      }
    ],
    "color": "#2e0180",
    "start_name": "갈림길",
    "length_meter": 1271.2,
    "time_minute": 21
  },
  {
    "path_id": 3,
    "path": [
      {
        "lat": 38.074516,
        "lng": 127.340317
      },
      {
        "lat": 38.080406,
        "lng": 127.341095
      }
    ],
    "color": "#6f42ab",
    "start_name": "등룡폭포 / 등룡폭포쉼터",
    "length_meter": 667.8,
    "time_minute": 11
  },
  {
    "path_id": 4,
    "path": [
      {
        "lat": 38.080406,
        "lng": 127.341095
      },
      {
        "lat": 38.080036,
        "lng": 127.340523
      }
    ],
    "color": "#286dce",
    "start_name": "갈림길 / 억새바람길",
    "length_meter": 65.3,
    "time_minute": 1
  },
  {
    "path_id": 5,
    "path": [
      {
        "lat": 38.080036,
        "lng": 127.340523
      },
      {
        "lat": 38.07991,
        "lng": 127.339485
      }
    ],
    "color": "#0c35a4",
    "start_name": "억새길포토존 / 명성산억새길경관",
    "length_meter": 91.9,
    "time_minute": 1
  },
  {
    "path_id": 6,
    "path": [
      {
        "lat": 38.07991,
        "lng": 127.339485
      },
      {
        "lat": 38.081181,
        "lng": 127.336884
      }
    ],
    "color": "#25c290",
    "start_name": "갈림길",
    "length_meter": 268.0,
    "time_minute": 4
  },
  {
    "path_id": 7,
    "path": [
      {
        "lat": 38.081181,
        "lng": 127.336884
      },
      {
        "lat": 38.081516,
        "lng": 127.336212
      }
    ],
    "color": "#0abe65",
    "start_name": "팔각정",
    "length_meter": 69.6,
    "time_minute": 1
  },
  {
    "path_id": 8,
    "path": [
      {
        "lat": 38.081516,
        "lng": 127.336212
      },
      {
        "lat": 38.09166,
        "lng": 127.338776
      }
    ],
    "color": "#2e2ef0",
    "start_name": "명성산 / 우체통",
    "length_meter": 1151.6,
    "time_minute": 19
  },
  {
    "path_id": 9,
    "path": [
      {
        "lat": 38.09166,
        "lng": 127.338776
      },
      {
        "lat": 38.080379,
        "lng": 127.33577
      }
    ],
    "color": "#b2cdfc",
    "start_name": "삼각봉",
    "length_meter": 1281.7,
    "time_minute": 21
  },
  {
    "path_id": 10,
    "path": [
      {
        "lat": 38.080379,
        "lng": 127.33577
      },
      {
        "lat": 38.078056,
        "lng": 127.333939
      }
    ],
    "color": "#b99e13",
    "start_name": "쉬는곳",
    "length_meter": 304.0,
    "time_minute": 5
  },
  {
    "path_id": 11,
    "path": [
      {
        "lat": 38.078056,
        "lng": 127.333939
      },
      {
        "lat": 38.073051,
        "lng": 127.333488
      }
    ],
    "color": "#8f7781",
    "start_name": "갈림길",
    "length_meter": 557.9,
    "time_minute": 9
  }
]