[
    {
        "path_id": 1,
        "name": "극락전주차장",
        "lat": 36.116108,
        "lon": 128.001495
    },
    {
        "path_id": 2,
        "name": "입산통제소",
        "lat": 36.115856,
        "lon": 128.001068
    },
    {
        "path_id": 3,
        "name": "황악산이정표",
        "lat": 36.11512,
        "lon": 128.000046
    },
    {
        "path_id": 4,
        "name": "망월봉",
        "lat": 36.110046,
        "lon": 127.992935
    },
    {
        "path_id": 5,
        "name": "망월봉쉼터",
        "lat": 36.110054,
        "lon": 127.992912
    },
    {
        "path_id": 6,
        "name": "갈림길",
        "lat": 36.109711,
        "lon": 127.992714
    },
    {
        "path_id": 7,
        "name": "국가지점번호",
        "lat": 36.109028,
        "lon": 127.99128
    },
    {
        "path_id": 8,
        "name": "갈림길",
        "lat": 36.109039,
        "lon": 127.991302
    },
    {
        "path_id": 12,
        "name": "신선봉",
        "lat": 36.103855,
        "lon": 127.980324
    },
    {
        "path_id": 13,
        "name": "이정표",
        "lat": 36.103863,
        "lon": 127.980309
    },
    {
        "path_id": 14,
        "name": "갈림길",
        "lat": 36.103863,
        "lon": 127.980301
    },
    {
        "path_id": 15,
        "name": "국가지점번호",
        "lat": 36.104332,
        "lon": 127.977654
    },
    {
        "path_id": 19,
        "name": "갈림길",
        "lat": 36.105808,
        "lon": 127.972198
    },
    {
        "path_id": 20,
        "name": "국가지점번호",
        "lat": 36.105812,
        "lon": 127.972191
    },
    {
        "path_id": 21,
        "name": "내원계곡과 등산로합류점",
        "lat": 36.109535,
        "lon": 127.974953
    },
    {
        "path_id": 22,
        "name": "내원계곡폭포",
        "lat": 36.111649,
        "lon": 127.980774
    },
    {
        "path_id": 24,
        "name": "명적암주차장",
        "lat": 36.116138,
        "lon": 127.99482
    },
    {
        "path_id": 25,
        "name": "갈림길",
        "lat": 36.116978,
        "lon": 127.996277
    },
    {
        "path_id": 26,
        "name": "입산통제소",
        "lat": 36.117805,
        "lon": 127.999779
    },
    {
        "path_id": 27,
        "name": "백두대간안내지도판및황악산등산안내판",
        "lat": 36.117737,
        "lon": 127.99984
    }
]