[
    {
        "path_id": 1,
        "name": "갈림길",
        "lat": 36.357903,
        "lon": 127.236877
    },
    {
        "path_id": 2,
        "name": "순 마트",
        "lat": 36.358437,
        "lon": 127.236053
    },
    {
        "path_id": 3,
        "name": "천정탐방로 입구",
        "lat": 36.358551,
        "lon": 127.236076
    },
    {
        "path_id": 4,
        "name": "천정탐방지원센터",
        "lat": 36.358692,
        "lon": 127.235596
    },
    {
        "path_id": 5,
        "name": "천정탐방지원센터  입구",
        "lat": 36.358624,
        "lon": 127.235527
    },
    {
        "path_id": 6,
        "name": "천정탐방지원센터",
        "lat": 36.358692,
        "lon": 127.234749
    },
    {
        "path_id": 7,
        "name": "천정탐방지원센터  코스",
        "lat": 36.3587,
        "lon": 127.233795
    },
    {
        "path_id": 8,
        "name": "천정탐방지원센터  계곡",
        "lat": 36.358727,
        "lon": 127.233582
    },
    {
        "path_id": 9,
        "name": "낙석주의",
        "lat": 36.360504,
        "lon": 127.231834
    },
    {
        "path_id": 10,
        "name": "낙석주의",
        "lat": 36.361034,
        "lon": 127.231972
    },
    {
        "path_id": 11,
        "name": "갈림길",
        "lat": 36.361336,
        "lon": 127.23188
    },
    {
        "path_id": 12,
        "name": "등산로",
        "lat": 36.36311,
        "lon": 127.2314
    },
    {
        "path_id": 13,
        "name": "등산로",
        "lat": 36.363602,
        "lon": 127.230942
    }
]