{
  "max_ele": 787.913,
  "total_length_km": "3.7km",
  "total_time": "0시간 46분",
  "track": [
    {
      "path_id": 0,
      "path": [
        {
          "lat": 37.983452,
          "lng": 127.818153
        },
        {
          "lat": 37.982937,
          "lng": 127.816826
        }
      ],
      "color": "#9fb60c",
      "start_name": "부용계곡 등산 들머리",
      "length_meter": 129.6,
      "time_minute": 1
    },
    {
      "path_id": 1,
      "path": [
        {
          "lat": 37.982937,
          "lng": 127.816826
        },
        {
          "lat": 37.982815,
          "lng": 127.814827
        }
      ],
      "color": "#a59294",
      "start_name": "쉼터",
      "length_meter": 175.7,
      "time_minute": 2
    },
    {
      "path_id": 2,
      "path": [
        {
          "lat": 37.982815,
          "lng": 127.814827
        },
        {
          "lat": 37.986347,
          "lng": 127.813515
        }
      ],
      "color": "#501c98",
      "start_name": "갈림길 / 소양강호",
      "length_meter": 412.3,
      "time_minute": 6
    },
    {
      "path_id": 3,
      "path": [
        {
          "lat": 37.986347,
          "lng": 127.813515
        },
        {
          "lat": 37.989635,
          "lng": 127.811897
        }
      ],
      "color": "#aa106e",
      "start_name": "굴 / 갈림길",
      "length_meter": 397.8,
      "time_minute": 6
    },
    {
      "path_id": 4,
      "path": [
        {
          "lat": 37.989635,
          "lng": 127.811897
        },
        {
          "lat": 37.992146,
          "lng": 127.811104
        }
      ],
      "color": "#b10258",
      "start_name": "소양강호",
      "length_meter": 287.7,
      "time_minute": 3
    },
    {
      "path_id": 5,
      "path": [
        {
          "lat": 37.992146,
          "lng": 127.811104
        },
        {
          "lat": 37.993412,
          "lng": 127.810402
        }
      ],
      "color": "#73456b",
      "start_name": "갈림길 / 오봉산 5지점",
      "length_meter": 155.5,
      "time_minute": 2
    },
    {
      "path_id": 6,
      "path": [
        {
          "lat": 37.993412,
          "lng": 127.810402
        },
        {
          "lat": 37.993317,
          "lng": 127.810303
        }
      ],
      "color": "#c30f70",
      "start_name": "소요대 / 소요대 전망",
      "length_meter": 19.4,
      "time_minute": 0
    },
    {
      "path_id": 7,
      "path": [
        {
          "lat": 37.993317,
          "lng": 127.810303
        },
        {
          "lat": 37.994434,
          "lng": 127.809753
        }
      ],
      "color": "#5ec0b8",
      "start_name": "백꼽봉 688.4m",
      "length_meter": 133.2,
      "time_minute": 1
    },
    {
      "path_id": 8,
      "path": [
        {
          "lat": 37.994434,
          "lng": 127.809753
        },
        {
          "lat": 37.996037,
          "lng": 127.808098
        }
      ],
      "color": "#2786ba",
      "start_name": "갈림길",
      "length_meter": 229.8,
      "time_minute": 2
    },
    {
      "path_id": 9,
      "path": [
        {
          "lat": 37.996037,
          "lng": 127.808098
        },
        {
          "lat": 37.998444,
          "lng": 127.808456
        }
      ],
      "color": "#a5661c",
      "start_name": "홈통바위",
      "length_meter": 269.5,
      "time_minute": 3
    },
    {
      "path_id": 10,
      "path": [
        {
          "lat": 37.998444,
          "lng": 127.808456
        },
        {
          "lat": 37.994011,
          "lng": 127.80928
        }
      ],
      "color": "#3f4f9d",
      "start_name": "오봉산 3지점",
      "length_meter": 498.2,
      "time_minute": 6
    },
    {
      "path_id": 11,
      "path": [
        {
          "lat": 37.994011,
          "lng": 127.80928
        },
        {
          "lat": 37.991402,
          "lng": 127.805405
        }
      ],
      "color": "#3a3027",
      "start_name": "오봉산 4지점",
      "length_meter": 446.6,
      "time_minute": 5
    },
    {
      "path_id": 12,
      "path": [
        {
          "lat": 37.991402,
          "lng": 127.805405
        },
        {
          "lat": 37.990425,
          "lng": 127.805817
        }
      ],
      "color": "#447559",
      "start_name": "갈림길 / 진락공 세수터 / 식암폭포",
      "length_meter": 119.0,
      "time_minute": 1
    },
    {
      "path_id": 13,
      "path": [
        {
          "lat": 37.990425,
          "lng": 127.805817
        },
        {
          "lat": 37.987309,
          "lng": 127.806267
        }
      ],
      "color": "#92bf00",
      "start_name": "척번대",
      "length_meter": 348.7,
      "time_minute": 4
    },
    {
      "path_id": 14,
      "path": [
        {
          "lat": 37.987309,
          "lng": 127.806267
        },
        {
          "lat": 37.986664,
          "lng": 127.807022
        }
      ],
      "color": "#b45cb1",
      "start_name": "환적당과 설화당 부도",
      "length_meter": 97.6,
      "time_minute": 1
    }
  ]
}