[
    {
        "path_id": 1,
        "name": "영월공영 행복버스",
        "lat": 37.38179,
        "lon": 128.270859
    },
    {
        "path_id": 2,
        "name": "간이화장실",
        "lat": 37.382053,
        "lon": 128.270691
    },
    {
        "path_id": 3,
        "name": "흥원사",
        "lat": 37.382919,
        "lon": 128.270416
    },
    {
        "path_id": 4,
        "name": "백덕산등산로 입구, 흥원사",
        "lat": 37.383118,
        "lon": 128.271194
    },
    {
        "path_id": 5,
        "name": "설통바위",
        "lat": 37.389198,
        "lon": 128.270813
    },
    {
        "path_id": 6,
        "name": "갈림길",
        "lat": 37.390495,
        "lon": 128.271454
    },
    {
        "path_id": 7,
        "name": "재단터",
        "lat": 37.390942,
        "lon": 128.272949
    },
    {
        "path_id": 8,
        "name": "전망대",
        "lat": 37.394619,
        "lon": 128.278412
    },
    {
        "path_id": 9,
        "name": "웨이포인트 9",
        "lat": 37.394635,
        "lon": 128.278569
    },
    {
        "path_id": 10,
        "name": "웨이포인트 10",
        "lat": 37.397178,
        "lon": 128.282506
    },
    {
        "path_id": 11,
        "name": "웨이포인트 11",
        "lat": 37.397091,
        "lon": 128.283599
    },
    {
        "path_id": 12,
        "name": "낙타바위 전망대",
        "lat": 37.396992,
        "lon": 128.285797
    },
    {
        "path_id": 14,
        "name": "용바위",
        "lat": 37.397186,
        "lon": 128.291504
    },
    {
        "path_id": 15,
        "name": "백덕산정상  가기 전 바위",
        "lat": 37.396717,
        "lon": 128.291611
    },
    {
        "path_id": 16,
        "name": "갈림길",
        "lat": 37.396553,
        "lon": 128.29332
    },
    {
        "path_id": 17,
        "name": "백덕산정상",
        "lat": 37.396538,
        "lon": 128.293381
    },
    {
        "path_id": 18,
        "name": "웨이포인트 18",
        "lat": 37.394449,
        "lon": 128.294478
    },
    {
        "path_id": 19,
        "name": "갈림길",
        "lat": 37.389374,
        "lon": 128.297348
    },
    {
        "path_id": 20,
        "name": "웨이포인트 20",
        "lat": 37.38927,
        "lon": 128.297998
    },
    {
        "path_id": 21,
        "name": "부부바위전망대",
        "lat": 37.389271,
        "lon": 128.298004
    },
    {
        "path_id": 22,
        "name": "갈림길",
        "lat": 37.388203,
        "lon": 128.297043
    },
    {
        "path_id": 23,
        "name": "촛대바위",
        "lat": 37.388168,
        "lon": 128.296982
    },
    {
        "path_id": 24,
        "name": "급경사",
        "lat": 37.387161,
        "lon": 128.296616
    },
    {
        "path_id": 25,
        "name": "갈림길",
        "lat": 37.381641,
        "lon": 128.295441
    },
    {
        "path_id": 26,
        "name": "신선바위가기전 전망대",
        "lat": 37.381226,
        "lon": 128.294876
    },
    {
        "path_id": 27,
        "name": "웨이포인트 27",
        "lat": 37.381227,
        "lon": 128.294914
    },
    {
        "path_id": 28,
        "name": "위험구간",
        "lat": 37.381191,
        "lon": 128.294937
    },
    {
        "path_id": 29,
        "name": "신선바위",
        "lat": 37.381004,
        "lon": 128.294861
    },
    {
        "path_id": 30,
        "name": "웨이포인트 30",
        "lat": 37.380932,
        "lon": 128.294818
    },
    {
        "path_id": 31,
        "name": "갈림길",
        "lat": 37.380371,
        "lon": 128.294556
    },
    {
        "path_id": 32,
        "name": "웨이포인트 32",
        "lat": 37.380335,
        "lon": 128.294506
    },
    {
        "path_id": 33,
        "name": "흥원사 대략 1Km전",
        "lat": 37.380817,
        "lon": 128.281433
    },
    {
        "path_id": 34,
        "name": "갈림길",
        "lat": 37.382191,
        "lon": 128.271088
    },
    {
        "path_id": 35,
        "name": "백덕산등산로입구, 백년계곡",
        "lat": 37.382076,
        "lon": 128.271042
    },
    {
        "path_id": 36,
        "name": "웨이포인트 1",
        "lat": 37.382029,
        "lon": 128.270746
    }
]