[
    {
        "path_id": 1,
        "name": "덕천교입구등산로",
        "lat": 35.755539,
        "lon": 127.353409
    },
    {
        "path_id": 2,
        "name": "갈림길",
        "lat": 35.755535,
        "lon": 127.353409
    },
    {
        "path_id": 3,
        "name": "국가지점목",
        "lat": 35.753571,
        "lon": 127.360435
    },
    {
        "path_id": 4,
        "name": "광대봉가는중간봉우리",
        "lat": 35.754807,
        "lon": 127.36351
    },
    {
        "path_id": 5,
        "name": "광대봉가는중간봉우리",
        "lat": 35.754772,
        "lon": 127.363518
    },
    {
        "path_id": 6,
        "name": "국가지점목",
        "lat": 35.754478,
        "lon": 127.369881
    },
    {
        "path_id": 7,
        "name": "갈림길",
        "lat": 35.75378,
        "lon": 127.369965
    },
    {
        "path_id": 8,
        "name": "갈림길",
        "lat": 35.75378,
        "lon": 127.369965
    },
    {
        "path_id": 9,
        "name": "갈림길",
        "lat": 35.756187,
        "lon": 127.368843
    },
    {
        "path_id": 10,
        "name": "갈림길",
        "lat": 35.758011,
        "lon": 127.375092
    },
    {
        "path_id": 11,
        "name": "야생동물배설물",
        "lat": 35.755848,
        "lon": 127.381645
    },
    {
        "path_id": 12,
        "name": "갈림길",
        "lat": 35.753761,
        "lon": 127.382507
    },
    {
        "path_id": 13,
        "name": "갈림길",
        "lat": 35.750637,
        "lon": 127.378265
    },
    {
        "path_id": 14,
        "name": "보흥사",
        "lat": 35.746819,
        "lon": 127.375313
    },
    {
        "path_id": 15,
        "name": "강정리오층석탑",
        "lat": 35.7467,
        "lon": 127.375252
    },
    {
        "path_id": 16,
        "name": "보흥사 화장실",
        "lat": 35.746391,
        "lon": 127.374756
    },
    {
        "path_id": 17,
        "name": "보흥사입구주차장",
        "lat": 35.74567,
        "lon": 127.373695
    },
    {
        "path_id": 18,
        "name": "팔각정",
        "lat": 35.74575,
        "lon": 127.374016
    },
    {
        "path_id": 19,
        "name": "보흥사입구화장실",
        "lat": 35.745541,
        "lon": 127.373581
    },
    {
        "path_id": 20,
        "name": "갈림길",
        "lat": 35.738209,
        "lon": 127.365295
    },
    {
        "path_id": 21,
        "name": "원강정마을 버스정류소",
        "lat": 35.73671,
        "lon": 127.364807
    },
    {
        "path_id": 22,
        "name": "강정리근대한옥마을",
        "lat": 35.736393,
        "lon": 127.362831
    },
    {
        "path_id": 23,
        "name": "갈림길",
        "lat": 35.736641,
        "lon": 127.362144
    },
    {
        "path_id": 24,
        "name": "쌍벽루",
        "lat": 35.738628,
        "lon": 127.355545
    }
]