[
  {
    "path_id": 0,
    "path": [
      {
        "lat": 37.863125,
        "lng": 127.98513
      },
      {
        "lat": 37.863228,
        "lng": 127.985077
      }
    ],
    "color": "#ab7dce",
    "start_name": "가리산자연휴양림 / 가리산자연휴양림  매표소",
    "length_meter": 62.2,
    "time_minute": 1
  },
  {
    "path_id": 1,
    "path": [
      {
        "lat": 37.863228,
        "lng": 127.985077
      },
      {
        "lat": 37.864342,
        "lng": 127.984222
      }
    ],
    "color": "#ab5ef7",
    "start_name": "홍천에서 버스탑승",
    "length_meter": 144.8,
    "time_minute": 2
  },
  {
    "path_id": 2,
    "path": [
      {
        "lat": 37.864342,
        "lng": 127.984222
      },
      {
        "lat": 37.864384,
        "lng": 127.983414
      }
    ],
    "color": "#839f43",
    "start_name": "휴양림 입구 주차장 / 주차장내 화장실 / 해병대 가리산 전투전적비 / 흙먼지털이기",
    "length_meter": 91.0,
    "time_minute": 1
  },
  {
    "path_id": 3,
    "path": [
      {
        "lat": 37.864384,
        "lng": 127.983414
      },
      {
        "lat": 37.882156,
        "lng": 127.972717
      }
    ],
    "color": "#428815",
    "start_name": "자연휴양림 관리사무소 / 갈림길 / 가리산휴게소",
    "length_meter": 2190.5,
    "time_minute": 36
  },
  {
    "path_id": 4,
    "path": [
      {
        "lat": 37.882156,
        "lng": 127.972717
      },
      {
        "lat": 37.88253,
        "lng": 127.973061
      }
    ],
    "color": "#c4710e",
    "start_name": "새득이봉",
    "length_meter": 51.4,
    "time_minute": 0
  }
]