[
    {
        "name": "연화산 도립공원 주차장",
        "lat": 35.089771,
        "lon": 128.262146
    },
    {
        "name": "주차장 내 화장실",
        "lat": 35.089176,
        "lon": 128.26178
    },
    {
        "name": "옥천사 계곡의공룡발자국",
        "lat": 35.089634,
        "lon": 128.261536
    },
    {
        "name": "매봉 가는길",
        "lat": 35.08963,
        "lon": 128.26149
    },
    {
        "name": "연화1봉 가는길",
        "lat": 35.087574,
        "lon": 128.255295
    },
    {
        "name": "평상1개",
        "lat": 35.064724,
        "lon": 128.259628
    },
    {
        "name": "시루봉",
        "lat": 35.063026,
        "lon": 128.262146
    },
    {
        "name": "시루봉 전망대",
        "lat": 35.06303,
        "lon": 128.262192
    },
    {
        "name": "적멸보궁",
        "lat": 35.067493,
        "lon": 128.262238
    },
    {
        "name": "장군봉",
        "lat": 35.083759,
        "lon": 128.266174
    },
    {
        "name": "갈림길 26",
        "lat": 35.083794,
        "lon": 128.266113
    },
    {
        "name": "연화산 도립공원 주차장",
        "lat": 35.08997,
        "lon": 128.2621
    }
]