[
  {
    "path_id": 0,
    "path": [
      {
        "lat": 34.743664,
        "lng": 127.96286
      },
      {
        "lat": 34.749001,
        "lng": 127.968781
      }
    ],
    "color": "#01b948",
    "start_name": "한려해상국립공원 안내도 / 두모입구",
    "length_meter": 803.5,
    "time_minute": 13
  },
  {
    "path_id": 1,
    "path": [
      {
        "lat": 34.749001,
        "lng": 127.968781
      },
      {
        "lat": 34.752598,
        "lng": 127.975876
      }
    ],
    "color": "#7e4584",
    "start_name": "남해 양아리 석각",
    "length_meter": 761.7,
    "time_minute": 12
  },
  {
    "path_id": 2,
    "path": [
      {
        "lat": 34.752598,
        "lng": 127.975876
      },
      {
        "lat": 34.752205,
        "lng": 127.977196
      }
    ],
    "color": "#c46853",
    "start_name": "기암괴석",
    "length_meter": 128.3,
    "time_minute": 2
  },
  {
    "path_id": 3,
    "path": [
      {
        "lat": 34.752205,
        "lng": 127.977196
      },
      {
        "lat": 34.75214,
        "lng": 127.977577
      }
    ],
    "color": "#1a92bd",
    "start_name": "부소암",
    "length_meter": 35.6,
    "time_minute": 0
  },
  {
    "path_id": 4,
    "path": [
      {
        "lat": 34.75214,
        "lng": 127.977577
      },
      {
        "lat": 34.752014,
        "lng": 127.980377
      }
    ],
    "color": "#28bc41",
    "start_name": "기암괴석",
    "length_meter": 256.2,
    "time_minute": 4
  },
  {
    "path_id": 5,
    "path": [
      {
        "lat": 34.752014,
        "lng": 127.980377
      },
      {
        "lat": 34.749329,
        "lng": 127.97995
      }
    ],
    "color": "#a4a873",
    "start_name": "갈림길",
    "length_meter": 301.1,
    "time_minute": 5
  },
  {
    "path_id": 6,
    "path": [
      {
        "lat": 34.749329,
        "lng": 127.97995
      },
      {
        "lat": 34.751209,
        "lng": 127.980484
      }
    ],
    "color": "#a8bd36",
    "start_name": "기암괴석",
    "length_meter": 214.7,
    "time_minute": 3
  },
  {
    "path_id": 7,
    "path": [
      {
        "lat": 34.751209,
        "lng": 127.980484
      },
      {
        "lat": 34.751736,
        "lng": 127.981026
      }
    ],
    "color": "#1e5a7d",
    "start_name": "좌선대 / 금산산장",
    "length_meter": 78.1,
    "time_minute": 1
  },
  {
    "path_id": 8,
    "path": [
      {
        "lat": 34.751736,
        "lng": 127.981026
      },
      {
        "lat": 34.753094,
        "lng": 127.98243
      }
    ],
    "color": "#4e525a",
    "start_name": "흔들바위 / 갈림길",
    "length_meter": 207.6,
    "time_minute": 3
  },
  {
    "path_id": 9,
    "path": [
      {
        "lat": 34.753094,
        "lng": 127.98243
      },
      {
        "lat": 34.753803,
        "lng": 127.982956
      }
    ],
    "color": "#401812",
    "start_name": "줄사철나무",
    "length_meter": 92.3,
    "time_minute": 1
  },
  {
    "path_id": 10,
    "path": [
      {
        "lat": 34.753803,
        "lng": 127.982956
      },
      {
        "lat": 34.752884,
        "lng": 127.983452
      }
    ],
    "color": "#5c1f5f",
    "start_name": "망대",
    "length_meter": 111.8,
    "time_minute": 1
  },
  {
    "path_id": 11,
    "path": [
      {
        "lat": 34.752884,
        "lng": 127.983452
      },
      {
        "lat": 34.751984,
        "lng": 127.982811
      }
    ],
    "color": "#2a151d",
    "start_name": "갈림길",
    "length_meter": 116.0,
    "time_minute": 1
  },
  {
    "path_id": 12,
    "path": [
      {
        "lat": 34.751984,
        "lng": 127.982811
      },
      {
        "lat": 34.75153,
        "lng": 127.982353
      }
    ],
    "color": "#312b44",
    "start_name": "기암괴석 / 음성굴",
    "length_meter": 66.6,
    "time_minute": 1
  },
  {
    "path_id": 13,
    "path": [
      {
        "lat": 34.75153,
        "lng": 127.982353
      },
      {
        "lat": 34.739544,
        "lng": 127.984131
      }
    ],
    "color": "#c31037",
    "start_name": "장군암 / 쌍홍문 / 사선대",
    "length_meter": 1353.9,
    "time_minute": 22
  },
  {
    "path_id": 14,
    "path": [
      {
        "lat": 34.739544,
        "lng": 127.984131
      },
      {
        "lat": 34.739502,
        "lng": 127.984009
      }
    ],
    "color": "#99afaa",
    "start_name": "탐방지원센터",
    "length_meter": 12.1,
    "time_minute": 0
  }
]