{
    "max_ele": 698.944,
    "track": [
        {
            "path_id": 1,
            "name": "천은사주차장화장실",
            "lat": 37.444748,
            "lon": 129.045547,
            "ele": 217.933
        },
        {
            "path_id": 2,
            "name": "천은사주차장",
            "lat": 37.444725,
            "lon": 129.045609,
            "ele": 216.639
        },
        {
            "path_id": 3,
            "name": "동안사",
            "lat": 37.44482,
            "lon": 129.043854,
            "ele": 230.72
        },
        {
            "path_id": 4,
            "name": "보호수",
            "lat": 37.444267,
            "lon": 129.044052,
            "ele": 233.218
        },
        {
            "path_id": 5,
            "name": "간이주차장",
            "lat": 37.444267,
            "lon": 129.043488,
            "ele": 238.04
        },
        {
            "path_id": 6,
            "name": "소형화장실",
            "lat": 37.44421,
            "lon": 129.042862,
            "ele": 244.471
        },
        {
            "path_id": 7,
            "name": "천은사",
            "lat": 37.444355,
            "lon": 129.042557,
            "ele": 249.594
        },
        {
            "path_id": 8,
            "name": "갈림길",
            "lat": 37.444096,
            "lon": 129.041824,
            "ele": 261.183
        },
        {
            "path_id": 9,
            "name": "포토존",
            "lat": 37.442543,
            "lon": 129.031494,
            "ele": 452.821
        },
        {
            "path_id": 10,
            "name": "조망점",
            "lat": 37.443295,
            "lon": 129.030731,
            "ele": 516.089
        },
        {
            "path_id": 11,
            "name": "포토존",
            "lat": 37.443382,
            "lon": 129.030457,
            "ele": 525.099
        },
        {
            "path_id": 12,
            "name": "갈림길",
            "lat": 37.44574,
            "lon": 129.028061,
            "ele": 636.52
        },
        {
            "path_id": 13,
            "name": "조망점",
            "lat": 37.445187,
            "lon": 129.026962,
            "ele": 670.682
        },
        {
            "path_id": 14,
            "name": "급경사지",
            "lat": 37.44479,
            "lon": 129.026642,
            "ele": 671.818
        },
        {
            "path_id": 15,
            "name": "조망점",
            "lat": 37.444588,
            "lon": 129.026367,
            "ele": 689.596
        },
        {
            "path_id": 16,
            "name": "쉰음산",
            "lat": 37.444698,
            "lon": 129.026428,
            "ele": 688.672
        },
        {
            "path_id": 17,
            "name": "오십정",
            "lat": 37.444485,
            "lon": 129.02623,
            "ele": 688.063
        },
        {
            "path_id": 18,
            "name": "갈림길",
            "lat": 37.444061,
            "lon": 129.026245,
            "ele": 683.635
        },
        {
            "path_id": 19,
            "name": "갈림길",
            "lat": 37.442669,
            "lon": 129.02449,
            "ele": 698.944
        },
        {
            "path_id": 20,
            "name": "갈림길",
            "lat": 37.440578,
            "lon": 129.028946,
            "ele": 481.089
        },
        {
            "path_id": 21,
            "name": "갈림길",
            "lat": 37.442471,
            "lon": 129.032944,
            "ele": 402.076
        },
        {
            "path_id": 22,
            "name": "갈림길",
            "lat": 37.444008,
            "lon": 129.035843,
            "ele": 354.967
        },
        {
            "path_id": 23,
            "name": "갈림길",
            "lat": 37.444187,
            "lon": 129.043686,
            "ele": 253.091
        }
    ]
}