[
    {
        "path_id": 1,
        "name": "천은사주차장화장실",
        "lat": 37.444748,
        "lon": 129.045547
    },
    {
        "path_id": 2,
        "name": "천은사주차장",
        "lat": 37.444725,
        "lon": 129.045609
    },
    {
        "path_id": 3,
        "name": "동안사",
        "lat": 37.44482,
        "lon": 129.043854
    },
    {
        "path_id": 4,
        "name": "보호수",
        "lat": 37.444267,
        "lon": 129.044052
    },
    {
        "path_id": 5,
        "name": "간이주차장",
        "lat": 37.444267,
        "lon": 129.043488
    },
    {
        "path_id": 6,
        "name": "소형화장실",
        "lat": 37.44421,
        "lon": 129.042862
    },
    {
        "path_id": 7,
        "name": "천은사",
        "lat": 37.444355,
        "lon": 129.042557
    },
    {
        "path_id": 8,
        "name": "갈림길",
        "lat": 37.444096,
        "lon": 129.041824
    },
    {
        "path_id": 9,
        "name": "포토존",
        "lat": 37.442543,
        "lon": 129.031494
    },
    {
        "path_id": 10,
        "name": "조망점",
        "lat": 37.443295,
        "lon": 129.030731
    },
    {
        "path_id": 11,
        "name": "포토존",
        "lat": 37.443382,
        "lon": 129.030457
    },
    {
        "path_id": 12,
        "name": "갈림길",
        "lat": 37.44574,
        "lon": 129.028061
    },
    {
        "path_id": 13,
        "name": "조망점",
        "lat": 37.445187,
        "lon": 129.026962
    },
    {
        "path_id": 14,
        "name": "급경사지",
        "lat": 37.44479,
        "lon": 129.026642
    },
    {
        "path_id": 15,
        "name": "조망점",
        "lat": 37.444588,
        "lon": 129.026367
    },
    {
        "path_id": 16,
        "name": "쉰음산",
        "lat": 37.444698,
        "lon": 129.026428
    },
    {
        "path_id": 17,
        "name": "오십정",
        "lat": 37.444485,
        "lon": 129.02623
    },
    {
        "path_id": 18,
        "name": "갈림길",
        "lat": 37.444061,
        "lon": 129.026245
    },
    {
        "path_id": 19,
        "name": "갈림길",
        "lat": 37.442669,
        "lon": 129.02449
    },
    {
        "path_id": 20,
        "name": "갈림길",
        "lat": 37.440578,
        "lon": 129.028946
    },
    {
        "path_id": 21,
        "name": "갈림길",
        "lat": 37.442471,
        "lon": 129.032944
    },
    {
        "path_id": 22,
        "name": "갈림길",
        "lat": 37.444008,
        "lon": 129.035843
    },
    {
        "path_id": 23,
        "name": "갈림길",
        "lat": 37.444187,
        "lon": 129.043686
    }
]