[
    {
        "path_id": 1,
        "name": "칠갑산자연휴양림 안내소",
        "lat": 36.432442,
        "lon": 126.844139
    },
    {
        "path_id": 2,
        "name": "휴양림내 주차장",
        "lat": 36.432301,
        "lon": 126.843773
    },
    {
        "path_id": 7,
        "name": "칠갑산도립공원안내도",
        "lat": 36.429398,
        "lon": 126.843361
    },
    {
        "path_id": 10,
        "name": "벤취 4개소",
        "lat": 36.422974,
        "lon": 126.842072
    },
    {
        "path_id": 13,
        "name": "갈림길",
        "lat": 36.419651,
        "lon": 126.862831
    },
    {
        "path_id": 16,
        "name": "칠갑산자연휴양림 야영장",
        "lat": 36.430328,
        "lon": 126.843117
    },
    {
        "path_id": 18,
        "name": "칠갑산자연휴양림",
        "lat": 36.432541,
        "lon": 126.844299
    }
]