[
  {
    "path_id": 0,
    "path": [
      {
        "lat": 35.487495,
        "lng": 126.923782
      },
      {
        "lat": 35.48793,
        "lng": 126.922691
      }
    ],
    "color": "#4c9577",
    "start_point_name": "향토 자유수호  기념비",
    "length": 109,
    "time": "1"
  },
  {
    "path_id": 1,
    "path": [
      {
        "lat": 35.48793,
        "lng": 126.922691
      },
      {
        "lat": 35.486645,
        "lng": 126.918106
      }
    ],
    "color": "#e44279",
    "start_point_name": "낙석위험",
    "length": 439,
    "time": "7"
  },
  {
    "path_id": 2,
    "path": [
      {
        "lat": 35.486645,
        "lng": 126.918106
      },
      {
        "lat": 35.485764,
        "lng": 126.917854
      }
    ],
    "color": "#30a6f7",
    "start_point_name": "자연사랑길 간이쉼터",
    "length": 100,
    "time": "1"
  },
  {
    "path_id": 3,
    "path": [
      {
        "lat": 35.485764,
        "lng": 126.917854
      },
      {
        "lat": 35.485443,
        "lng": 126.914314
      }
    ],
    "color": "#406206",
    "start_point_name": "굴거리 나무",
    "length": 322,
    "time": "5"
  },
  {
    "path_id": 4,
    "path": [
      {
        "lat": 35.485443,
        "lng": 126.914314
      },
      {
        "lat": 35.488647,
        "lng": 126.901314
      }
    ],
    "color": "#8fdda3",
    "start_point_name": "매점",
    "length": 1229,
    "time": "20"
  },
  {
    "path_id": 5,
    "path": [
      {
        "lat": 35.488647,
        "lng": 126.901314
      },
      {
        "lat": 35.488148,
        "lng": 126.897987
      }
    ],
    "color": "#1845a9",
    "start_point_name": "갈림길",
    "length": 306,
    "time": "5"
  },
  {
    "path_id": 6,
    "path": [
      {
        "lat": 35.488148,
        "lng": 126.897987
      },
      {
        "lat": 35.487999,
        "lng": 126.896385
      }
    ],
    "color": "#589bd7",
    "start_point_name": "실록원",
    "length": 145,
    "time": "2"
  },
  {
    "path_id": 7,
    "path": [
      {
        "lat": 35.487999,
        "lng": 126.896385
      },
      {
        "lat": 35.485325,
        "lng": 126.889481
      }
    ],
    "color": "#9d92cc",
    "start_point_name": "낙석주의",
    "length": 692,
    "time": "11"
  },
  {
    "path_id": 8,
    "path": [
      {
        "lat": 35.485325,
        "lng": 126.889481
      },
      {
        "lat": 35.479378,
        "lng": 126.890945
      }
    ],
    "color": "#ad96cb",
    "start_point_name": "갈림길",
    "length": 674,
    "time": "11"
  },
  {
    "path_id": 9,
    "path": [
      {
        "lat": 35.479378,
        "lng": 126.890945
      },
      {
        "lat": 35.479465,
        "lng": 126.890793
      }
    ],
    "color": "#e8dc21",
    "start_point_name": "미끄럼 주의",
    "length": 16,
    "time": "0"
  },
  {
    "path_id": 10,
    "path": [
      {
        "lat": 35.479465,
        "lng": 126.890793
      },
      {
        "lat": 35.483173,
        "lng": 126.882179
      }
    ],
    "color": "#8451a7",
    "start_point_name": "낙석주의",
    "length": 882,
    "time": "14"
  },
  {
    "path_id": 11,
    "path": [
      {
        "lat": 35.483173,
        "lng": 126.882179
      },
      {
        "lat": 35.485252,
        "lng": 126.881096
      }
    ],
    "color": "#64f908",
    "start_point_name": "조망점",
    "length": 251,
    "time": "4"
  },
  {
    "path_id": 12,
    "path": [
      {
        "lat": 35.485252,
        "lng": 126.881096
      },
      {
        "lat": 35.48539,
        "lng": 126.881134
      }
    ],
    "color": "#de9950",
    "start_point_name": "조망점",
    "length": 15,
    "time": "0"
  },
  {
    "path_id": 13,
    "path": [
      {
        "lat": 35.48539,
        "lng": 126.881134
      },
      {
        "lat": 35.487247,
        "lng": 126.883438
      }
    ],
    "color": "#2ccce4",
    "start_point_name": "조망점",
    "length": 293,
    "time": "4"
  },
  {
    "path_id": 14,
    "path": [
      {
        "lat": 35.487247,
        "lng": 126.883438
      },
      {
        "lat": 35.485836,
        "lng": 126.914398
      }
    ],
    "color": "#00774c",
    "start_point_name": "간이쉼터",
    "length": 2807,
    "time": "46"
  },
  {
    "path_id": 15,
    "path": [
      {
        "lat": 35.485836,
        "lng": 126.914398
      },
      {
        "lat": 35.485798,
        "lng": 126.914505
      }
    ],
    "color": "#dfa3a5",
    "start_point_name": "테이크아웃 커피점",
    "length": 10,
    "time": "0"
  }
]