[
  {
    "path_id": 0,
    "path": [
      {
        "lat": 35.487495,
        "lng": 126.923782
      },
      {
        "lat": 35.48793,
        "lng": 126.922691
      }
    ],
    "color": "#93d8ba",
    "start_name": "향토 자유수호  기념비",
    "length_meter": 110.0,
    "time_minute": 1
  },
  {
    "path_id": 1,
    "path": [
      {
        "lat": 35.48793,
        "lng": 126.922691
      },
      {
        "lat": 35.486645,
        "lng": 126.918106
      }
    ],
    "color": "#345326",
    "start_name": "낙석위험",
    "length_meter": 439.0,
    "time_minute": 7
  },
  {
    "path_id": 2,
    "path": [
      {
        "lat": 35.486645,
        "lng": 126.918106
      },
      {
        "lat": 35.485764,
        "lng": 126.917854
      }
    ],
    "color": "#771a3e",
    "start_name": "자연사랑길 간이쉼터",
    "length_meter": 100.6,
    "time_minute": 1
  },
  {
    "path_id": 3,
    "path": [
      {
        "lat": 35.485764,
        "lng": 126.917854
      },
      {
        "lat": 35.485443,
        "lng": 126.914314
      }
    ],
    "color": "#372c73",
    "start_name": "굴거리 나무",
    "length_meter": 322.5,
    "time_minute": 5
  },
  {
    "path_id": 4,
    "path": [
      {
        "lat": 35.485443,
        "lng": 126.914314
      },
      {
        "lat": 35.488647,
        "lng": 126.901314
      }
    ],
    "color": "#78510c",
    "start_name": "매점",
    "length_meter": 1229.8,
    "time_minute": 20
  },
  {
    "path_id": 5,
    "path": [
      {
        "lat": 35.488647,
        "lng": 126.901314
      },
      {
        "lat": 35.488148,
        "lng": 126.897987
      }
    ],
    "color": "#9c9595",
    "start_name": "갈림길",
    "length_meter": 306.3,
    "time_minute": 5
  },
  {
    "path_id": 6,
    "path": [
      {
        "lat": 35.488148,
        "lng": 126.897987
      },
      {
        "lat": 35.487999,
        "lng": 126.896385
      }
    ],
    "color": "#637687",
    "start_name": "실록원",
    "length_meter": 146.0,
    "time_minute": 2
  },
  {
    "path_id": 7,
    "path": [
      {
        "lat": 35.487999,
        "lng": 126.896385
      },
      {
        "lat": 35.485325,
        "lng": 126.889481
      }
    ],
    "color": "#3d1f5b",
    "start_name": "낙석주의",
    "length_meter": 692.2,
    "time_minute": 11
  },
  {
    "path_id": 8,
    "path": [
      {
        "lat": 35.485325,
        "lng": 126.889481
      },
      {
        "lat": 35.479378,
        "lng": 126.890945
      }
    ],
    "color": "#783970",
    "start_name": "갈림길",
    "length_meter": 674.4,
    "time_minute": 11
  },
  {
    "path_id": 9,
    "path": [
      {
        "lat": 35.479378,
        "lng": 126.890945
      },
      {
        "lat": 35.483173,
        "lng": 126.882179
      }
    ],
    "color": "#a27905",
    "start_name": "미끄럼 주의 / 낙석주의",
    "length_meter": 899.1,
    "time_minute": 14
  },
  {
    "path_id": 10,
    "path": [
      {
        "lat": 35.483173,
        "lng": 126.882179
      },
      {
        "lat": 35.485252,
        "lng": 126.881096
      }
    ],
    "color": "#47d2f1",
    "start_name": "조망점",
    "length_meter": 251.1,
    "time_minute": 4
  },
  {
    "path_id": 11,
    "path": [
      {
        "lat": 35.485252,
        "lng": 126.881096
      },
      {
        "lat": 35.487247,
        "lng": 126.883438
      }
    ],
    "color": "#68b6c3",
    "start_name": "조망점 / 조망점",
    "length_meter": 309.2,
    "time_minute": 5
  },
  {
    "path_id": 12,
    "path": [
      {
        "lat": 35.487247,
        "lng": 126.883438
      },
      {
        "lat": 35.485836,
        "lng": 126.914398
      }
    ],
    "color": "#1fbc18",
    "start_name": "간이쉼터",
    "length_meter": 2807.5,
    "time_minute": 46
  },
  {
    "path_id": 13,
    "path": [
      {
        "lat": 35.485836,
        "lng": 126.914398
      },
      {
        "lat": 35.485798,
        "lng": 126.914505
      }
    ],
    "color": "#ae1116",
    "start_name": "테이크아웃 커피점",
    "length_meter": 10.6,
    "time_minute": 0
  }
]