{
  "max_ele": 914.251,
  "track": [
    {
      "path_id": 0,
      "path": [
        {
          "lat": 34.992554,
          "lng": 127.343918
        },
        {
          "lat": 34.99279,
          "lng": 127.341484
        }
      ],
      "color": "#9fb854",
      "start_name": "초원식당외 / 주차장내",
      "length_meter": 229.2,
      "time_minute": 3
    },
    {
      "path_id": 1,
      "path": [
        {
          "lat": 34.99279,
          "lng": 127.341484
        },
        {
          "lat": 34.992912,
          "lng": 127.337746
        }
      ],
      "color": "#63561f",
      "start_name": "매표소 / 선암사입구 / 산책로",
      "length_meter": 345.0,
      "time_minute": 5
    },
    {
      "path_id": 2,
      "path": [
        {
          "lat": 34.992912,
          "lng": 127.337746
        },
        {
          "lat": 34.994007,
          "lng": 127.335152
        }
      ],
      "color": "#59528b",
      "start_name": "사리탑옆",
      "length_meter": 265.8,
      "time_minute": 4
    },
    {
      "path_id": 3,
      "path": [
        {
          "lat": 34.994007,
          "lng": 127.335152
        },
        {
          "lat": 34.995399,
          "lng": 127.330772
        }
      ],
      "color": "#951951",
      "start_name": "갈림길",
      "length_meter": 428.0,
      "time_minute": 7
    },
    {
      "path_id": 4,
      "path": [
        {
          "lat": 34.995399,
          "lng": 127.330772
        },
        {
          "lat": 34.99538,
          "lng": 127.329666
        }
      ],
      "color": "#547213",
      "start_name": "선암사",
      "length_meter": 100.8,
      "time_minute": 1
    },
    {
      "path_id": 5,
      "path": [
        {
          "lat": 34.99538,
          "lng": 127.329666
        },
        {
          "lat": 34.995445,
          "lng": 127.327553
        }
      ],
      "color": "#26442c",
      "start_name": "선암사마애여래입상",
      "length_meter": 192.6,
      "time_minute": 3
    },
    {
      "path_id": 6,
      "path": [
        {
          "lat": 34.995445,
          "lng": 127.327553
        },
        {
          "lat": 34.996487,
          "lng": 127.324699
        }
      ],
      "color": "#3d5684",
      "start_name": "갈림길",
      "length_meter": 284.6,
      "time_minute": 4
    },
    {
      "path_id": 7,
      "path": [
        {
          "lat": 34.996487,
          "lng": 127.324699
        },
        {
          "lat": 35.000355,
          "lng": 127.318008
        }
      ],
      "color": "#a69b11",
      "start_name": "소규모 / 쉄터",
      "length_meter": 750.9,
      "time_minute": 12
    },
    {
      "path_id": 8,
      "path": [
        {
          "lat": 35.000355,
          "lng": 127.318008
        },
        {
          "lat": 35.001335,
          "lng": 127.313606
        }
      ],
      "color": "#b92702",
      "start_name": "향로암터 / 향로암터 인근",
      "length_meter": 418.7,
      "time_minute": 6
    },
    {
      "path_id": 9,
      "path": [
        {
          "lat": 35.001335,
          "lng": 127.313606
        },
        {
          "lat": 34.999153,
          "lng": 127.312042
        }
      ],
      "color": "#33be68",
      "start_name": "조계산(장군봉)",
      "length_meter": 281.4,
      "time_minute": 4
    },
    {
      "path_id": 10,
      "path": [
        {
          "lat": 34.999153,
          "lng": 127.312042
        },
        {
          "lat": 34.995434,
          "lng": 127.310722
        }
      ],
      "color": "#044683",
      "start_name": "배바위",
      "length_meter": 430.7,
      "time_minute": 7
    },
    {
      "path_id": 11,
      "path": [
        {
          "lat": 34.995434,
          "lng": 127.310722
        },
        {
          "lat": 34.988472,
          "lng": 127.311691
        }
      ],
      "color": "#770765",
      "start_name": "갈림길",
      "length_meter": 779.2,
      "time_minute": 12
    },
    {
      "path_id": 12,
      "path": [
        {
          "lat": 34.988472,
          "lng": 127.311691
        },
        {
          "lat": 34.986969,
          "lng": 127.311592
        }
      ],
      "color": "#38ac5b",
      "start_name": "아름다운 숲길",
      "length_meter": 167.4,
      "time_minute": 2
    },
    {
      "path_id": 13,
      "path": [
        {
          "lat": 34.986969,
          "lng": 127.311592
        },
        {
          "lat": 34.989029,
          "lng": 127.317459
        }
      ],
      "color": "#6a5cb1",
      "start_name": "갈림길 / 큰굴목재길내",
      "length_meter": 588.5,
      "time_minute": 9
    },
    {
      "path_id": 14,
      "path": [
        {
          "lat": 34.989029,
          "lng": 127.317459
        },
        {
          "lat": 34.990406,
          "lng": 127.322006
        }
      ],
      "color": "#ac7324",
      "start_name": "숯가마터",
      "length_meter": 441.6,
      "time_minute": 7
    },
    {
      "path_id": 15,
      "path": [
        {
          "lat": 34.990406,
          "lng": 127.322006
        },
        {
          "lat": 34.991146,
          "lng": 127.324944
        }
      ],
      "color": "#2c90c6",
      "start_name": "교량앞",
      "length_meter": 280.0,
      "time_minute": 4
    },
    {
      "path_id": 16,
      "path": [
        {
          "lat": 34.991146,
          "lng": 127.324944
        },
        {
          "lat": 34.99155,
          "lng": 127.326614
        }
      ],
      "color": "#5138af",
      "start_name": "삼거리쉼터 / 편백나무숲길",
      "length_meter": 158.6,
      "time_minute": 2
    },
    {
      "path_id": 17,
      "path": [
        {
          "lat": 34.99155,
          "lng": 127.326614
        },
        {
          "lat": 34.992989,
          "lng": 127.329178
        }
      ],
      "color": "#709406",
      "start_name": "야생화미로원",
      "length_meter": 283.1,
      "time_minute": 4
    },
    {
      "path_id": 18,
      "path": [
        {
          "lat": 34.992989,
          "lng": 127.329178
        },
        {
          "lat": 34.994225,
          "lng": 127.330269
        }
      ],
      "color": "#5d050c",
      "start_name": "갈림길",
      "length_meter": 169.6,
      "time_minute": 2
    },
    {
      "path_id": 19,
      "path": [
        {
          "lat": 34.994225,
          "lng": 127.330269
        },
        {
          "lat": 34.99464,
          "lng": 127.331375
        }
      ],
      "color": "#bb5f9e",
      "start_name": "삼거리",
      "length_meter": 110.8,
      "time_minute": 1
    },
    {
      "path_id": 20,
      "path": [
        {
          "lat": 34.99464,
          "lng": 127.331375
        },
        {
          "lat": 34.994637,
          "lng": 127.332268
        }
      ],
      "color": "#86b770",
      "start_name": "삼거리화장실 / 갈림길",
      "length_meter": 101.2,
      "time_minute": 1
    },
    {
      "path_id": 21,
      "path": [
        {
          "lat": 34.994637,
          "lng": 127.332268
        },
        {
          "lat": 34.992641,
          "lng": 127.338051
        }
      ],
      "color": "#599b8b",
      "start_name": "선각당",
      "length_meter": 571.6,
      "time_minute": 9
    }
  ]
}