{
    "max_ele": 670.0,
    "track": [
        {
            "path_id": 1,
            "name": "갈림길",
            "lat": 37.935516,
            "lon": 126.951332,
            "ele": 236.0
        },
        {
            "path_id": 3,
            "name": "보리암과 돌탑",
            "lat": 37.938065,
            "lon": 126.963081,
            "ele": 514.0
        },
        {
            "path_id": 4,
            "name": "보리암입구",
            "lat": 37.93858,
            "lon": 126.962601,
            "ele": 512.0
        },
        {
            "path_id": 5,
            "name": "갈림길",
            "lat": 37.939396,
            "lon": 126.963776,
            "ele": 577.0
        },
        {
            "path_id": 8,
            "name": "바위문",
            "lat": 37.938747,
            "lon": 126.965866,
            "ele": 638.0
        },
        {
            "path_id": 9,
            "name": "저수지경관",
            "lat": 37.938622,
            "lon": 126.966019,
            "ele": 648.0
        },
        {
            "path_id": 10,
            "name": "1",
            "lat": 37.938583,
            "lon": 126.96608,
            "ele": 651.0
        },
        {
            "path_id": 11,
            "name": "장군봉",
            "lat": 37.939152,
            "lon": 126.967239,
            "ele": 670.0
        },
        {
            "path_id": 12,
            "name": "갈림길",
            "lat": 37.939205,
            "lon": 126.968262,
            "ele": 670.0
        },
        {
            "path_id": 14,
            "name": "까치봉",
            "lat": 37.942471,
            "lon": 126.965034,
            "ele": 584.0
        },
        {
            "path_id": 15,
            "name": "전망대",
            "lat": 37.942429,
            "lon": 126.964691,
            "ele": 574.0
        },
        {
            "path_id": 17,
            "name": "쉼터",
            "lat": 37.93985,
            "lon": 126.956825,
            "ele": 340.0
        },
        {
            "path_id": 18,
            "name": "사방댐",
            "lat": 37.939182,
            "lon": 126.954933,
            "ele": 284.0
        },
        {
            "path_id": 19,
            "name": "사방댐계곡",
            "lat": 37.939037,
            "lon": 126.954582,
            "ele": 282.0
        },
        {
            "path_id": 20,
            "name": "쉼터",
            "lat": 37.939617,
            "lon": 126.949608,
            "ele": 247.0
        },
        {
            "path_id": 21,
            "name": "출렁다리",
            "lat": 37.939056,
            "lon": 126.949303,
            "ele": 231.0
        },
        {
            "path_id": 22,
            "name": "운계폭포",
            "lat": 37.939045,
            "lon": 126.949364,
            "ele": 225.0
        },
        {
            "path_id": 23,
            "name": "전망대",
            "lat": 37.939251,
            "lon": 126.949394,
            "ele": 232.0
        },
        {
            "path_id": 24,
            "name": "범륜사",
            "lat": 37.938309,
            "lon": 126.952019,
            "ele": 0.0
        },
        {
            "path_id": 25,
            "name": "1",
            "lat": 37.93816,
            "lon": 126.949959,
            "ele": 230.0
        },
        {
            "path_id": 26,
            "name": "운계폭포",
            "lat": 37.938335,
            "lon": 126.950157,
            "ele": 226.0
        },
        {
            "path_id": 27,
            "name": "1",
            "lat": 37.938087,
            "lon": 126.949471,
            "ele": 209.0
        },
        {
            "path_id": 28,
            "name": "갈림길",
            "lat": 37.93758,
            "lon": 126.947983,
            "ele": 205.0
        },
        {
            "path_id": 29,
            "name": "출렁다리",
            "lat": 37.937672,
            "lon": 126.94751,
            "ele": 202.0
        },
        {
            "path_id": 30,
            "name": "공영 제5주차장",
            "lat": 37.939735,
            "lon": 126.945419,
            "ele": 144.0
        }
    ]
}