{
  "max_ele": 1460.108,
  "track": [
    {
      "path_id": 0,
      "path": [
        {
          "lat": 36.898983,
          "lng": 128.435394
        },
        {
          "lat": 36.900116,
          "lng": 128.434845
        }
      ],
      "color": "#7aaa41",
      "start_name": "죽령휴게소 버스정류장 / 소백산국립공원 죽령분소 / 죽령탐방로",
      "length_meter": 142.8,
      "time_minute": 2
    },
    {
      "path_id": 1,
      "path": [
        {
          "lat": 36.900116,
          "lng": 128.434845
        },
        {
          "lat": 36.901875,
          "lng": 128.437454
        }
      ],
      "color": "#5fb896",
      "start_name": "죽령탐방지원센터",
      "length_meter": 303.4,
      "time_minute": 5
    },
    {
      "path_id": 2,
      "path": [
        {
          "lat": 36.901875,
          "lng": 128.437454
        },
        {
          "lat": 36.904926,
          "lng": 128.439331
        }
      ],
      "color": "#2c1dbb",
      "start_name": "이야기 쉼터",
      "length_meter": 378.1,
      "time_minute": 6
    },
    {
      "path_id": 3,
      "path": [
        {
          "lat": 36.904926,
          "lng": 128.439331
        },
        {
          "lat": 36.908825,
          "lng": 128.442307
        }
      ],
      "color": "#4cad37",
      "start_name": "잣나무 쉼터",
      "length_meter": 507.9,
      "time_minute": 8
    },
    {
      "path_id": 4,
      "path": [
        {
          "lat": 36.908825,
          "lng": 128.442307
        },
        {
          "lat": 36.912952,
          "lng": 128.443787
        }
      ],
      "color": "#6daa4c",
      "start_name": "혜성쉼터",
      "length_meter": 477.4,
      "time_minute": 7
    },
    {
      "path_id": 5,
      "path": [
        {
          "lat": 36.912952,
          "lng": 128.443787
        },
        {
          "lat": 36.926086,
          "lng": 128.44162
        }
      ],
      "color": "#ba704a",
      "start_name": "천왕성 바람고개 전망대",
      "length_meter": 1473.1,
      "time_minute": 24
    },
    {
      "path_id": 6,
      "path": [
        {
          "lat": 36.926086,
          "lng": 128.44162
        },
        {
          "lat": 36.929768,
          "lng": 128.440277
        }
      ],
      "color": "#bb6b58",
      "start_name": "갈림길 / 백두대간 제2연화봉",
      "length_meter": 427.1,
      "time_minute": 7
    },
    {
      "path_id": 7,
      "path": [
        {
          "lat": 36.929768,
          "lng": 128.440277
        },
        {
          "lat": 36.929573,
          "lng": 128.447067
        }
      ],
      "color": "#544988",
      "start_name": "토성전망대",
      "length_meter": 603.9,
      "time_minute": 10
    },
    {
      "path_id": 8,
      "path": [
        {
          "lat": 36.929573,
          "lng": 128.447067
        },
        {
          "lat": 36.931541,
          "lng": 128.453232
        }
      ],
      "color": "#585f88",
      "start_name": "목성숲 쉼터",
      "length_meter": 590.1,
      "time_minute": 9
    },
    {
      "path_id": 9,
      "path": [
        {
          "lat": 36.931541,
          "lng": 128.453232
        },
        {
          "lat": 36.934555,
          "lng": 128.455917
        }
      ],
      "color": "#35563d",
      "start_name": "소행성 남무쉼터",
      "length_meter": 411.4,
      "time_minute": 6
    },
    {
      "path_id": 10,
      "path": [
        {
          "lat": 36.934555,
          "lng": 128.455917
        },
        {
          "lat": 36.934486,
          "lng": 128.457764
        }
      ],
      "color": "#755545",
      "start_name": "화성 별동산 쉼터 / 소백산 천문대",
      "length_meter": 166.1,
      "time_minute": 2
    },
    {
      "path_id": 11,
      "path": [
        {
          "lat": 36.934486,
          "lng": 128.457764
        },
        {
          "lat": 36.934502,
          "lng": 128.458557
        }
      ],
      "color": "#c16306",
      "start_name": "지구마을 쉼터",
      "length_meter": 70.5,
      "time_minute": 1
    },
    {
      "path_id": 12,
      "path": [
        {
          "lat": 36.934502,
          "lng": 128.458557
        },
        {
          "lat": 36.934189,
          "lng": 128.46051
        }
      ],
      "color": "#c59b87",
      "start_name": "마지막 화장실 / 갈림길",
      "length_meter": 177.1,
      "time_minute": 2
    },
    {
      "path_id": 13,
      "path": [
        {
          "lat": 36.934189,
          "lng": 128.46051
        },
        {
          "lat": 36.934208,
          "lng": 128.460739
        }
      ],
      "color": "#77885b",
      "start_name": "연화봉 / 갈림길",
      "length_meter": 30.4,
      "time_minute": 0
    },
    {
      "path_id": 14,
      "path": [
        {
          "lat": 36.934208,
          "lng": 128.460739
        },
        {
          "lat": 36.935368,
          "lng": 128.460373
        }
      ],
      "color": "#97b971",
      "start_name": "태양 해맞이전망대",
      "length_meter": 133.0,
      "time_minute": 2
    },
    {
      "path_id": 15,
      "path": [
        {
          "lat": 36.935368,
          "lng": 128.460373
        },
        {
          "lat": 36.946728,
          "lng": 128.46347
        }
      ],
      "color": "#16a4bd",
      "start_name": "갈림길",
      "length_meter": 1292.8,
      "time_minute": 21
    },
    {
      "path_id": 16,
      "path": [
        {
          "lat": 36.946728,
          "lng": 128.46347
        },
        {
          "lat": 36.94733,
          "lng": 128.463272
        }
      ],
      "color": "#6379a9",
      "start_name": "제1연화봉 전망대",
      "length_meter": 69.2,
      "time_minute": 1
    },
    {
      "path_id": 17,
      "path": [
        {
          "lat": 36.94733,
          "lng": 128.463272
        },
        {
          "lat": 36.951809,
          "lng": 128.467865
        }
      ],
      "color": "#1e1614",
      "start_name": "제1연화봉",
      "length_meter": 643.9,
      "time_minute": 10
    },
    {
      "path_id": 18,
      "path": [
        {
          "lat": 36.951809,
          "lng": 128.467865
        },
        {
          "lat": 36.953011,
          "lng": 128.470016
        }
      ],
      "color": "#8f5e7a",
      "start_name": "철쭉군락",
      "length_meter": 233.2,
      "time_minute": 3
    },
    {
      "path_id": 19,
      "path": [
        {
          "lat": 36.953011,
          "lng": 128.470016
        },
        {
          "lat": 36.954567,
          "lng": 128.472534
        }
      ],
      "color": "#710892",
      "start_name": "독수리바위?",
      "length_meter": 282.8,
      "time_minute": 4
    },
    {
      "path_id": 20,
      "path": [
        {
          "lat": 36.954567,
          "lng": 128.472534
        },
        {
          "lat": 36.957741,
          "lng": 128.478668
        }
      ],
      "color": "#71c2c2",
      "start_name": "전망대",
      "length_meter": 649.3,
      "time_minute": 10
    },
    {
      "path_id": 21,
      "path": [
        {
          "lat": 36.957741,
          "lng": 128.478668
        },
        {
          "lat": 36.957451,
          "lng": 128.484924
        }
      ],
      "color": "#b16277",
      "start_name": "갈림길 / 전망대",
      "length_meter": 557.1,
      "time_minute": 9
    },
    {
      "path_id": 22,
      "path": [
        {
          "lat": 36.957451,
          "lng": 128.484924
        },
        {
          "lat": 36.958065,
          "lng": 128.483139
        }
      ],
      "color": "#410568",
      "start_name": "비로봉 / 갈림길",
      "length_meter": 172.7,
      "time_minute": 2
    },
    {
      "path_id": 23,
      "path": [
        {
          "lat": 36.958065,
          "lng": 128.483139
        },
        {
          "lat": 36.957932,
          "lng": 128.478745
        }
      ],
      "color": "#3e11b7",
      "start_name": "전망대",
      "length_meter": 390.7,
      "time_minute": 6
    },
    {
      "path_id": 24,
      "path": [
        {
          "lat": 36.957932,
          "lng": 128.478745
        },
        {
          "lat": 36.959026,
          "lng": 128.476364
        }
      ],
      "color": "#2a5d7b",
      "start_name": "갈림길",
      "length_meter": 244.0,
      "time_minute": 4
    },
    {
      "path_id": 25,
      "path": [
        {
          "lat": 36.959026,
          "lng": 128.476364
        },
        {
          "lat": 36.959576,
          "lng": 128.474869
        }
      ],
      "color": "#7039b1",
      "start_name": "쉼터 / 고사목",
      "length_meter": 155.9,
      "time_minute": 2
    },
    {
      "path_id": 26,
      "path": [
        {
          "lat": 36.959576,
          "lng": 128.474869
        },
        {
          "lat": 36.960022,
          "lng": 128.467331
        }
      ],
      "color": "#c2a181",
      "start_name": "전나무숲",
      "length_meter": 671.6,
      "time_minute": 11
    },
    {
      "path_id": 27,
      "path": [
        {
          "lat": 36.960022,
          "lng": 128.467331
        },
        {
          "lat": 36.96011,
          "lng": 128.46347
        }
      ],
      "color": "#355f1f",
      "start_name": "쉼터 / 샘터",
      "length_meter": 343.6,
      "time_minute": 5
    },
    {
      "path_id": 28,
      "path": [
        {
          "lat": 36.96011,
          "lng": 128.46347
        },
        {
          "lat": 36.959618,
          "lng": 128.462189
        }
      ],
      "color": "#0082c5",
      "start_name": "민백이 대궐터 / 쉼터",
      "length_meter": 126.3,
      "time_minute": 2
    },
    {
      "path_id": 29,
      "path": [
        {
          "lat": 36.959618,
          "lng": 128.462189
        },
        {
          "lat": 36.959808,
          "lng": 128.45723
        }
      ],
      "color": "#b4780c",
      "start_name": "천동쉼터",
      "length_meter": 441.1,
      "time_minute": 7
    },
    {
      "path_id": 30,
      "path": [
        {
          "lat": 36.959808,
          "lng": 128.45723
        },
        {
          "lat": 36.959999,
          "lng": 128.444
        }
      ],
      "color": "#a19c77",
      "start_name": "쉼터",
      "length_meter": 1175.7,
      "time_minute": 19
    },
    {
      "path_id": 31,
      "path": [
        {
          "lat": 36.959999,
          "lng": 128.444
        },
        {
          "lat": 36.960285,
          "lng": 128.440598
        }
      ],
      "color": "#a54e66",
      "start_name": "천동계곡",
      "length_meter": 303.9,
      "time_minute": 5
    },
    {
      "path_id": 32,
      "path": [
        {
          "lat": 36.960285,
          "lng": 128.440598
        },
        {
          "lat": 36.959843,
          "lng": 128.427643
        }
      ],
      "color": "#c1170f",
      "start_name": "쉼터",
      "length_meter": 1152.1,
      "time_minute": 19
    },
    {
      "path_id": 33,
      "path": [
        {
          "lat": 36.959843,
          "lng": 128.427643
        },
        {
          "lat": 36.962234,
          "lng": 128.423233
        }
      ],
      "color": "#58220b",
      "start_name": "천동탐방안내소",
      "length_meter": 473.5,
      "time_minute": 7
    },
    {
      "path_id": 34,
      "path": [
        {
          "lat": 36.962234,
          "lng": 128.423233
        },
        {
          "lat": 36.96302,
          "lng": 128.423492
        }
      ],
      "color": "#a42b34",
      "start_name": "쉼터",
      "length_meter": 90.4,
      "time_minute": 1
    },
    {
      "path_id": 35,
      "path": [
        {
          "lat": 36.96302,
          "lng": 128.423492
        },
        {
          "lat": 36.96323,
          "lng": 128.422791
        }
      ],
      "color": "#41a712",
      "start_name": "낙석위험",
      "length_meter": 66.5,
      "time_minute": 1
    },
    {
      "path_id": 36,
      "path": [
        {
          "lat": 36.96323,
          "lng": 128.422791
        },
        {
          "lat": 36.96468,
          "lng": 128.420914
        }
      ],
      "color": "#083082",
      "start_name": "갈림길",
      "length_meter": 232.0,
      "time_minute": 3
    },
    {
      "path_id": 37,
      "path": [
        {
          "lat": 36.96468,
          "lng": 128.420914
        },
        {
          "lat": 36.965286,
          "lng": 128.420547
        }
      ],
      "color": "#596879",
      "start_name": "소백산 매점",
      "length_meter": 74.9,
      "time_minute": 1
    }
  ]
}