[
  {
    "path_id": 0,
    "path": [
      {
        "lat": 36.965378,
        "lng": 128.420624
      },
      {
        "lat": 36.964428,
        "lng": 128.421524
      }
    ],
    "color": "#055c4e",
    "start_name": "다리안관광지 주차장 / 소백산 매점",
    "length_meter": 132.7,
    "time_minute": 2
  },
  {
    "path_id": 1,
    "path": [
      {
        "lat": 36.964428,
        "lng": 128.421524
      },
      {
        "lat": 36.963333,
        "lng": 128.422882
      }
    ],
    "color": "#16b23c",
    "start_name": "화장실 / 갈림길",
    "length_meter": 171.7,
    "time_minute": 2
  },
  {
    "path_id": 2,
    "path": [
      {
        "lat": 36.963333,
        "lng": 128.422882
      },
      {
        "lat": 36.959827,
        "lng": 128.427826
      }
    ],
    "color": "#5bb887",
    "start_name": "천동탐방지원센터 소백산 등산로 입구 / 낙석위험지역",
    "length_meter": 589.3,
    "time_minute": 9
  },
  {
    "path_id": 3,
    "path": [
      {
        "lat": 36.959827,
        "lng": 128.427826
      },
      {
        "lat": 36.959694,
        "lng": 128.461777
      }
    ],
    "color": "#540251",
    "start_name": "탐방안내소 쉼터",
    "length_meter": 3016.6,
    "time_minute": 50
  },
  {
    "path_id": 4,
    "path": [
      {
        "lat": 36.959694,
        "lng": 128.461777
      },
      {
        "lat": 36.960136,
        "lng": 128.467377
      }
    ],
    "color": "#8ac039",
    "start_name": "천동쉼터",
    "length_meter": 500.0,
    "time_minute": 8
  },
  {
    "path_id": 5,
    "path": [
      {
        "lat": 36.960136,
        "lng": 128.467377
      },
      {
        "lat": 36.959412,
        "lng": 128.475815
      }
    ],
    "color": "#6b5110",
    "start_name": "샘터",
    "length_meter": 754.0,
    "time_minute": 12
  },
  {
    "path_id": 6,
    "path": [
      {
        "lat": 36.959412,
        "lng": 128.475815
      },
      {
        "lat": 36.959053,
        "lng": 128.476257
      }
    ],
    "color": "#666818",
    "start_name": "주목",
    "length_meter": 56.0,
    "time_minute": 0
  },
  {
    "path_id": 7,
    "path": [
      {
        "lat": 36.959053,
        "lng": 128.476257
      },
      {
        "lat": 36.957855,
        "lng": 128.478622
      }
    ],
    "color": "#1796b0",
    "start_name": "소백산 주목군락",
    "length_meter": 248.8,
    "time_minute": 4
  },
  {
    "path_id": 8,
    "path": [
      {
        "lat": 36.957855,
        "lng": 128.478622
      },
      {
        "lat": 36.958378,
        "lng": 128.480453
      }
    ],
    "color": "#4b013d",
    "start_name": "갈림길 / 조망쉼터",
    "length_meter": 176.3,
    "time_minute": 2
  },
  {
    "path_id": 9,
    "path": [
      {
        "lat": 36.958378,
        "lng": 128.480453
      },
      {
        "lat": 36.958111,
        "lng": 128.481369
      }
    ],
    "color": "#9cab94",
    "start_name": "주목감시초소",
    "length_meter": 86.6,
    "time_minute": 1
  },
  {
    "path_id": 10,
    "path": [
      {
        "lat": 36.958111,
        "lng": 128.481369
      },
      {
        "lat": 36.958214,
        "lng": 128.481873
      }
    ],
    "color": "#878d53",
    "start_name": "조망쉼터",
    "length_meter": 46.2,
    "time_minute": 0
  },
  {
    "path_id": 11,
    "path": [
      {
        "lat": 36.958214,
        "lng": 128.481873
      },
      {
        "lat": 36.957561,
        "lng": 128.484879
      }
    ],
    "color": "#88adb2",
    "start_name": "주목군락",
    "length_meter": 276.8,
    "time_minute": 4
  },
  {
    "path_id": 12,
    "path": [
      {
        "lat": 36.957561,
        "lng": 128.484879
      },
      {
        "lat": 36.957443,
        "lng": 128.484726
      }
    ],
    "color": "#439540",
    "start_name": "갈림길",
    "length_meter": 18.9,
    "time_minute": 0
  },
  {
    "path_id": 13,
    "path": [
      {
        "lat": 36.957443,
        "lng": 128.484726
      },
      {
        "lat": 36.957977,
        "lng": 128.478851
      }
    ],
    "color": "#c57a77",
    "start_name": "소백산 비로봉",
    "length_meter": 525.4,
    "time_minute": 8
  },
  {
    "path_id": 14,
    "path": [
      {
        "lat": 36.957977,
        "lng": 128.478851
      },
      {
        "lat": 36.960167,
        "lng": 128.463348
      }
    ],
    "color": "#5a7f6c",
    "start_name": "갈림길",
    "length_meter": 1398.8,
    "time_minute": 23
  },
  {
    "path_id": 15,
    "path": [
      {
        "lat": 36.960167,
        "lng": 128.463348
      },
      {
        "lat": 36.959724,
        "lng": 128.445663
      }
    ],
    "color": "#abc6a1",
    "start_name": "민백이 대궐터",
    "length_meter": 1572.1,
    "time_minute": 26
  },
  {
    "path_id": 16,
    "path": [
      {
        "lat": 36.959724,
        "lng": 128.445663
      },
      {
        "lat": 36.959774,
        "lng": 128.42746
      }
    ],
    "color": "#2197a9",
    "start_name": "화장실",
    "length_meter": 1617.4,
    "time_minute": 26
  },
  {
    "path_id": 17,
    "path": [
      {
        "lat": 36.959774,
        "lng": 128.42746
      },
      {
        "lat": 36.963184,
        "lng": 128.422775
      }
    ],
    "color": "#7f9345",
    "start_name": "천동탐방안내소",
    "length_meter": 563.1,
    "time_minute": 9
  },
  {
    "path_id": 18,
    "path": [
      {
        "lat": 36.963184,
        "lng": 128.422775
      },
      {
        "lat": 36.963009,
        "lng": 128.422195
      }
    ],
    "color": "#8d0d58",
    "start_name": "갈림길 / 다리안폭포",
    "length_meter": 100.4,
    "time_minute": 1
  },
  {
    "path_id": 19,
    "path": [
      {
        "lat": 36.963009,
        "lng": 128.422195
      },
      {
        "lat": 36.963074,
        "lng": 128.42131
      }
    ],
    "color": "#3e9e08",
    "start_name": "거북이바위?",
    "length_meter": 79.0,
    "time_minute": 1
  },
  {
    "path_id": 20,
    "path": [
      {
        "lat": 36.963074,
        "lng": 128.42131
      },
      {
        "lat": 36.963383,
        "lng": 128.420456
      }
    ],
    "color": "#bf211a",
    "start_name": "다리안 야영장",
    "length_meter": 83.3,
    "time_minute": 1
  },
  {
    "path_id": 21,
    "path": [
      {
        "lat": 36.963383,
        "lng": 128.420456
      },
      {
        "lat": 36.965347,
        "lng": 128.420593
      }
    ],
    "color": "#90bf98",
    "start_name": "야영장",
    "length_meter": 218.7,
    "time_minute": 3
  },
  {
    "path_id": 22,
    "path": [
      {
        "lat": 36.965347,
        "lng": 128.420593
      },
      {
        "lat": 36.965275,
        "lng": 128.420593
      }
    ],
    "color": "#4c3b9f",
    "start_name": "갈림길",
    "length_meter": 8.0,
    "time_minute": 0
  }
]