[
  {
    "path_id": 0,
    "path": [
      {
        "lat": 36.965378,
        "lng": 128.420624
      },
      {
        "lat": 36.964428,
        "lng": 128.421524
      }
    ],
    "color": "#1683c6",
    "start_name": "다리안관광지 주차장 / 소백산 매점",
    "length_meter": 132.7,
    "time_minute": 2
  },
  {
    "path_id": 1,
    "path": [
      {
        "lat": 36.964428,
        "lng": 128.421524
      },
      {
        "lat": 36.963333,
        "lng": 128.422882
      }
    ],
    "color": "#6b9b43",
    "start_name": "화장실 / 갈림길",
    "length_meter": 171.7,
    "time_minute": 2
  },
  {
    "path_id": 2,
    "path": [
      {
        "lat": 36.963333,
        "lng": 128.422882
      },
      {
        "lat": 36.959827,
        "lng": 128.427826
      }
    ],
    "color": "#a56463",
    "start_name": "천동탐방지원센터 소백산 등산로 입구 / 낙석위험지역",
    "length_meter": 589.3,
    "time_minute": 9
  },
  {
    "path_id": 3,
    "path": [
      {
        "lat": 36.959827,
        "lng": 128.427826
      },
      {
        "lat": 36.959694,
        "lng": 128.461777
      }
    ],
    "color": "#f7a8c9",
    "start_name": "탐방안내소 쉼터",
    "length_meter": 3016.6,
    "time_minute": 50
  },
  {
    "path_id": 4,
    "path": [
      {
        "lat": 36.959694,
        "lng": 128.461777
      },
      {
        "lat": 36.960136,
        "lng": 128.467377
      }
    ],
    "color": "#bd78a0",
    "start_name": "천동쉼터",
    "length_meter": 500.0,
    "time_minute": 8
  },
  {
    "path_id": 5,
    "path": [
      {
        "lat": 36.960136,
        "lng": 128.467377
      },
      {
        "lat": 36.959412,
        "lng": 128.475815
      }
    ],
    "color": "#a5a719",
    "start_name": "샘터",
    "length_meter": 754.0,
    "time_minute": 12
  },
  {
    "path_id": 6,
    "path": [
      {
        "lat": 36.959412,
        "lng": 128.475815
      },
      {
        "lat": 36.957855,
        "lng": 128.478622
      }
    ],
    "color": "#afe7cb",
    "start_name": "주목 / 소백산 주목군락",
    "length_meter": 304.8,
    "time_minute": 5
  },
  {
    "path_id": 7,
    "path": [
      {
        "lat": 36.957855,
        "lng": 128.478622
      },
      {
        "lat": 36.958378,
        "lng": 128.480453
      }
    ],
    "color": "#ba7098",
    "start_name": "갈림길 / 조망쉼터",
    "length_meter": 176.3,
    "time_minute": 2
  },
  {
    "path_id": 8,
    "path": [
      {
        "lat": 36.958378,
        "lng": 128.480453
      },
      {
        "lat": 36.958111,
        "lng": 128.481369
      }
    ],
    "color": "#a68a77",
    "start_name": "주목감시초소",
    "length_meter": 86.6,
    "time_minute": 1
  },
  {
    "path_id": 9,
    "path": [
      {
        "lat": 36.958111,
        "lng": 128.481369
      },
      {
        "lat": 36.957561,
        "lng": 128.484879
      }
    ],
    "color": "#07e42f",
    "start_name": "조망쉼터 / 주목군락",
    "length_meter": 323.0,
    "time_minute": 5
  },
  {
    "path_id": 10,
    "path": [
      {
        "lat": 36.957561,
        "lng": 128.484879
      },
      {
        "lat": 36.957977,
        "lng": 128.478851
      }
    ],
    "color": "#308a7f",
    "start_name": "갈림길 / 소백산 비로봉",
    "length_meter": 544.3,
    "time_minute": 9
  },
  {
    "path_id": 11,
    "path": [
      {
        "lat": 36.957977,
        "lng": 128.478851
      },
      {
        "lat": 36.960167,
        "lng": 128.463348
      }
    ],
    "color": "#879bab",
    "start_name": "갈림길",
    "length_meter": 1398.8,
    "time_minute": 23
  },
  {
    "path_id": 12,
    "path": [
      {
        "lat": 36.960167,
        "lng": 128.463348
      },
      {
        "lat": 36.959724,
        "lng": 128.445663
      }
    ],
    "color": "#bd6099",
    "start_name": "민백이 대궐터",
    "length_meter": 1572.1,
    "time_minute": 26
  },
  {
    "path_id": 13,
    "path": [
      {
        "lat": 36.959724,
        "lng": 128.445663
      },
      {
        "lat": 36.959774,
        "lng": 128.42746
      }
    ],
    "color": "#a9f444",
    "start_name": "화장실",
    "length_meter": 1617.4,
    "time_minute": 26
  },
  {
    "path_id": 14,
    "path": [
      {
        "lat": 36.959774,
        "lng": 128.42746
      },
      {
        "lat": 36.963184,
        "lng": 128.422775
      }
    ],
    "color": "#b62ef4",
    "start_name": "천동탐방안내소",
    "length_meter": 563.1,
    "time_minute": 9
  },
  {
    "path_id": 15,
    "path": [
      {
        "lat": 36.963184,
        "lng": 128.422775
      },
      {
        "lat": 36.963009,
        "lng": 128.422195
      }
    ],
    "color": "#aab731",
    "start_name": "갈림길 / 다리안폭포",
    "length_meter": 100.4,
    "time_minute": 1
  },
  {
    "path_id": 16,
    "path": [
      {
        "lat": 36.963009,
        "lng": 128.422195
      },
      {
        "lat": 36.963074,
        "lng": 128.42131
      }
    ],
    "color": "#b92028",
    "start_name": "거북이바위?",
    "length_meter": 79.0,
    "time_minute": 1
  },
  {
    "path_id": 17,
    "path": [
      {
        "lat": 36.963074,
        "lng": 128.42131
      },
      {
        "lat": 36.963383,
        "lng": 128.420456
      }
    ],
    "color": "#819166",
    "start_name": "다리안 야영장",
    "length_meter": 83.3,
    "time_minute": 1
  },
  {
    "path_id": 18,
    "path": [
      {
        "lat": 36.963383,
        "lng": 128.420456
      },
      {
        "lat": 36.965347,
        "lng": 128.420593
      }
    ],
    "color": "#3610da",
    "start_name": "야영장",
    "length_meter": 218.7,
    "time_minute": 3
  },
  {
    "path_id": 19,
    "path": [
      {
        "lat": 36.965347,
        "lng": 128.420593
      },
      {
        "lat": 36.965275,
        "lng": 128.420593
      }
    ],
    "color": "#55592b",
    "start_name": "갈림길",
    "length_meter": 8.0,
    "time_minute": 0
  }
]