[
  {
    "path_id": 0,
    "path": [
      {
        "lat": 35.837032,
        "lng": 129.219666
      },
      {
        "lat": 35.835674,
        "lng": 129.219772
      }
    ],
    "color": "#e2527b",
    "start_name": "버스 / 교동본가설렁탕 / 2대째 경주손칼국수",
    "length_meter": 154.4,
    "time_minute": 2
  },
  {
    "path_id": 1,
    "path": [
      {
        "lat": 35.835674,
        "lng": 129.219772
      },
      {
        "lat": 35.83456,
        "lng": 129.218735
      }
    ],
    "color": "#ef9349",
    "start_name": "핑크뮬리",
    "length_meter": 155.2,
    "time_minute": 2
  },
  {
    "path_id": 2,
    "path": [
      {
        "lat": 35.83456,
        "lng": 129.218735
      },
      {
        "lat": 35.832706,
        "lng": 129.219467
      }
    ],
    "color": "#e9deb8",
    "start_name": "경주 첨성대 / 대릉원",
    "length_meter": 217.7,
    "time_minute": 3
  },
  {
    "path_id": 3,
    "path": [
      {
        "lat": 35.832706,
        "lng": 129.219467
      },
      {
        "lat": 35.830803,
        "lng": 129.217911
      }
    ],
    "color": "#e50556",
    "start_name": "경주 계림",
    "length_meter": 253.9,
    "time_minute": 4
  },
  {
    "path_id": 4,
    "path": [
      {
        "lat": 35.830803,
        "lng": 129.217911
      },
      {
        "lat": 35.830238,
        "lng": 129.21785
      }
    ],
    "color": "#7d5446",
    "start_name": "월정거리 마트 / 경주 향교",
    "length_meter": 82.8,
    "time_minute": 1
  },
  {
    "path_id": 5,
    "path": [
      {
        "lat": 35.830238,
        "lng": 129.21785
      },
      {
        "lat": 35.831303,
        "lng": 129.218292
      }
    ],
    "color": "#b00951",
    "start_name": "월정교",
    "length_meter": 124.9,
    "time_minute": 2
  },
  {
    "path_id": 6,
    "path": [
      {
        "lat": 35.831303,
        "lng": 129.218292
      },
      {
        "lat": 35.831474,
        "lng": 129.220627
      }
    ],
    "color": "#e402e9",
    "start_name": "단풍",
    "length_meter": 211.4,
    "time_minute": 3
  },
  {
    "path_id": 7,
    "path": [
      {
        "lat": 35.831474,
        "lng": 129.220627
      },
      {
        "lat": 35.833054,
        "lng": 129.224014
      }
    ],
    "color": "#3d6da0",
    "start_name": "경주 월성",
    "length_meter": 352.3,
    "time_minute": 5
  },
  {
    "path_id": 8,
    "path": [
      {
        "lat": 35.833054,
        "lng": 129.224014
      },
      {
        "lat": 35.83326,
        "lng": 129.224701
      }
    ],
    "color": "#ba1ad8",
    "start_name": "경주 석빙고",
    "length_meter": 66.0,
    "time_minute": 1
  },
  {
    "path_id": 9,
    "path": [
      {
        "lat": 35.83326,
        "lng": 129.224701
      },
      {
        "lat": 35.833099,
        "lng": 129.226822
      }
    ],
    "color": "#3cc5f6",
    "start_name": "경주 월성 발굴조사지역",
    "length_meter": 192.0,
    "time_minute": 3
  },
  {
    "path_id": 10,
    "path": [
      {
        "lat": 35.833099,
        "lng": 129.226822
      },
      {
        "lat": 35.830959,
        "lng": 129.22905
      }
    ],
    "color": "#db558e",
    "start_name": "화장실 / 동궁과 월지",
    "length_meter": 313.2,
    "time_minute": 5
  },
  {
    "path_id": 11,
    "path": [
      {
        "lat": 35.830959,
        "lng": 129.22905
      },
      {
        "lat": 35.829937,
        "lng": 129.225632
      }
    ],
    "color": "#45b1d6",
    "start_name": "국립경주박물관",
    "length_meter": 328.4,
    "time_minute": 5
  },
  {
    "path_id": 12,
    "path": [
      {
        "lat": 35.829937,
        "lng": 129.225632
      },
      {
        "lat": 35.82515,
        "lng": 129.225662
      }
    ],
    "color": "#96c0f5",
    "start_name": "동남산 가는길 안내도",
    "length_meter": 532.3,
    "time_minute": 8
  },
  {
    "path_id": 13,
    "path": [
      {
        "lat": 35.82515,
        "lng": 129.225662
      },
      {
        "lat": 35.825291,
        "lng": 129.224625
      }
    ],
    "color": "#85f857",
    "start_name": "갈림길 / 고운대",
    "length_meter": 103.1,
    "time_minute": 1
  },
  {
    "path_id": 14,
    "path": [
      {
        "lat": 35.825291,
        "lng": 129.224625
      },
      {
        "lat": 35.817608,
        "lng": 129.225449
      }
    ],
    "color": "#5afbb5",
    "start_name": "상서장",
    "length_meter": 857.5,
    "time_minute": 14
  },
  {
    "path_id": 15,
    "path": [
      {
        "lat": 35.817608,
        "lng": 129.225449
      },
      {
        "lat": 35.814281,
        "lng": 129.227783
      }
    ],
    "color": "#59f7b7",
    "start_name": "갈림길",
    "length_meter": 425.6,
    "time_minute": 7
  },
  {
    "path_id": 16,
    "path": [
      {
        "lat": 35.814281,
        "lng": 129.227783
      },
      {
        "lat": 35.812817,
        "lng": 129.228104
      }
    ],
    "color": "#a71684",
    "start_name": "경주 남한신성",
    "length_meter": 165.3,
    "time_minute": 2
  },
  {
    "path_id": 17,
    "path": [
      {
        "lat": 35.812817,
        "lng": 129.228104
      },
      {
        "lat": 35.800076,
        "lng": 129.229446
      }
    ],
    "color": "#9f1406",
    "start_name": "갈림길",
    "length_meter": 1421.9,
    "time_minute": 23
  },
  {
    "path_id": 18,
    "path": [
      {
        "lat": 35.800076,
        "lng": 129.229446
      },
      {
        "lat": 35.79755,
        "lng": 129.229599
      }
    ],
    "color": "#bd36d0",
    "start_name": "자연경관",
    "length_meter": 281.2,
    "time_minute": 4
  },
  {
    "path_id": 19,
    "path": [
      {
        "lat": 35.79755,
        "lng": 129.229599
      },
      {
        "lat": 35.79348,
        "lng": 129.227646
      }
    ],
    "color": "#4508ba",
    "start_name": "갈림길",
    "length_meter": 485.6,
    "time_minute": 8
  },
  {
    "path_id": 20,
    "path": [
      {
        "lat": 35.79348,
        "lng": 129.227646
      },
      {
        "lat": 35.790295,
        "lng": 129.226074
      }
    ],
    "color": "#baf521",
    "start_name": "상사바위 / 토함산",
    "length_meter": 383.5,
    "time_minute": 6
  },
  {
    "path_id": 21,
    "path": [
      {
        "lat": 35.790295,
        "lng": 129.226074
      },
      {
        "lat": 35.788807,
        "lng": 129.223816
      }
    ],
    "color": "#4f8cc7",
    "start_name": "갈림길",
    "length_meter": 262.4,
    "time_minute": 4
  },
  {
    "path_id": 22,
    "path": [
      {
        "lat": 35.788807,
        "lng": 129.223816
      },
      {
        "lat": 35.788952,
        "lng": 129.222733
      }
    ],
    "color": "#8a8fd7",
    "start_name": "화장실 / 갈림길",
    "length_meter": 99.0,
    "time_minute": 1
  },
  {
    "path_id": 23,
    "path": [
      {
        "lat": 35.788952,
        "lng": 129.222733
      },
      {
        "lat": 35.787064,
        "lng": 129.22319
      }
    ],
    "color": "#437093",
    "start_name": "남산과 망산의 유래 / 금오산",
    "length_meter": 215.6,
    "time_minute": 3
  },
  {
    "path_id": 24,
    "path": [
      {
        "lat": 35.787064,
        "lng": 129.22319
      },
      {
        "lat": 35.784103,
        "lng": 129.223526
      }
    ],
    "color": "#0ab647",
    "start_name": "갈림길",
    "length_meter": 330.6,
    "time_minute": 5
  },
  {
    "path_id": 25,
    "path": [
      {
        "lat": 35.784103,
        "lng": 129.223526
      },
      {
        "lat": 35.783295,
        "lng": 129.225327
      }
    ],
    "color": "#1ac606",
    "start_name": "남산 탐방로 안내도",
    "length_meter": 185.6,
    "time_minute": 3
  },
  {
    "path_id": 26,
    "path": [
      {
        "lat": 35.783295,
        "lng": 129.225327
      },
      {
        "lat": 35.781815,
        "lng": 129.22905
      }
    ],
    "color": "#c6136c",
    "start_name": "고위봉 / 삼화령의 유래 / 삼화령에서 고위봉",
    "length_meter": 375.1,
    "time_minute": 6
  },
  {
    "path_id": 27,
    "path": [
      {
        "lat": 35.781815,
        "lng": 129.22905
      },
      {
        "lat": 35.784225,
        "lng": 129.233704
      }
    ],
    "color": "#dc1d99",
    "start_name": "갈림길",
    "length_meter": 498.1,
    "time_minute": 8
  },
  {
    "path_id": 28,
    "path": [
      {
        "lat": 35.784225,
        "lng": 129.233704
      },
      {
        "lat": 35.787872,
        "lng": 129.23558
      }
    ],
    "color": "#443513",
    "start_name": "약수터",
    "length_meter": 439.4,
    "time_minute": 7
  },
  {
    "path_id": 29,
    "path": [
      {
        "lat": 35.787872,
        "lng": 129.23558
      },
      {
        "lat": 35.789948,
        "lng": 129.238129
      }
    ],
    "color": "#18a2c5",
    "start_name": "갈림길",
    "length_meter": 325.8,
    "time_minute": 5
  },
  {
    "path_id": 30,
    "path": [
      {
        "lat": 35.789948,
        "lng": 129.238129
      },
      {
        "lat": 35.791019,
        "lng": 129.238983
      }
    ],
    "color": "#452eb3",
    "start_name": "화장실",
    "length_meter": 141.8,
    "time_minute": 2
  },
  {
    "path_id": 31,
    "path": [
      {
        "lat": 35.791019,
        "lng": 129.238983
      },
      {
        "lat": 35.793457,
        "lng": 129.242615
      }
    ],
    "color": "#52487a",
    "start_name": "갈림길 / 동남산탕방지원센터",
    "length_meter": 425.3,
    "time_minute": 7
  },
  {
    "path_id": 32,
    "path": [
      {
        "lat": 35.793457,
        "lng": 129.242615
      },
      {
        "lat": 35.795227,
        "lng": 129.242035
      }
    ],
    "color": "#3aebf3",
    "start_name": "남산휴게소",
    "length_meter": 203.6,
    "time_minute": 3
  },
  {
    "path_id": 33,
    "path": [
      {
        "lat": 35.795227,
        "lng": 129.242035
      },
      {
        "lat": 35.795773,
        "lng": 129.241714
      }
    ],
    "color": "#cca8be",
    "start_name": "서출지 순두부",
    "length_meter": 67.3,
    "time_minute": 1
  },
  {
    "path_id": 34,
    "path": [
      {
        "lat": 35.795773,
        "lng": 129.241714
      },
      {
        "lat": 35.796017,
        "lng": 129.24234
      }
    ],
    "color": "#63fbaf",
    "start_name": "범종각 / 무랑사 경내 / 무량사",
    "length_meter": 70.0,
    "time_minute": 1
  },
  {
    "path_id": 35,
    "path": [
      {
        "lat": 35.796017,
        "lng": 129.24234
      },
      {
        "lat": 35.796741,
        "lng": 129.242096
      }
    ],
    "color": "#477b27",
    "start_name": "서출지 / 이요당",
    "length_meter": 98.0,
    "time_minute": 1
  },
  {
    "path_id": 36,
    "path": [
      {
        "lat": 35.796741,
        "lng": 129.242096
      },
      {
        "lat": 35.797367,
        "lng": 129.242783
      }
    ],
    "color": "#a78108",
    "start_name": "서출지 내력 / 남산휴게소",
    "length_meter": 93.6,
    "time_minute": 1
  },
  {
    "path_id": 37,
    "path": [
      {
        "lat": 35.797367,
        "lng": 129.242783
      },
      {
        "lat": 35.797359,
        "lng": 129.24295
      }
    ],
    "color": "#5696ad",
    "start_name": "통일전 주차장",
    "length_meter": 15.1,
    "time_minute": 0
  }
]