[
  {
    "path_id": 0,
    "path": [
      {
        "lat": 35.837032,
        "lng": 129.219666
      },
      {
        "lat": 35.835674,
        "lng": 129.219772
      }
    ],
    "color": "#713070",
    "start_name": "버스 / 교동본가설렁탕 / 2대째 경주손칼국수",
    "length_meter": 154.4,
    "time_minute": 2
  },
  {
    "path_id": 1,
    "path": [
      {
        "lat": 35.835674,
        "lng": 129.219772
      },
      {
        "lat": 35.83456,
        "lng": 129.218735
      }
    ],
    "color": "#9f7427",
    "start_name": "핑크뮬리",
    "length_meter": 155.2,
    "time_minute": 2
  },
  {
    "path_id": 2,
    "path": [
      {
        "lat": 35.83456,
        "lng": 129.218735
      },
      {
        "lat": 35.832706,
        "lng": 129.219467
      }
    ],
    "color": "#5c896d",
    "start_name": "경주 첨성대 / 대릉원",
    "length_meter": 217.7,
    "time_minute": 3
  },
  {
    "path_id": 3,
    "path": [
      {
        "lat": 35.832706,
        "lng": 129.219467
      },
      {
        "lat": 35.830803,
        "lng": 129.217911
      }
    ],
    "color": "#160a81",
    "start_name": "경주 계림",
    "length_meter": 253.9,
    "time_minute": 4
  },
  {
    "path_id": 4,
    "path": [
      {
        "lat": 35.830803,
        "lng": 129.217911
      },
      {
        "lat": 35.830238,
        "lng": 129.21785
      }
    ],
    "color": "#b95835",
    "start_name": "월정거리 마트 / 경주 향교",
    "length_meter": 82.8,
    "time_minute": 1
  },
  {
    "path_id": 5,
    "path": [
      {
        "lat": 35.830238,
        "lng": 129.21785
      },
      {
        "lat": 35.831303,
        "lng": 129.218292
      }
    ],
    "color": "#035189",
    "start_name": "월정교",
    "length_meter": 124.9,
    "time_minute": 2
  },
  {
    "path_id": 6,
    "path": [
      {
        "lat": 35.831303,
        "lng": 129.218292
      },
      {
        "lat": 35.831474,
        "lng": 129.220627
      }
    ],
    "color": "#941a9d",
    "start_name": "단풍",
    "length_meter": 211.4,
    "time_minute": 3
  },
  {
    "path_id": 7,
    "path": [
      {
        "lat": 35.831474,
        "lng": 129.220627
      },
      {
        "lat": 35.833054,
        "lng": 129.224014
      }
    ],
    "color": "#c6a614",
    "start_name": "경주 월성",
    "length_meter": 352.3,
    "time_minute": 5
  },
  {
    "path_id": 8,
    "path": [
      {
        "lat": 35.833054,
        "lng": 129.224014
      },
      {
        "lat": 35.83326,
        "lng": 129.224701
      }
    ],
    "color": "#72528f",
    "start_name": "경주 석빙고",
    "length_meter": 66.0,
    "time_minute": 1
  },
  {
    "path_id": 9,
    "path": [
      {
        "lat": 35.83326,
        "lng": 129.224701
      },
      {
        "lat": 35.83305,
        "lng": 129.226974
      }
    ],
    "color": "#89ab60",
    "start_name": "경주 월성 발굴조사지역",
    "length_meter": 206.2,
    "time_minute": 3
  },
  {
    "path_id": 10,
    "path": [
      {
        "lat": 35.83305,
        "lng": 129.226974
      },
      {
        "lat": 35.830959,
        "lng": 129.22905
      }
    ],
    "color": "#043f5c",
    "start_name": "동궁과 월지",
    "length_meter": 298.5,
    "time_minute": 4
  },
  {
    "path_id": 11,
    "path": [
      {
        "lat": 35.830959,
        "lng": 129.22905
      },
      {
        "lat": 35.829937,
        "lng": 129.225632
      }
    ],
    "color": "#b89250",
    "start_name": "국립경주박물관",
    "length_meter": 328.4,
    "time_minute": 5
  },
  {
    "path_id": 12,
    "path": [
      {
        "lat": 35.829937,
        "lng": 129.225632
      },
      {
        "lat": 35.82515,
        "lng": 129.225662
      }
    ],
    "color": "#23c07c",
    "start_name": "동남산 가는길 안내도",
    "length_meter": 532.3,
    "time_minute": 8
  },
  {
    "path_id": 13,
    "path": [
      {
        "lat": 35.82515,
        "lng": 129.225662
      },
      {
        "lat": 35.825291,
        "lng": 129.224625
      }
    ],
    "color": "#a36c86",
    "start_name": "갈림길 / 고운대",
    "length_meter": 103.1,
    "time_minute": 1
  },
  {
    "path_id": 14,
    "path": [
      {
        "lat": 35.825291,
        "lng": 129.224625
      },
      {
        "lat": 35.817608,
        "lng": 129.225449
      }
    ],
    "color": "#422e53",
    "start_name": "상서장",
    "length_meter": 857.5,
    "time_minute": 14
  },
  {
    "path_id": 15,
    "path": [
      {
        "lat": 35.817608,
        "lng": 129.225449
      },
      {
        "lat": 35.814281,
        "lng": 129.227783
      }
    ],
    "color": "#421882",
    "start_name": "갈림길",
    "length_meter": 425.6,
    "time_minute": 7
  },
  {
    "path_id": 16,
    "path": [
      {
        "lat": 35.814281,
        "lng": 129.227783
      },
      {
        "lat": 35.812817,
        "lng": 129.228104
      }
    ],
    "color": "#507001",
    "start_name": "경주 남한신성",
    "length_meter": 165.3,
    "time_minute": 2
  },
  {
    "path_id": 17,
    "path": [
      {
        "lat": 35.812817,
        "lng": 129.228104
      },
      {
        "lat": 35.800076,
        "lng": 129.229446
      }
    ],
    "color": "#44714b",
    "start_name": "갈림길",
    "length_meter": 1421.9,
    "time_minute": 23
  },
  {
    "path_id": 18,
    "path": [
      {
        "lat": 35.800076,
        "lng": 129.229446
      },
      {
        "lat": 35.79755,
        "lng": 129.229599
      }
    ],
    "color": "#540c56",
    "start_name": "자연경관",
    "length_meter": 281.2,
    "time_minute": 4
  },
  {
    "path_id": 19,
    "path": [
      {
        "lat": 35.79755,
        "lng": 129.229599
      },
      {
        "lat": 35.79348,
        "lng": 129.227646
      }
    ],
    "color": "#6a1b4d",
    "start_name": "갈림길",
    "length_meter": 485.6,
    "time_minute": 8
  },
  {
    "path_id": 20,
    "path": [
      {
        "lat": 35.79348,
        "lng": 129.227646
      },
      {
        "lat": 35.793427,
        "lng": 129.227676
      }
    ],
    "color": "#a759a3",
    "start_name": "상사바위",
    "length_meter": 6.5,
    "time_minute": 0
  },
  {
    "path_id": 21,
    "path": [
      {
        "lat": 35.793427,
        "lng": 129.227676
      },
      {
        "lat": 35.790295,
        "lng": 129.226074
      }
    ],
    "color": "#569910",
    "start_name": "토함산",
    "length_meter": 377.0,
    "time_minute": 6
  },
  {
    "path_id": 22,
    "path": [
      {
        "lat": 35.790295,
        "lng": 129.226074
      },
      {
        "lat": 35.788952,
        "lng": 129.222733
      }
    ],
    "color": "#470545",
    "start_name": "갈림길",
    "length_meter": 336.3,
    "time_minute": 5
  },
  {
    "path_id": 23,
    "path": [
      {
        "lat": 35.788952,
        "lng": 129.222733
      },
      {
        "lat": 35.788921,
        "lng": 129.222702
      }
    ],
    "color": "#19874f",
    "start_name": "남산과 망산의 유래",
    "length_meter": 4.4,
    "time_minute": 0
  },
  {
    "path_id": 24,
    "path": [
      {
        "lat": 35.788921,
        "lng": 129.222702
      },
      {
        "lat": 35.787064,
        "lng": 129.22319
      }
    ],
    "color": "#b2bb61",
    "start_name": "금오산",
    "length_meter": 211.1,
    "time_minute": 3
  },
  {
    "path_id": 25,
    "path": [
      {
        "lat": 35.787064,
        "lng": 129.22319
      },
      {
        "lat": 35.784103,
        "lng": 129.223526
      }
    ],
    "color": "#a8554b",
    "start_name": "갈림길",
    "length_meter": 330.6,
    "time_minute": 5
  },
  {
    "path_id": 26,
    "path": [
      {
        "lat": 35.784103,
        "lng": 129.223526
      },
      {
        "lat": 35.783295,
        "lng": 129.225327
      }
    ],
    "color": "#18350b",
    "start_name": "남산 탐방로 안내도",
    "length_meter": 185.6,
    "time_minute": 3
  },
  {
    "path_id": 27,
    "path": [
      {
        "lat": 35.783295,
        "lng": 129.225327
      },
      {
        "lat": 35.783062,
        "lng": 129.225693
      }
    ],
    "color": "#c0a642",
    "start_name": "고위봉 / 삼화령의 유래",
    "length_meter": 42.1,
    "time_minute": 0
  },
  {
    "path_id": 28,
    "path": [
      {
        "lat": 35.783062,
        "lng": 129.225693
      },
      {
        "lat": 35.781815,
        "lng": 129.22905
      }
    ],
    "color": "#c7983e",
    "start_name": "삼화령에서 고위봉",
    "length_meter": 333.1,
    "time_minute": 5
  },
  {
    "path_id": 29,
    "path": [
      {
        "lat": 35.781815,
        "lng": 129.22905
      },
      {
        "lat": 35.784225,
        "lng": 129.233704
      }
    ],
    "color": "#7aabbc",
    "start_name": "갈림길",
    "length_meter": 498.1,
    "time_minute": 8
  },
  {
    "path_id": 30,
    "path": [
      {
        "lat": 35.784225,
        "lng": 129.233704
      },
      {
        "lat": 35.787872,
        "lng": 129.23558
      }
    ],
    "color": "#2a5974",
    "start_name": "약수터",
    "length_meter": 439.4,
    "time_minute": 7
  },
  {
    "path_id": 31,
    "path": [
      {
        "lat": 35.787872,
        "lng": 129.23558
      },
      {
        "lat": 35.791248,
        "lng": 129.239273
      }
    ],
    "color": "#39b605",
    "start_name": "갈림길",
    "length_meter": 501.9,
    "time_minute": 8
  },
  {
    "path_id": 32,
    "path": [
      {
        "lat": 35.791248,
        "lng": 129.239273
      },
      {
        "lat": 35.793457,
        "lng": 129.242615
      }
    ],
    "color": "#493c5e",
    "start_name": "동남산탕방지원센터",
    "length_meter": 388.8,
    "time_minute": 6
  },
  {
    "path_id": 33,
    "path": [
      {
        "lat": 35.793457,
        "lng": 129.242615
      },
      {
        "lat": 35.795227,
        "lng": 129.242035
      }
    ],
    "color": "#3c962c",
    "start_name": "남산휴게소",
    "length_meter": 203.6,
    "time_minute": 3
  },
  {
    "path_id": 34,
    "path": [
      {
        "lat": 35.795227,
        "lng": 129.242035
      },
      {
        "lat": 35.795773,
        "lng": 129.241714
      }
    ],
    "color": "#04533f",
    "start_name": "서출지 순두부",
    "length_meter": 67.3,
    "time_minute": 1
  },
  {
    "path_id": 35,
    "path": [
      {
        "lat": 35.795773,
        "lng": 129.241714
      },
      {
        "lat": 35.796017,
        "lng": 129.24234
      }
    ],
    "color": "#635353",
    "start_name": "범종각 / 무랑사 경내 / 무량사",
    "length_meter": 70.0,
    "time_minute": 1
  },
  {
    "path_id": 36,
    "path": [
      {
        "lat": 35.796017,
        "lng": 129.24234
      },
      {
        "lat": 35.796741,
        "lng": 129.242096
      }
    ],
    "color": "#0c5800",
    "start_name": "서출지 / 이요당",
    "length_meter": 98.0,
    "time_minute": 1
  },
  {
    "path_id": 37,
    "path": [
      {
        "lat": 35.796741,
        "lng": 129.242096
      },
      {
        "lat": 35.797367,
        "lng": 129.242783
      }
    ],
    "color": "#0c2d93",
    "start_name": "서출지 내력 / 남산휴게소",
    "length_meter": 93.6,
    "time_minute": 1
  }
]