[
  {
    "path_id": 0,
    "path": [
      {
        "lat": 35.837032,
        "lng": 129.219666
      },
      {
        "lat": 35.835674,
        "lng": 129.219772
      }
    ],
    "color": "#48695e",
    "start_name": "버스 / 교동본가설렁탕 / 2대째 경주손칼국수",
    "length_meter": 154.4,
    "time_minute": 2
  },
  {
    "path_id": 1,
    "path": [
      {
        "lat": 35.835674,
        "lng": 129.219772
      },
      {
        "lat": 35.83456,
        "lng": 129.218735
      }
    ],
    "color": "#0ead95",
    "start_name": "핑크뮬리",
    "length_meter": 155.2,
    "time_minute": 2
  },
  {
    "path_id": 2,
    "path": [
      {
        "lat": 35.83456,
        "lng": 129.218735
      },
      {
        "lat": 35.832706,
        "lng": 129.219467
      }
    ],
    "color": "#aa7b1d",
    "start_name": "경주 첨성대 / 대릉원",
    "length_meter": 217.7,
    "time_minute": 3
  },
  {
    "path_id": 3,
    "path": [
      {
        "lat": 35.832706,
        "lng": 129.219467
      },
      {
        "lat": 35.830803,
        "lng": 129.217911
      }
    ],
    "color": "#53511d",
    "start_name": "경주 계림",
    "length_meter": 253.9,
    "time_minute": 4
  },
  {
    "path_id": 4,
    "path": [
      {
        "lat": 35.830803,
        "lng": 129.217911
      },
      {
        "lat": 35.830238,
        "lng": 129.21785
      }
    ],
    "color": "#3e4751",
    "start_name": "월정거리 마트 / 경주 향교",
    "length_meter": 82.8,
    "time_minute": 1
  },
  {
    "path_id": 5,
    "path": [
      {
        "lat": 35.830238,
        "lng": 129.21785
      },
      {
        "lat": 35.831303,
        "lng": 129.218292
      }
    ],
    "color": "#025283",
    "start_name": "월정교",
    "length_meter": 124.9,
    "time_minute": 2
  },
  {
    "path_id": 6,
    "path": [
      {
        "lat": 35.831303,
        "lng": 129.218292
      },
      {
        "lat": 35.831474,
        "lng": 129.220627
      }
    ],
    "color": "#081836",
    "start_name": "단풍",
    "length_meter": 211.4,
    "time_minute": 3
  },
  {
    "path_id": 7,
    "path": [
      {
        "lat": 35.831474,
        "lng": 129.220627
      },
      {
        "lat": 35.833054,
        "lng": 129.224014
      }
    ],
    "color": "#999265",
    "start_name": "경주 월성",
    "length_meter": 352.3,
    "time_minute": 5
  },
  {
    "path_id": 8,
    "path": [
      {
        "lat": 35.833054,
        "lng": 129.224014
      },
      {
        "lat": 35.83326,
        "lng": 129.224701
      }
    ],
    "color": "#005113",
    "start_name": "경주 석빙고",
    "length_meter": 66.0,
    "time_minute": 1
  },
  {
    "path_id": 9,
    "path": [
      {
        "lat": 35.83326,
        "lng": 129.224701
      },
      {
        "lat": 35.83305,
        "lng": 129.226974
      }
    ],
    "color": "#06bfad",
    "start_name": "경주 월성 발굴조사지역 / 쉼터",
    "length_meter": 212.0,
    "time_minute": 3
  },
  {
    "path_id": 10,
    "path": [
      {
        "lat": 35.83305,
        "lng": 129.226974
      },
      {
        "lat": 35.830959,
        "lng": 129.22905
      }
    ],
    "color": "#785f33",
    "start_name": "동궁과 월지",
    "length_meter": 298.5,
    "time_minute": 4
  },
  {
    "path_id": 11,
    "path": [
      {
        "lat": 35.830959,
        "lng": 129.22905
      },
      {
        "lat": 35.829937,
        "lng": 129.225632
      }
    ],
    "color": "#70c71a",
    "start_name": "국립경주박물관",
    "length_meter": 328.4,
    "time_minute": 5
  },
  {
    "path_id": 12,
    "path": [
      {
        "lat": 35.829937,
        "lng": 129.225632
      },
      {
        "lat": 35.826122,
        "lng": 129.22583
      }
    ],
    "color": "#0bba0a",
    "start_name": "동남산 가는길 안내도",
    "length_meter": 424.6,
    "time_minute": 7
  },
  {
    "path_id": 13,
    "path": [
      {
        "lat": 35.826122,
        "lng": 129.22583
      },
      {
        "lat": 35.82515,
        "lng": 129.225662
      }
    ],
    "color": "#862472",
    "start_name": "쉼터",
    "length_meter": 109.1,
    "time_minute": 1
  },
  {
    "path_id": 14,
    "path": [
      {
        "lat": 35.82515,
        "lng": 129.225662
      },
      {
        "lat": 35.825291,
        "lng": 129.224625
      }
    ],
    "color": "#4cb999",
    "start_name": "갈림길 / 고운대",
    "length_meter": 103.1,
    "time_minute": 1
  },
  {
    "path_id": 15,
    "path": [
      {
        "lat": 35.825291,
        "lng": 129.224625
      },
      {
        "lat": 35.824764,
        "lng": 129.224472
      }
    ],
    "color": "#6e087b",
    "start_name": "상서장",
    "length_meter": 60.2,
    "time_minute": 1
  },
  {
    "path_id": 16,
    "path": [
      {
        "lat": 35.824764,
        "lng": 129.224472
      },
      {
        "lat": 35.817608,
        "lng": 129.225449
      }
    ],
    "color": "#2d8457",
    "start_name": "쉼터",
    "length_meter": 800.6,
    "time_minute": 13
  },
  {
    "path_id": 17,
    "path": [
      {
        "lat": 35.817608,
        "lng": 129.225449
      },
      {
        "lat": 35.81459,
        "lng": 129.227676
      }
    ],
    "color": "#324fb7",
    "start_name": "갈림길",
    "length_meter": 391.1,
    "time_minute": 6
  },
  {
    "path_id": 18,
    "path": [
      {
        "lat": 35.81459,
        "lng": 129.227676
      },
      {
        "lat": 35.814281,
        "lng": 129.227783
      }
    ],
    "color": "#b5b64f",
    "start_name": "쉼터",
    "length_meter": 35.7,
    "time_minute": 0
  },
  {
    "path_id": 19,
    "path": [
      {
        "lat": 35.814281,
        "lng": 129.227783
      },
      {
        "lat": 35.812817,
        "lng": 129.228104
      }
    ],
    "color": "#7db439",
    "start_name": "경주 남한신성",
    "length_meter": 165.3,
    "time_minute": 2
  },
  {
    "path_id": 20,
    "path": [
      {
        "lat": 35.812817,
        "lng": 129.228104
      },
      {
        "lat": 35.804234,
        "lng": 129.229324
      }
    ],
    "color": "#af49c0",
    "start_name": "갈림길",
    "length_meter": 960.7,
    "time_minute": 16
  },
  {
    "path_id": 21,
    "path": [
      {
        "lat": 35.804234,
        "lng": 129.229324
      },
      {
        "lat": 35.800076,
        "lng": 129.229446
      }
    ],
    "color": "#66141c",
    "start_name": "쉼터 / 갈림길",
    "length_meter": 463.0,
    "time_minute": 7
  },
  {
    "path_id": 22,
    "path": [
      {
        "lat": 35.800076,
        "lng": 129.229446
      },
      {
        "lat": 35.80014,
        "lng": 129.229492
      }
    ],
    "color": "#60c5c0",
    "start_name": "자연경관",
    "length_meter": 8.2,
    "time_minute": 0
  },
  {
    "path_id": 23,
    "path": [
      {
        "lat": 35.80014,
        "lng": 129.229492
      },
      {
        "lat": 35.79755,
        "lng": 129.229599
      }
    ],
    "color": "#b23f94",
    "start_name": "쉼터",
    "length_meter": 288.2,
    "time_minute": 4
  },
  {
    "path_id": 24,
    "path": [
      {
        "lat": 35.79755,
        "lng": 129.229599
      },
      {
        "lat": 35.79348,
        "lng": 129.227646
      }
    ],
    "color": "#0c5c26",
    "start_name": "갈림길",
    "length_meter": 485.6,
    "time_minute": 8
  },
  {
    "path_id": 25,
    "path": [
      {
        "lat": 35.79348,
        "lng": 129.227646
      },
      {
        "lat": 35.793427,
        "lng": 129.227676
      }
    ],
    "color": "#2c6c2e",
    "start_name": "상사바위",
    "length_meter": 6.5,
    "time_minute": 0
  },
  {
    "path_id": 26,
    "path": [
      {
        "lat": 35.793427,
        "lng": 129.227676
      },
      {
        "lat": 35.790295,
        "lng": 129.226074
      }
    ],
    "color": "#2d4018",
    "start_name": "토함산",
    "length_meter": 377.0,
    "time_minute": 6
  },
  {
    "path_id": 27,
    "path": [
      {
        "lat": 35.790295,
        "lng": 129.226074
      },
      {
        "lat": 35.789764,
        "lng": 129.224915
      }
    ],
    "color": "#224359",
    "start_name": "갈림길",
    "length_meter": 120.1,
    "time_minute": 2
  },
  {
    "path_id": 28,
    "path": [
      {
        "lat": 35.789764,
        "lng": 129.224915
      },
      {
        "lat": 35.788837,
        "lng": 129.223648
      }
    ],
    "color": "#8b2098",
    "start_name": "쉼터",
    "length_meter": 153.9,
    "time_minute": 2
  },
  {
    "path_id": 29,
    "path": [
      {
        "lat": 35.788837,
        "lng": 129.223648
      },
      {
        "lat": 35.788952,
        "lng": 129.222733
      }
    ],
    "color": "#42c5b1",
    "start_name": "갈림길",
    "length_meter": 83.5,
    "time_minute": 1
  },
  {
    "path_id": 30,
    "path": [
      {
        "lat": 35.788952,
        "lng": 129.222733
      },
      {
        "lat": 35.788921,
        "lng": 129.222702
      }
    ],
    "color": "#139603",
    "start_name": "남산과 망산의 유래",
    "length_meter": 4.4,
    "time_minute": 0
  },
  {
    "path_id": 31,
    "path": [
      {
        "lat": 35.788921,
        "lng": 129.222702
      },
      {
        "lat": 35.787064,
        "lng": 129.22319
      }
    ],
    "color": "#bf4282",
    "start_name": "금오산",
    "length_meter": 211.1,
    "time_minute": 3
  },
  {
    "path_id": 32,
    "path": [
      {
        "lat": 35.787064,
        "lng": 129.22319
      },
      {
        "lat": 35.784107,
        "lng": 129.223541
      }
    ],
    "color": "#50175c",
    "start_name": "갈림길",
    "length_meter": 330.3,
    "time_minute": 5
  },
  {
    "path_id": 33,
    "path": [
      {
        "lat": 35.784107,
        "lng": 129.223541
      },
      {
        "lat": 35.783775,
        "lng": 129.224487
      }
    ],
    "color": "#8f663d",
    "start_name": "쉼터 / 남산 탐방로 안내도",
    "length_meter": 95.5,
    "time_minute": 1
  },
  {
    "path_id": 34,
    "path": [
      {
        "lat": 35.783775,
        "lng": 129.224487
      },
      {
        "lat": 35.783295,
        "lng": 129.225327
      }
    ],
    "color": "#be9629",
    "start_name": "쉼터",
    "length_meter": 92.7,
    "time_minute": 1
  },
  {
    "path_id": 35,
    "path": [
      {
        "lat": 35.783295,
        "lng": 129.225327
      },
      {
        "lat": 35.783051,
        "lng": 129.225769
      }
    ],
    "color": "#ae8485",
    "start_name": "고위봉 / 삼화령의 유래 / 쉼터 / 삼화령에서 고위봉",
    "length_meter": 49.1,
    "time_minute": 0
  },
  {
    "path_id": 36,
    "path": [
      {
        "lat": 35.783051,
        "lng": 129.225769
      },
      {
        "lat": 35.781815,
        "lng": 129.22905
      }
    ],
    "color": "#6d1959",
    "start_name": "쉼터",
    "length_meter": 326.3,
    "time_minute": 5
  },
  {
    "path_id": 37,
    "path": [
      {
        "lat": 35.781815,
        "lng": 129.22905
      },
      {
        "lat": 35.78426,
        "lng": 129.23378
      }
    ],
    "color": "#207f52",
    "start_name": "갈림길",
    "length_meter": 505.9,
    "time_minute": 8
  },
  {
    "path_id": 38,
    "path": [
      {
        "lat": 35.78426,
        "lng": 129.23378
      },
      {
        "lat": 35.784225,
        "lng": 129.233704
      }
    ],
    "color": "#4069ba",
    "start_name": "쉼터",
    "length_meter": 7.9,
    "time_minute": 0
  },
  {
    "path_id": 39,
    "path": [
      {
        "lat": 35.784225,
        "lng": 129.233704
      },
      {
        "lat": 35.787872,
        "lng": 129.23558
      }
    ],
    "color": "#8b2d11",
    "start_name": "약수터",
    "length_meter": 439.4,
    "time_minute": 7
  },
  {
    "path_id": 40,
    "path": [
      {
        "lat": 35.787872,
        "lng": 129.23558
      },
      {
        "lat": 35.790039,
        "lng": 129.238144
      }
    ],
    "color": "#5e26bd",
    "start_name": "갈림길",
    "length_meter": 334.0,
    "time_minute": 5
  },
  {
    "path_id": 41,
    "path": [
      {
        "lat": 35.790039,
        "lng": 129.238144
      },
      {
        "lat": 35.791019,
        "lng": 129.238983
      }
    ],
    "color": "#672027",
    "start_name": "쉼터",
    "length_meter": 132.7,
    "time_minute": 2
  },
  {
    "path_id": 42,
    "path": [
      {
        "lat": 35.791019,
        "lng": 129.238983
      },
      {
        "lat": 35.793457,
        "lng": 129.242615
      }
    ],
    "color": "#4dad52",
    "start_name": "갈림길 / 동남산탕방지원센터",
    "length_meter": 425.3,
    "time_minute": 7
  },
  {
    "path_id": 43,
    "path": [
      {
        "lat": 35.793457,
        "lng": 129.242615
      },
      {
        "lat": 35.795227,
        "lng": 129.242035
      }
    ],
    "color": "#661255",
    "start_name": "남산휴게소",
    "length_meter": 203.6,
    "time_minute": 3
  },
  {
    "path_id": 44,
    "path": [
      {
        "lat": 35.795227,
        "lng": 129.242035
      },
      {
        "lat": 35.795773,
        "lng": 129.241714
      }
    ],
    "color": "#7e8d44",
    "start_name": "서출지 순두부",
    "length_meter": 67.3,
    "time_minute": 1
  },
  {
    "path_id": 45,
    "path": [
      {
        "lat": 35.795773,
        "lng": 129.241714
      },
      {
        "lat": 35.796017,
        "lng": 129.24234
      }
    ],
    "color": "#4d6767",
    "start_name": "범종각 / 무랑사 경내 / 무량사 / 쉼터",
    "length_meter": 71.7,
    "time_minute": 1
  },
  {
    "path_id": 46,
    "path": [
      {
        "lat": 35.796017,
        "lng": 129.24234
      },
      {
        "lat": 35.796741,
        "lng": 129.242096
      }
    ],
    "color": "#3d7457",
    "start_name": "서출지 / 이요당",
    "length_meter": 98.0,
    "time_minute": 1
  },
  {
    "path_id": 47,
    "path": [
      {
        "lat": 35.796741,
        "lng": 129.242096
      },
      {
        "lat": 35.797367,
        "lng": 129.242783
      }
    ],
    "color": "#b7b287",
    "start_name": "서출지 내력 / 남산휴게소",
    "length_meter": 93.6,
    "time_minute": 1
  }
]