{
  "max_ele": 492.918,
  "total_length_km": "7.1km",
  "total_time": "1시간 28분",
  "start_name": "버스",
  "end_name": "내남휴게소",
  "track": [
    {
      "path_id": 0,
      "path": [
        {
          "lat": 35.815239,
          "lng": 129.210205
        },
        {
          "lat": 35.815453,
          "lng": 129.212509
        }
      ],
      "color": "#226906",
      "start_name": "버스 / 나정 입구",
      "length_meter": 211.7,
      "time_minute": 3
    },
    {
      "path_id": 1,
      "path": [
        {
          "lat": 35.815453,
          "lng": 129.212509
        },
        {
          "lat": 35.816196,
          "lng": 129.214279
        }
      ],
      "color": "#7a02b3",
      "start_name": "경주 나정",
      "length_meter": 179.7,
      "time_minute": 2
    },
    {
      "path_id": 2,
      "path": [
        {
          "lat": 35.816196,
          "lng": 129.214279
        },
        {
          "lat": 35.815132,
          "lng": 129.215591
        }
      ],
      "color": "#353a85",
      "start_name": "육부전",
      "length_meter": 167.3,
      "time_minute": 2
    },
    {
      "path_id": 3,
      "path": [
        {
          "lat": 35.815132,
          "lng": 129.215591
        },
        {
          "lat": 35.813686,
          "lng": 129.216812
        }
      ],
      "color": "#c4c094",
      "start_name": "월암재 / 쉼터",
      "length_meter": 196.9,
      "time_minute": 3
    },
    {
      "path_id": 4,
      "path": [
        {
          "lat": 35.813686,
          "lng": 129.216812
        },
        {
          "lat": 35.807861,
          "lng": 129.2117
        }
      ],
      "color": "#5cc56d",
      "start_name": "경주 남간사지 당간지주",
      "length_meter": 795.0,
      "time_minute": 9
    },
    {
      "path_id": 5,
      "path": [
        {
          "lat": 35.807861,
          "lng": 129.2117
        },
        {
          "lat": 35.80719,
          "lng": 129.211105
        }
      ],
      "color": "#9517a9",
      "start_name": "쉼터",
      "length_meter": 91.9,
      "time_minute": 1
    },
    {
      "path_id": 6,
      "path": [
        {
          "lat": 35.80719,
          "lng": 129.211105
        },
        {
          "lat": 35.807308,
          "lng": 129.21225
        }
      ],
      "color": "#b8873b",
      "start_name": "포석정 화장실 / 매표소 2,000원",
      "length_meter": 110.5,
      "time_minute": 1
    },
    {
      "path_id": 7,
      "path": [
        {
          "lat": 35.807308,
          "lng": 129.21225
        },
        {
          "lat": 35.806988,
          "lng": 129.21283
        }
      ],
      "color": "#9e841b",
      "start_name": "쉼터 / 경주 포석정지",
      "length_meter": 73.5,
      "time_minute": 1
    },
    {
      "path_id": 8,
      "path": [
        {
          "lat": 35.806988,
          "lng": 129.21283
        },
        {
          "lat": 35.806118,
          "lng": 129.21257
        }
      ],
      "color": "#69174d",
      "start_name": "단풍 / 포석정 매점",
      "length_meter": 184.4,
      "time_minute": 2
    },
    {
      "path_id": 9,
      "path": [
        {
          "lat": 35.806118,
          "lng": 129.21257
        },
        {
          "lat": 35.805313,
          "lng": 129.213898
        }
      ],
      "color": "#891b8c",
      "start_name": "가족쉼터 캠핑장",
      "length_meter": 149.5,
      "time_minute": 1
    },
    {
      "path_id": 10,
      "path": [
        {
          "lat": 35.805313,
          "lng": 129.213898
        },
        {
          "lat": 35.806004,
          "lng": 129.215805
        }
      ],
      "color": "#a3852e",
      "start_name": "안내소 / 남산 지진대피 안내 / 남산 세계문화유산 인증서",
      "length_meter": 189.6,
      "time_minute": 3
    },
    {
      "path_id": 11,
      "path": [
        {
          "lat": 35.806004,
          "lng": 129.215805
        },
        {
          "lat": 35.803879,
          "lng": 129.224396
        }
      ],
      "color": "#911caf",
      "start_name": "안내소",
      "length_meter": 810.0,
      "time_minute": 10
    },
    {
      "path_id": 12,
      "path": [
        {
          "lat": 35.803879,
          "lng": 129.224396
        },
        {
          "lat": 35.802834,
          "lng": 129.223816
        }
      ],
      "color": "#858f06",
      "start_name": "갈림길",
      "length_meter": 127.4,
      "time_minute": 1
    },
    {
      "path_id": 13,
      "path": [
        {
          "lat": 35.802834,
          "lng": 129.223816
        },
        {
          "lat": 35.801281,
          "lng": 129.226349
        }
      ],
      "color": "#7b9db2",
      "start_name": "포석곡 제5사지 마애여래좌상",
      "length_meter": 286.4,
      "time_minute": 3
    },
    {
      "path_id": 14,
      "path": [
        {
          "lat": 35.801281,
          "lng": 129.226349
        },
        {
          "lat": 35.799839,
          "lng": 129.225723
        }
      ],
      "color": "#bd889a",
      "start_name": "부흥사",
      "length_meter": 170.0,
      "time_minute": 2
    },
    {
      "path_id": 15,
      "path": [
        {
          "lat": 35.799839,
          "lng": 129.225723
        },
        {
          "lat": 35.797638,
          "lng": 129.227798
        }
      ],
      "color": "#9f1a47",
      "start_name": "오층석탑",
      "length_meter": 308.1,
      "time_minute": 3
    },
    {
      "path_id": 16,
      "path": [
        {
          "lat": 35.797638,
          "lng": 129.227798
        },
        {
          "lat": 35.797455,
          "lng": 129.228836
        }
      ],
      "color": "#ab14a3",
      "start_name": "포석곡 7사지",
      "length_meter": 95.8,
      "time_minute": 1
    },
    {
      "path_id": 17,
      "path": [
        {
          "lat": 35.797455,
          "lng": 129.228836
        },
        {
          "lat": 35.796158,
          "lng": 129.22905
        }
      ],
      "color": "#51a748",
      "start_name": "금오정",
      "length_meter": 145.5,
      "time_minute": 1
    },
    {
      "path_id": 18,
      "path": [
        {
          "lat": 35.796158,
          "lng": 129.22905
        },
        {
          "lat": 35.788471,
          "lng": 129.220184
        }
      ],
      "color": "#b1c68b",
      "start_name": "갈림길",
      "length_meter": 1170.5,
      "time_minute": 14
    },
    {
      "path_id": 19,
      "path": [
        {
          "lat": 35.788471,
          "lng": 129.220184
        },
        {
          "lat": 35.788616,
          "lng": 129.204865
        }
      ],
      "color": "#552faf",
      "start_name": "약수골 안전쉼터 / 약수계곡 마애입불상",
      "length_meter": 1385.4,
      "time_minute": 23
    },
    {
      "path_id": 20,
      "path": [
        {
          "lat": 35.788616,
          "lng": 129.204865
        },
        {
          "lat": 35.790607,
          "lng": 129.205368
        }
      ],
      "color": "#c35cab",
      "start_name": "옹심이메밀칼국수 / 신라월성대군단소",
      "length_meter": 230.0,
      "time_minute": 3
    }
  ]
}