[
  {
    "path_id": 0,
    "path": [
      {
        "lat": 35.837032,
        "lng": 129.219666
      },
      {
        "lat": 35.835674,
        "lng": 129.219772
      }
    ],
    "color": "#ef8327",
    "start_name": "버스 / 교동본가설렁탕 / 2대째 경주손칼국수",
    "length_meter": 154.4,
    "time_minute": 2
  },
  {
    "path_id": 1,
    "path": [
      {
        "lat": 35.835674,
        "lng": 129.219772
      },
      {
        "lat": 35.83456,
        "lng": 129.218735
      }
    ],
    "color": "#11c37a",
    "start_name": "핑크뮬리",
    "length_meter": 155.2,
    "time_minute": 2
  },
  {
    "path_id": 2,
    "path": [
      {
        "lat": 35.83456,
        "lng": 129.218735
      },
      {
        "lat": 35.832706,
        "lng": 129.219467
      }
    ],
    "color": "#4aad54",
    "start_name": "경주 첨성대 / 경주 첨성대 / 대릉원 / 대릉원",
    "length_meter": 231.0,
    "time_minute": 3
  },
  {
    "path_id": 3,
    "path": [
      {
        "lat": 35.832706,
        "lng": 129.219467
      },
      {
        "lat": 35.830803,
        "lng": 129.217911
      }
    ],
    "color": "#91f6f6",
    "start_name": "경주 계림",
    "length_meter": 253.9,
    "time_minute": 4
  },
  {
    "path_id": 4,
    "path": [
      {
        "lat": 35.830803,
        "lng": 129.217911
      },
      {
        "lat": 35.830238,
        "lng": 129.21785
      }
    ],
    "color": "#6244e3",
    "start_name": "월정거리 마트 / 경주 향교",
    "length_meter": 82.8,
    "time_minute": 1
  },
  {
    "path_id": 5,
    "path": [
      {
        "lat": 35.830238,
        "lng": 129.21785
      },
      {
        "lat": 35.831303,
        "lng": 129.218292
      }
    ],
    "color": "#21b5c2",
    "start_name": "월정교",
    "length_meter": 124.9,
    "time_minute": 2
  },
  {
    "path_id": 6,
    "path": [
      {
        "lat": 35.831303,
        "lng": 129.218292
      },
      {
        "lat": 35.831474,
        "lng": 129.220627
      }
    ],
    "color": "#df5a13",
    "start_name": "단풍",
    "length_meter": 211.4,
    "time_minute": 3
  },
  {
    "path_id": 7,
    "path": [
      {
        "lat": 35.831474,
        "lng": 129.220627
      },
      {
        "lat": 35.833054,
        "lng": 129.224014
      }
    ],
    "color": "#0449f0",
    "start_name": "경주 월성",
    "length_meter": 352.3,
    "time_minute": 5
  },
  {
    "path_id": 8,
    "path": [
      {
        "lat": 35.833054,
        "lng": 129.224014
      },
      {
        "lat": 35.83326,
        "lng": 129.224701
      }
    ],
    "color": "#7cd4c5",
    "start_name": "경주 석빙고",
    "length_meter": 66.0,
    "time_minute": 1
  },
  {
    "path_id": 9,
    "path": [
      {
        "lat": 35.83326,
        "lng": 129.224701
      },
      {
        "lat": 35.833801,
        "lng": 129.225601
      }
    ],
    "color": "#05c6b5",
    "start_name": "경주 월성 발굴조사지역 / 쉼터",
    "length_meter": 105.7,
    "time_minute": 1
  },
  {
    "path_id": 10,
    "path": [
      {
        "lat": 35.833801,
        "lng": 129.225601
      },
      {
        "lat": 35.833099,
        "lng": 129.226822
      }
    ],
    "color": "#09e985",
    "start_name": "쉼터 / 쉼터",
    "length_meter": 135.0,
    "time_minute": 2
  },
  {
    "path_id": 11,
    "path": [
      {
        "lat": 35.833099,
        "lng": 129.226822
      },
      {
        "lat": 35.830959,
        "lng": 129.22905
      }
    ],
    "color": "#343baa",
    "start_name": "화장실 / 동궁과 월지",
    "length_meter": 313.2,
    "time_minute": 5
  },
  {
    "path_id": 12,
    "path": [
      {
        "lat": 35.830959,
        "lng": 129.22905
      },
      {
        "lat": 35.829937,
        "lng": 129.225632
      }
    ],
    "color": "#a8d4f6",
    "start_name": "국립경주박물관",
    "length_meter": 328.4,
    "time_minute": 5
  },
  {
    "path_id": 13,
    "path": [
      {
        "lat": 35.829937,
        "lng": 129.225632
      },
      {
        "lat": 35.826122,
        "lng": 129.22583
      }
    ],
    "color": "#994843",
    "start_name": "동남산 가는길 안내도",
    "length_meter": 424.6,
    "time_minute": 7
  },
  {
    "path_id": 14,
    "path": [
      {
        "lat": 35.826122,
        "lng": 129.22583
      },
      {
        "lat": 35.82515,
        "lng": 129.225662
      }
    ],
    "color": "#415d96",
    "start_name": "쉼터",
    "length_meter": 109.1,
    "time_minute": 1
  },
  {
    "path_id": 15,
    "path": [
      {
        "lat": 35.82515,
        "lng": 129.225662
      },
      {
        "lat": 35.825291,
        "lng": 129.224625
      }
    ],
    "color": "#cdd6c3",
    "start_name": "갈림길 / 고운대",
    "length_meter": 103.1,
    "time_minute": 1
  },
  {
    "path_id": 16,
    "path": [
      {
        "lat": 35.825291,
        "lng": 129.224625
      },
      {
        "lat": 35.824764,
        "lng": 129.224472
      }
    ],
    "color": "#0adbd3",
    "start_name": "상서장",
    "length_meter": 60.2,
    "time_minute": 1
  },
  {
    "path_id": 17,
    "path": [
      {
        "lat": 35.824764,
        "lng": 129.224472
      },
      {
        "lat": 35.817608,
        "lng": 129.225449
      }
    ],
    "color": "#173923",
    "start_name": "쉼터",
    "length_meter": 800.6,
    "time_minute": 13
  },
  {
    "path_id": 18,
    "path": [
      {
        "lat": 35.817608,
        "lng": 129.225449
      },
      {
        "lat": 35.81459,
        "lng": 129.227676
      }
    ],
    "color": "#1fedac",
    "start_name": "갈림길",
    "length_meter": 391.1,
    "time_minute": 6
  },
  {
    "path_id": 19,
    "path": [
      {
        "lat": 35.81459,
        "lng": 129.227676
      },
      {
        "lat": 35.812817,
        "lng": 129.228104
      }
    ],
    "color": "#900982",
    "start_name": "쉼터 / 경주 남한신성",
    "length_meter": 201.0,
    "time_minute": 3
  },
  {
    "path_id": 20,
    "path": [
      {
        "lat": 35.812817,
        "lng": 129.228104
      },
      {
        "lat": 35.810078,
        "lng": 129.22731
      }
    ],
    "color": "#1d2360",
    "start_name": "갈림길",
    "length_meter": 312.9,
    "time_minute": 5
  },
  {
    "path_id": 21,
    "path": [
      {
        "lat": 35.810078,
        "lng": 129.22731
      },
      {
        "lat": 35.80637,
        "lng": 129.228027
      }
    ],
    "color": "#70f4e1",
    "start_name": "조망점",
    "length_meter": 417.3,
    "time_minute": 6
  },
  {
    "path_id": 22,
    "path": [
      {
        "lat": 35.80637,
        "lng": 129.228027
      },
      {
        "lat": 35.804234,
        "lng": 129.229324
      }
    ],
    "color": "#ec7a2a",
    "start_name": "갈림길 / 갈림길",
    "length_meter": 267.1,
    "time_minute": 4
  },
  {
    "path_id": 23,
    "path": [
      {
        "lat": 35.804234,
        "lng": 129.229324
      },
      {
        "lat": 35.800076,
        "lng": 129.229446
      }
    ],
    "color": "#d9adc8",
    "start_name": "쉼터 / 갈림길",
    "length_meter": 463.0,
    "time_minute": 7
  },
  {
    "path_id": 24,
    "path": [
      {
        "lat": 35.800076,
        "lng": 129.229446
      },
      {
        "lat": 35.79755,
        "lng": 129.229599
      }
    ],
    "color": "#1205d8",
    "start_name": "자연경관 / 쉼터",
    "length_meter": 296.4,
    "time_minute": 4
  },
  {
    "path_id": 25,
    "path": [
      {
        "lat": 35.79755,
        "lng": 129.229599
      },
      {
        "lat": 35.79348,
        "lng": 129.227646
      }
    ],
    "color": "#373b79",
    "start_name": "갈림길",
    "length_meter": 485.6,
    "time_minute": 8
  },
  {
    "path_id": 26,
    "path": [
      {
        "lat": 35.79348,
        "lng": 129.227646
      },
      {
        "lat": 35.790295,
        "lng": 129.226074
      }
    ],
    "color": "#68f56f",
    "start_name": "상사바위 / 토함산",
    "length_meter": 383.5,
    "time_minute": 6
  },
  {
    "path_id": 27,
    "path": [
      {
        "lat": 35.790295,
        "lng": 129.226074
      },
      {
        "lat": 35.789764,
        "lng": 129.224915
      }
    ],
    "color": "#27b945",
    "start_name": "갈림길",
    "length_meter": 120.1,
    "time_minute": 2
  },
  {
    "path_id": 28,
    "path": [
      {
        "lat": 35.789764,
        "lng": 129.224915
      },
      {
        "lat": 35.78894,
        "lng": 129.223892
      }
    ],
    "color": "#bf8795",
    "start_name": "쉼터",
    "length_meter": 130.0,
    "time_minute": 2
  },
  {
    "path_id": 29,
    "path": [
      {
        "lat": 35.78894,
        "lng": 129.223892
      },
      {
        "lat": 35.78944,
        "lng": 129.223053
      }
    ],
    "color": "#4c0b0f",
    "start_name": "쉼터 / 화장실 / 갈림길",
    "length_meter": 117.7,
    "time_minute": 1
  },
  {
    "path_id": 30,
    "path": [
      {
        "lat": 35.78944,
        "lng": 129.223053
      },
      {
        "lat": 35.788952,
        "lng": 129.222733
      }
    ],
    "color": "#9fe9a8",
    "start_name": "갈림길 / 갈림길",
    "length_meter": 81.9,
    "time_minute": 1
  },
  {
    "path_id": 31,
    "path": [
      {
        "lat": 35.788952,
        "lng": 129.222733
      },
      {
        "lat": 35.787064,
        "lng": 129.22319
      }
    ],
    "color": "#890923",
    "start_name": "남산과 망산의 유래 / 금오산 / 금오산",
    "length_meter": 217.8,
    "time_minute": 3
  },
  {
    "path_id": 32,
    "path": [
      {
        "lat": 35.787064,
        "lng": 129.22319
      },
      {
        "lat": 35.784153,
        "lng": 129.223495
      }
    ],
    "color": "#8e1d8b",
    "start_name": "갈림길",
    "length_meter": 324.9,
    "time_minute": 5
  },
  {
    "path_id": 33,
    "path": [
      {
        "lat": 35.784153,
        "lng": 129.223495
      },
      {
        "lat": 35.783775,
        "lng": 129.224487
      }
    ],
    "color": "#5292c4",
    "start_name": "갈림길 / 쉼터 / 남산 탐방로 안내도",
    "length_meter": 102.1,
    "time_minute": 1
  },
  {
    "path_id": 34,
    "path": [
      {
        "lat": 35.783775,
        "lng": 129.224487
      },
      {
        "lat": 35.783295,
        "lng": 129.225327
      }
    ],
    "color": "#d2ccf0",
    "start_name": "쉼터",
    "length_meter": 92.7,
    "time_minute": 1
  },
  {
    "path_id": 35,
    "path": [
      {
        "lat": 35.783295,
        "lng": 129.225327
      },
      {
        "lat": 35.781864,
        "lng": 129.22905
      }
    ],
    "color": "#09470b",
    "start_name": "고위봉 / 삼화령의 유래 / 쉼터 / 삼화령에서 고위봉 / 쉼터",
    "length_meter": 373.1,
    "time_minute": 6
  },
  {
    "path_id": 36,
    "path": [
      {
        "lat": 35.781864,
        "lng": 129.22905
      },
      {
        "lat": 35.78426,
        "lng": 129.23378
      }
    ],
    "color": "#b89c57",
    "start_name": "쉼터 / 갈림길",
    "length_meter": 511.4,
    "time_minute": 8
  },
  {
    "path_id": 37,
    "path": [
      {
        "lat": 35.78426,
        "lng": 129.23378
      },
      {
        "lat": 35.787872,
        "lng": 129.23558
      }
    ],
    "color": "#8bd4c6",
    "start_name": "쉼터 / 약수터",
    "length_meter": 447.3,
    "time_minute": 7
  },
  {
    "path_id": 38,
    "path": [
      {
        "lat": 35.787872,
        "lng": 129.23558
      },
      {
        "lat": 35.789948,
        "lng": 129.238129
      }
    ],
    "color": "#8c20a9",
    "start_name": "갈림길",
    "length_meter": 325.8,
    "time_minute": 5
  },
  {
    "path_id": 39,
    "path": [
      {
        "lat": 35.789948,
        "lng": 129.238129
      },
      {
        "lat": 35.791019,
        "lng": 129.238983
      }
    ],
    "color": "#254f75",
    "start_name": "화장실 / 쉼터",
    "length_meter": 142.9,
    "time_minute": 2
  },
  {
    "path_id": 40,
    "path": [
      {
        "lat": 35.791019,
        "lng": 129.238983
      },
      {
        "lat": 35.793457,
        "lng": 129.242615
      }
    ],
    "color": "#61bd9b",
    "start_name": "갈림길 / 동남산탕방지원센터",
    "length_meter": 425.3,
    "time_minute": 7
  },
  {
    "path_id": 41,
    "path": [
      {
        "lat": 35.793457,
        "lng": 129.242615
      },
      {
        "lat": 35.795227,
        "lng": 129.242035
      }
    ],
    "color": "#f2489a",
    "start_name": "남산휴게소",
    "length_meter": 203.6,
    "time_minute": 3
  },
  {
    "path_id": 42,
    "path": [
      {
        "lat": 35.795227,
        "lng": 129.242035
      },
      {
        "lat": 35.795773,
        "lng": 129.241714
      }
    ],
    "color": "#9f9d93",
    "start_name": "서출지 순두부",
    "length_meter": 67.3,
    "time_minute": 1
  },
  {
    "path_id": 43,
    "path": [
      {
        "lat": 35.795773,
        "lng": 129.241714
      },
      {
        "lat": 35.796017,
        "lng": 129.24234
      }
    ],
    "color": "#e8510a",
    "start_name": "범종각 / 무랑사 경내 / 무량사 / 쉼터",
    "length_meter": 71.7,
    "time_minute": 1
  },
  {
    "path_id": 44,
    "path": [
      {
        "lat": 35.796017,
        "lng": 129.24234
      },
      {
        "lat": 35.796741,
        "lng": 129.242096
      }
    ],
    "color": "#9f7738",
    "start_name": "서출지 / 이요당",
    "length_meter": 98.0,
    "time_minute": 1
  },
  {
    "path_id": 45,
    "path": [
      {
        "lat": 35.796741,
        "lng": 129.242096
      },
      {
        "lat": 35.797367,
        "lng": 129.242783
      }
    ],
    "color": "#58e770",
    "start_name": "서출지 내력 / 남산휴게소",
    "length_meter": 93.6,
    "time_minute": 1
  },
  {
    "path_id": 46,
    "path": [
      {
        "lat": 35.797367,
        "lng": 129.242783
      },
      {
        "lat": 35.797359,
        "lng": 129.24295
      }
    ],
    "color": "#2c36e7",
    "start_name": "통일전 주차장",
    "length_meter": 15.1,
    "time_minute": 0
  }
]