[
  {
    "path_id": 0,
    "path": [
      {
        "lat": 36.157501,
        "lng": 127.620232
      },
      {
        "lat": 36.15744,
        "lng": 127.619019
      }
    ],
    "color": "#fafe68",
    "start_name": "천태산 들머리 / 영국사 주차장 / 천태산 쉬어가는집",
    "length_meter": 113.8,
    "time_minute": 1
  },
  {
    "path_id": 1,
    "path": [
      {
        "lat": 36.15744,
        "lng": 127.619019
      },
      {
        "lat": 36.156723,
        "lng": 127.616425
      }
    ],
    "color": "#bc10a7",
    "start_name": "안내  표지판 / 식당",
    "length_meter": 247.0,
    "time_minute": 4
  },
  {
    "path_id": 2,
    "path": [
      {
        "lat": 36.156723,
        "lng": 127.616425
      },
      {
        "lat": 36.157581,
        "lng": 127.614159
      }
    ],
    "color": "#870588",
    "start_name": "천태산 들머리",
    "length_meter": 224.7,
    "time_minute": 3
  },
  {
    "path_id": 3,
    "path": [
      {
        "lat": 36.157581,
        "lng": 127.614159
      },
      {
        "lat": 36.159317,
        "lng": 127.612808
      }
    ],
    "color": "#289741",
    "start_name": "삼신할멈바위",
    "length_meter": 228.0,
    "time_minute": 3
  },
  {
    "path_id": 4,
    "path": [
      {
        "lat": 36.159317,
        "lng": 127.612808
      },
      {
        "lat": 36.158924,
        "lng": 127.611626
      }
    ],
    "color": "#0cd83c",
    "start_name": "영국사 일주문 / 매표소",
    "length_meter": 115.0,
    "time_minute": 1
  },
  {
    "path_id": 5,
    "path": [
      {
        "lat": 36.158924,
        "lng": 127.611626
      },
      {
        "lat": 36.159359,
        "lng": 127.610405
      }
    ],
    "color": "#278d33",
    "start_name": "영국사 샘물 / 영국사 은행나무 / 영국사",
    "length_meter": 132.7,
    "time_minute": 2
  },
  {
    "path_id": 6,
    "path": [
      {
        "lat": 36.159359,
        "lng": 127.610405
      },
      {
        "lat": 36.1604,
        "lng": 127.607338
      }
    ],
    "color": "#7d2267",
    "start_name": "간이화장실 / 산행들머리",
    "length_meter": 318.3,
    "time_minute": 5
  },
  {
    "path_id": 7,
    "path": [
      {
        "lat": 36.1604,
        "lng": 127.607338
      },
      {
        "lat": 36.159573,
        "lng": 127.605843
      }
    ],
    "color": "#296808",
    "start_name": "갈림길 / 암릉위 영국사 조망",
    "length_meter": 165.0,
    "time_minute": 2
  },
  {
    "path_id": 8,
    "path": [
      {
        "lat": 36.159573,
        "lng": 127.605843
      },
      {
        "lat": 36.159832,
        "lng": 127.605103
      }
    ],
    "color": "#634864",
    "start_name": "암릉 위험 / 암릉2 조망",
    "length_meter": 76.7,
    "time_minute": 1
  },
  {
    "path_id": 9,
    "path": [
      {
        "lat": 36.159832,
        "lng": 127.605103
      },
      {
        "lat": 36.159641,
        "lng": 127.604012
      }
    ],
    "color": "#d43723",
    "start_name": "갈림길 / 암릉3",
    "length_meter": 105.1,
    "time_minute": 1
  },
  {
    "path_id": 10,
    "path": [
      {
        "lat": 36.159641,
        "lng": 127.604012
      },
      {
        "lat": 36.158375,
        "lng": 127.601791
      }
    ],
    "color": "#b52c77",
    "start_name": "암벽3 조망",
    "length_meter": 244.1,
    "time_minute": 4
  },
  {
    "path_id": 11,
    "path": [
      {
        "lat": 36.158375,
        "lng": 127.601791
      },
      {
        "lat": 36.155121,
        "lng": 127.604767
      }
    ],
    "color": "#476a2f",
    "start_name": "갈림길",
    "length_meter": 449.8,
    "time_minute": 7
  },
  {
    "path_id": 12,
    "path": [
      {
        "lat": 36.155121,
        "lng": 127.604767
      },
      {
        "lat": 36.153378,
        "lng": 127.605446
      }
    ],
    "color": "#1f2e15",
    "start_name": "갈림길",
    "length_meter": 203.2,
    "time_minute": 3
  },
  {
    "path_id": 13,
    "path": [
      {
        "lat": 36.153378,
        "lng": 127.605446
      },
      {
        "lat": 36.152267,
        "lng": 127.605789
      }
    ],
    "color": "#e4bff9",
    "start_name": "조망",
    "length_meter": 127.3,
    "time_minute": 2
  },
  {
    "path_id": 14,
    "path": [
      {
        "lat": 36.152267,
        "lng": 127.605789
      },
      {
        "lat": 36.150723,
        "lng": 127.606392
      }
    ],
    "color": "#a27e19",
    "start_name": "조망 / 조망",
    "length_meter": 182.2,
    "time_minute": 3
  },
  {
    "path_id": 15,
    "path": [
      {
        "lat": 36.150723,
        "lng": 127.606392
      },
      {
        "lat": 36.151649,
        "lng": 127.609512
      }
    ],
    "color": "#2564cd",
    "start_name": "전망석",
    "length_meter": 298.5,
    "time_minute": 4
  },
  {
    "path_id": 16,
    "path": [
      {
        "lat": 36.151649,
        "lng": 127.609512
      },
      {
        "lat": 36.157379,
        "lng": 127.610558
      }
    ],
    "color": "#6d9e7e",
    "start_name": "갈림길 / 갈림길",
    "length_meter": 645.1,
    "time_minute": 10
  },
  {
    "path_id": 17,
    "path": [
      {
        "lat": 36.157379,
        "lng": 127.610558
      },
      {
        "lat": 36.158253,
        "lng": 127.611183
      }
    ],
    "color": "#6b4025",
    "start_name": "갈림길 / 영국사 대웅전",
    "length_meter": 117.4,
    "time_minute": 1
  },
  {
    "path_id": 18,
    "path": [
      {
        "lat": 36.158253,
        "lng": 127.611183
      },
      {
        "lat": 36.157276,
        "lng": 127.613106
      }
    ],
    "color": "#09bd26",
    "start_name": "영국사 화장실",
    "length_meter": 204.0,
    "time_minute": 3
  },
  {
    "path_id": 19,
    "path": [
      {
        "lat": 36.157276,
        "lng": 127.613106
      },
      {
        "lat": 36.157192,
        "lng": 127.613136
      }
    ],
    "color": "#6a1a6c",
    "start_name": "상어흔들바위",
    "length_meter": 9.7,
    "time_minute": 0
  }
]