[
  {
    "path_id": 0,
    "path": [
      {
        "lat": 36.157501,
        "lng": 127.620232
      },
      {
        "lat": 36.15752,
        "lng": 127.620224
      }
    ],
    "color": "#e6a933",
    "start_point_name": "천태산 들머리",
    "length": 2,
    "time": "0"
  },
  {
    "path_id": 1,
    "path": [
      {
        "lat": 36.15752,
        "lng": 127.620224
      },
      {
        "lat": 36.157528,
        "lng": 127.620239
      }
    ],
    "color": "#a39e94",
    "start_point_name": "영국사 주차장",
    "length": 1,
    "time": "0"
  },
  {
    "path_id": 2,
    "path": [
      {
        "lat": 36.157528,
        "lng": 127.620239
      },
      {
        "lat": 36.15744,
        "lng": 127.619019
      }
    ],
    "color": "#56d8aa",
    "start_point_name": "천태산 쉬어가는집",
    "length": 109,
    "time": "1"
  },
  {
    "path_id": 3,
    "path": [
      {
        "lat": 36.15744,
        "lng": 127.619019
      },
      {
        "lat": 36.157379,
        "lng": 127.618538
      }
    ],
    "color": "#746289",
    "start_point_name": "안내  표지판",
    "length": 43,
    "time": "0"
  },
  {
    "path_id": 4,
    "path": [
      {
        "lat": 36.157379,
        "lng": 127.618538
      },
      {
        "lat": 36.156723,
        "lng": 127.616425
      }
    ],
    "color": "#c221cb",
    "start_point_name": "식당",
    "length": 203,
    "time": "3"
  },
  {
    "path_id": 5,
    "path": [
      {
        "lat": 36.156723,
        "lng": 127.616425
      },
      {
        "lat": 36.157581,
        "lng": 127.614159
      }
    ],
    "color": "#0850ca",
    "start_point_name": "천태산 들머리",
    "length": 224,
    "time": "3"
  },
  {
    "path_id": 6,
    "path": [
      {
        "lat": 36.157581,
        "lng": 127.614159
      },
      {
        "lat": 36.159317,
        "lng": 127.612808
      }
    ],
    "color": "#554a77",
    "start_point_name": "삼신할멈바위",
    "length": 227,
    "time": "3"
  },
  {
    "path_id": 7,
    "path": [
      {
        "lat": 36.159317,
        "lng": 127.612808
      },
      {
        "lat": 36.159275,
        "lng": 127.61274
      }
    ],
    "color": "#e2a042",
    "start_point_name": "영국사 일주문",
    "length": 7,
    "time": "0"
  },
  {
    "path_id": 8,
    "path": [
      {
        "lat": 36.159275,
        "lng": 127.61274
      },
      {
        "lat": 36.158924,
        "lng": 127.611626
      }
    ],
    "color": "#81b6f3",
    "start_point_name": "매표소",
    "length": 107,
    "time": "1"
  },
  {
    "path_id": 9,
    "path": [
      {
        "lat": 36.158924,
        "lng": 127.611626
      },
      {
        "lat": 36.158894,
        "lng": 127.611588
      }
    ],
    "color": "#1a4f11",
    "start_point_name": "영국사 샘물",
    "length": 4,
    "time": "0"
  },
  {
    "path_id": 10,
    "path": [
      {
        "lat": 36.158894,
        "lng": 127.611588
      },
      {
        "lat": 36.158813,
        "lng": 127.611519
      }
    ],
    "color": "#2b9042",
    "start_point_name": "영국사 은행나무",
    "length": 10,
    "time": "0"
  },
  {
    "path_id": 11,
    "path": [
      {
        "lat": 36.158813,
        "lng": 127.611519
      },
      {
        "lat": 36.159359,
        "lng": 127.610405
      }
    ],
    "color": "#a1d9a6",
    "start_point_name": "영국사",
    "length": 116,
    "time": "1"
  },
  {
    "path_id": 12,
    "path": [
      {
        "lat": 36.159359,
        "lng": 127.610405
      },
      {
        "lat": 36.159611,
        "lng": 127.61042
      }
    ],
    "color": "#cc19b8",
    "start_point_name": "간이화장실",
    "length": 28,
    "time": "0"
  },
  {
    "path_id": 13,
    "path": [
      {
        "lat": 36.159611,
        "lng": 127.61042
      },
      {
        "lat": 36.1604,
        "lng": 127.607338
      }
    ],
    "color": "#5f36a6",
    "start_point_name": "산행들머리",
    "length": 290,
    "time": "4"
  },
  {
    "path_id": 14,
    "path": [
      {
        "lat": 36.1604,
        "lng": 127.607338
      },
      {
        "lat": 36.160381,
        "lng": 127.60714
      }
    ],
    "color": "#d40aa7",
    "start_point_name": "갈림길",
    "length": 17,
    "time": "0"
  },
  {
    "path_id": 15,
    "path": [
      {
        "lat": 36.160381,
        "lng": 127.60714
      },
      {
        "lat": 36.159573,
        "lng": 127.605843
      }
    ],
    "color": "#82a624",
    "start_point_name": "암릉위 영국사 조망",
    "length": 147,
    "time": "2"
  },
  {
    "path_id": 16,
    "path": [
      {
        "lat": 36.159573,
        "lng": 127.605843
      },
      {
        "lat": 36.15971,
        "lng": 127.605743
      }
    ],
    "color": "#387634",
    "start_point_name": "암릉 위험",
    "length": 17,
    "time": "0"
  },
  {
    "path_id": 17,
    "path": [
      {
        "lat": 36.15971,
        "lng": 127.605743
      },
      {
        "lat": 36.159832,
        "lng": 127.605103
      }
    ],
    "color": "#b8a11d",
    "start_point_name": "암릉2 조망",
    "length": 59,
    "time": "0"
  },
  {
    "path_id": 18,
    "path": [
      {
        "lat": 36.159832,
        "lng": 127.605103
      },
      {
        "lat": 36.159847,
        "lng": 127.605125
      }
    ],
    "color": "#f0d4c9",
    "start_point_name": "갈림길",
    "length": 2,
    "time": "0"
  },
  {
    "path_id": 19,
    "path": [
      {
        "lat": 36.159847,
        "lng": 127.605125
      },
      {
        "lat": 36.159641,
        "lng": 127.604012
      }
    ],
    "color": "#7f67b8",
    "start_point_name": "암릉3",
    "length": 102,
    "time": "1"
  },
  {
    "path_id": 20,
    "path": [
      {
        "lat": 36.159641,
        "lng": 127.604012
      },
      {
        "lat": 36.158375,
        "lng": 127.601791
      }
    ],
    "color": "#9e1efe",
    "start_point_name": "암벽3 조망",
    "length": 244,
    "time": "4"
  },
  {
    "path_id": 21,
    "path": [
      {
        "lat": 36.158375,
        "lng": 127.601791
      },
      {
        "lat": 36.155121,
        "lng": 127.604767
      }
    ],
    "color": "#18c91a",
    "start_point_name": "갈림길",
    "length": 449,
    "time": "7"
  },
  {
    "path_id": 22,
    "path": [
      {
        "lat": 36.155121,
        "lng": 127.604767
      },
      {
        "lat": 36.153378,
        "lng": 127.605446
      }
    ],
    "color": "#44223e",
    "start_point_name": "갈림길",
    "length": 203,
    "time": "3"
  },
  {
    "path_id": 23,
    "path": [
      {
        "lat": 36.153378,
        "lng": 127.605446
      },
      {
        "lat": 36.152267,
        "lng": 127.605789
      }
    ],
    "color": "#436be7",
    "start_point_name": "조망",
    "length": 127,
    "time": "2"
  },
  {
    "path_id": 24,
    "path": [
      {
        "lat": 36.152267,
        "lng": 127.605789
      },
      {
        "lat": 36.152157,
        "lng": 127.605751
      }
    ],
    "color": "#4e43a4",
    "start_point_name": "조망",
    "length": 12,
    "time": "0"
  },
  {
    "path_id": 25,
    "path": [
      {
        "lat": 36.152157,
        "lng": 127.605751
      },
      {
        "lat": 36.150723,
        "lng": 127.606392
      }
    ],
    "color": "#7ca778",
    "start_point_name": "조망",
    "length": 169,
    "time": "2"
  },
  {
    "path_id": 26,
    "path": [
      {
        "lat": 36.150723,
        "lng": 127.606392
      },
      {
        "lat": 36.151649,
        "lng": 127.609512
      }
    ],
    "color": "#ffbe65",
    "start_point_name": "전망석",
    "length": 298,
    "time": "4"
  },
  {
    "path_id": 27,
    "path": [
      {
        "lat": 36.151649,
        "lng": 127.609512
      },
      {
        "lat": 36.151672,
        "lng": 127.609489
      }
    ],
    "color": "#509569",
    "start_point_name": "갈림길",
    "length": 3,
    "time": "0"
  },
  {
    "path_id": 28,
    "path": [
      {
        "lat": 36.151672,
        "lng": 127.609489
      },
      {
        "lat": 36.157379,
        "lng": 127.610558
      }
    ],
    "color": "#5a1dd7",
    "start_point_name": "갈림길",
    "length": 641,
    "time": "10"
  },
  {
    "path_id": 29,
    "path": [
      {
        "lat": 36.157379,
        "lng": 127.610558
      },
      {
        "lat": 36.157642,
        "lng": 127.610558
      }
    ],
    "color": "#c9d759",
    "start_point_name": "갈림길",
    "length": 29,
    "time": "0"
  },
  {
    "path_id": 30,
    "path": [
      {
        "lat": 36.157642,
        "lng": 127.610558
      },
      {
        "lat": 36.158253,
        "lng": 127.611183
      }
    ],
    "color": "#b90dc6",
    "start_point_name": "영국사 대웅전",
    "length": 88,
    "time": "1"
  },
  {
    "path_id": 31,
    "path": [
      {
        "lat": 36.158253,
        "lng": 127.611183
      },
      {
        "lat": 36.157276,
        "lng": 127.613106
      }
    ],
    "color": "#4f4765",
    "start_point_name": "영국사 화장실",
    "length": 203,
    "time": "3"
  },
  {
    "path_id": 32,
    "path": [
      {
        "lat": 36.157276,
        "lng": 127.613106
      },
      {
        "lat": 36.157192,
        "lng": 127.613136
      }
    ],
    "color": "#0ab0d0",
    "start_point_name": "상어흔들바위",
    "length": 9,
    "time": "0"
  }
]