[
    {
        "path_id": 1,
        "name": "소형주차장",
        "lat": 35.503616,
        "lon": 126.586433
    },
    {
        "path_id": 2,
        "name": "전기자동차충전",
        "lat": 35.503597,
        "lon": 126.586479
    },
    {
        "path_id": 3,
        "name": "대형주차장",
        "lat": 35.503605,
        "lon": 126.586662
    },
    {
        "path_id": 4,
        "name": "버스정류장",
        "lat": 35.503338,
        "lon": 126.58696
    },
    {
        "path_id": 5,
        "name": "cu편의점",
        "lat": 35.503223,
        "lon": 126.587029
    },
    {
        "path_id": 6,
        "name": "선운산버스터미널",
        "lat": 35.502979,
        "lon": 126.586983
    },
    {
        "path_id": 7,
        "name": "전라북도 관광 안내도",
        "lat": 35.502808,
        "lon": 126.58712
    },
    {
        "path_id": 8,
        "name": "버스시간표",
        "lat": 35.502747,
        "lon": 126.587036
    },
    {
        "path_id": 9,
        "name": "버스터비널 옆쉼터",
        "lat": 35.502781,
        "lon": 126.587036
    },
    {
        "path_id": 10,
        "name": "쉼터광장",
        "lat": 35.502705,
        "lon": 126.587112
    },
    {
        "path_id": 11,
        "name": "점자안내판",
        "lat": 35.50259,
        "lon": 126.587029
    },
    {
        "path_id": 12,
        "name": "쉼터옆 화장실",
        "lat": 35.502575,
        "lon": 126.587029
    },
    {
        "path_id": 13,
        "name": "관광안내소",
        "lat": 35.502544,
        "lon": 126.587006
    },
    {
        "path_id": 14,
        "name": "문화 생태탐방로",
        "lat": 35.502464,
        "lon": 126.586914
    },
    {
        "path_id": 15,
        "name": "고창군관광안내도",
        "lat": 35.502415,
        "lon": 126.586807
    },
    {
        "path_id": 16,
        "name": "선운산 도립 공원 등산 안내도",
        "lat": 35.502403,
        "lon": 126.586769
    },
    {
        "path_id": 17,
        "name": "송악 - 천년기념물 367호",
        "lat": 35.502392,
        "lon": 126.586731
    },
    {
        "path_id": 18,
        "name": "송악  -  천년기념물367호",
        "lat": 35.501942,
        "lon": 126.586617
    },
    {
        "path_id": 19,
        "name": "꽃무릇위 송악",
        "lat": 35.50185,
        "lon": 126.586761
    },
    {
        "path_id": 20,
        "name": "벚나무 좌판가게",
        "lat": 35.501255,
        "lon": 126.58593
    },
    {
        "path_id": 21,
        "name": "꽃무릇길",
        "lat": 35.500679,
        "lon": 126.585342
    },
    {
        "path_id": 22,
        "name": "길가벤치",
        "lat": 35.500446,
        "lon": 126.585075
    },
    {
        "path_id": 23,
        "name": "생태숲",
        "lat": 35.50021,
        "lon": 126.584831
    },
    {
        "path_id": 24,
        "name": "꽃무릇길",
        "lat": 35.5,
        "lon": 126.584587
    },
    {
        "path_id": 25,
        "name": "도솔천",
        "lat": 35.499626,
        "lon": 126.584244
    },
    {
        "path_id": 26,
        "name": "꽃무릇",
        "lat": 35.498814,
        "lon": 126.583534
    },
    {
        "path_id": 27,
        "name": "미당 서정주시비",
        "lat": 35.498695,
        "lon": 126.583328
    },
    {
        "path_id": 28,
        "name": "도솔산 선운사",
        "lat": 35.498371,
        "lon": 126.582512
    },
    {
        "path_id": 29,
        "name": "공중화장실",
        "lat": 35.498093,
        "lon": 126.582268
    },
    {
        "path_id": 30,
        "name": "갈림길",
        "lat": 35.497959,
        "lon": 126.582108
    },
    {
        "path_id": 31,
        "name": "꽃무릇",
        "lat": 35.497814,
        "lon": 126.581886
    },
    {
        "path_id": 33,
        "name": "벤치",
        "lat": 35.497421,
        "lon": 126.581184
    },
    {
        "path_id": 34,
        "name": "갈림길",
        "lat": 35.497364,
        "lon": 126.580086
    },
    {
        "path_id": 35,
        "name": "쉼터광장",
        "lat": 35.497356,
        "lon": 126.580048
    },
    {
        "path_id": 36,
        "name": "차문화 체험관",
        "lat": 35.498123,
        "lon": 126.579399
    },
    {
        "path_id": 37,
        "name": "선운골 생태마을",
        "lat": 35.498806,
        "lon": 126.578484
    },
    {
        "path_id": 38,
        "name": "차밭과 꽃무릇",
        "lat": 35.498882,
        "lon": 126.578438
    },
    {
        "path_id": 39,
        "name": "차밭에서 박새",
        "lat": 35.499287,
        "lon": 126.578186
    },
    {
        "path_id": 40,
        "name": "차밭",
        "lat": 35.499416,
        "lon": 126.578094
    },
    {
        "path_id": 42,
        "name": "갈림길",
        "lat": 35.501026,
        "lon": 126.575005
    },
    {
        "path_id": 43,
        "name": "석상암",
        "lat": 35.501469,
        "lon": 126.574745
    },
    {
        "path_id": 44,
        "name": "꽃",
        "lat": 35.501076,
        "lon": 126.574913
    },
    {
        "path_id": 45,
        "name": "꽃무릇",
        "lat": 35.50103,
        "lon": 126.574814
    },
    {
        "path_id": 46,
        "name": "자릿대군락",
        "lat": 35.501099,
        "lon": 126.573814
    },
    {
        "path_id": 47,
        "name": "국가지점번호",
        "lat": 35.501686,
        "lon": 126.571281
    },
    {
        "path_id": 48,
        "name": "야생화",
        "lat": 35.502594,
        "lon": 126.570038
    },
    {
        "path_id": 49,
        "name": "갈림길",
        "lat": 35.5037,
        "lon": 126.56826
    },
    {
        "path_id": 50,
        "name": "국가지점번호",
        "lat": 35.503689,
        "lon": 126.568237
    },
    {
        "path_id": 51,
        "name": "등산위치알림판",
        "lat": 35.503628,
        "lon": 126.568222
    },
    {
        "path_id": 52,
        "name": "테이블쉼터",
        "lat": 35.503616,
        "lon": 126.568207
    },
    {
        "path_id": 53,
        "name": "국가지점번호",
        "lat": 35.501801,
        "lon": 126.568939
    },
    {
        "path_id": 54,
        "name": "테이블",
        "lat": 35.498787,
        "lon": 126.569092
    },
    {
        "path_id": 55,
        "name": "국가지점번호",
        "lat": 35.498791,
        "lon": 126.569077
    },
    {
        "path_id": 57,
        "name": "선운산(도솔산) 수리봉",
        "lat": 35.498672,
        "lon": 126.568932
    },
    {
        "path_id": 58,
        "name": "변산반도와 곰소항",
        "lat": 35.498516,
        "lon": 126.568794
    },
    {
        "path_id": 59,
        "name": "국가지점번호",
        "lat": 35.498249,
        "lon": 126.568611
    },
    {
        "path_id": 60,
        "name": "여로",
        "lat": 35.498219,
        "lon": 126.568604
    },
    {
        "path_id": 61,
        "name": "국가지점번호",
        "lat": 35.49752,
        "lon": 126.568359
    },
    {
        "path_id": 62,
        "name": "갈림길",
        "lat": 35.49752,
        "lon": 126.568336
    },
    {
        "path_id": 63,
        "name": "도솔제",
        "lat": 35.496162,
        "lon": 126.568604
    },
    {
        "path_id": 64,
        "name": "집단시설지구 선운사",
        "lat": 35.495342,
        "lon": 126.568428
    },
    {
        "path_id": 65,
        "name": "도솔제주변 능선",
        "lat": 35.494843,
        "lon": 126.56842
    },
    {
        "path_id": 66,
        "name": "선운사집단시설지구와 선우사 주변 능선",
        "lat": 35.494846,
        "lon": 126.568459
    },
    {
        "path_id": 67,
        "name": "도솔제",
        "lat": 35.494843,
        "lon": 126.568474
    },
    {
        "path_id": 69,
        "name": "포갠바위",
        "lat": 35.494541,
        "lon": 126.568268
    },
    {
        "path_id": 70,
        "name": "너럭바위",
        "lat": 35.493954,
        "lon": 126.568069
    },
    {
        "path_id": 71,
        "name": "선운산도립공원내 능선들",
        "lat": 35.493938,
        "lon": 126.568054
    },
    {
        "path_id": 72,
        "name": "층꽃",
        "lat": 35.493862,
        "lon": 126.568069
    },
    {
        "path_id": 73,
        "name": "갈림길",
        "lat": 35.492153,
        "lon": 126.56752
    },
    {
        "path_id": 74,
        "name": "탑",
        "lat": 35.489361,
        "lon": 126.570396
    },
    {
        "path_id": 75,
        "name": "테이블과 벤치",
        "lat": 35.490078,
        "lon": 126.571793
    },
    {
        "path_id": 76,
        "name": "꽃무릇 군락지",
        "lat": 35.490906,
        "lon": 126.573425
    },
    {
        "path_id": 77,
        "name": "템플스테이",
        "lat": 35.491062,
        "lon": 126.574799
    },
    {
        "path_id": 78,
        "name": "선운사 연수원",
        "lat": 35.491093,
        "lon": 126.574867
    },
    {
        "path_id": 79,
        "name": "탐방로",
        "lat": 35.491161,
        "lon": 126.575005
    },
    {
        "path_id": 80,
        "name": "갈림길",
        "lat": 35.491177,
        "lon": 126.575012
    },
    {
        "path_id": 81,
        "name": "정자와 벤치",
        "lat": 35.491707,
        "lon": 126.57486
    },
    {
        "path_id": 82,
        "name": "도솔천",
        "lat": 35.491768,
        "lon": 126.574867
    },
    {
        "path_id": 83,
        "name": "벤치",
        "lat": 35.491867,
        "lon": 126.574806
    },
    {
        "path_id": 84,
        "name": "도솔천 건너 차밭",
        "lat": 35.494469,
        "lon": 126.574936
    },
    {
        "path_id": 85,
        "name": "도솔천 식생",
        "lat": 35.494671,
        "lon": 126.57518
    },
    {
        "path_id": 86,
        "name": "도솔천과 탕방로",
        "lat": 35.494843,
        "lon": 126.575371
    },
    {
        "path_id": 87,
        "name": "도솔천 주변 꽃무릇",
        "lat": 35.495102,
        "lon": 126.575813
    },
    {
        "path_id": 88,
        "name": "도솔천이 검게 보이는 이유:타닌성분",
        "lat": 35.495274,
        "lon": 126.575912
    },
    {
        "path_id": 89,
        "name": "만세루",
        "lat": 35.49654,
        "lon": 126.578659
    },
    {
        "path_id": 90,
        "name": "영산전과 명부전일대",
        "lat": 35.496769,
        "lon": 126.578323
    },
    {
        "path_id": 91,
        "name": "육층석탑",
        "lat": 35.497105,
        "lon": 126.578278
    },
    {
        "path_id": 92,
        "name": "대웅보전과 육층석탑",
        "lat": 35.497028,
        "lon": 126.5783
    },
    {
        "path_id": 93,
        "name": "좌상",
        "lat": 35.497158,
        "lon": 126.578133
    },
    {
        "path_id": 94,
        "name": "대웅보전과 만세루",
        "lat": 35.496983,
        "lon": 126.577599
    },
    {
        "path_id": 95,
        "name": "영산전",
        "lat": 35.496807,
        "lon": 126.577789
    },
    {
        "path_id": 96,
        "name": "마실수 있는문",
        "lat": 35.496849,
        "lon": 126.57785
    },
    {
        "path_id": 97,
        "name": "팔상전과 산신각",
        "lat": 35.497158,
        "lon": 126.577759
    },
    {
        "path_id": 98,
        "name": "동백숲",
        "lat": 35.497345,
        "lon": 126.578239
    },
    {
        "path_id": 99,
        "name": "꽃무릇과 동백숲",
        "lat": 35.497166,
        "lon": 126.577744
    },
    {
        "path_id": 100,
        "name": "범종",
        "lat": 35.496601,
        "lon": 126.578316
    },
    {
        "path_id": 101,
        "name": "배롱나무와 만세루",
        "lat": 35.496616,
        "lon": 126.578346
    },
    {
        "path_id": 102,
        "name": "지장보살전",
        "lat": 35.497173,
        "lon": 126.578529
    },
    {
        "path_id": 103,
        "name": "금동보살자살",
        "lat": 35.497398,
        "lon": 126.578651
    },
    {
        "path_id": 104,
        "name": "동백숲 -천년기념물184호",
        "lat": 35.497585,
        "lon": 126.578743
    },
    {
        "path_id": 105,
        "name": "선운사",
        "lat": 35.497261,
        "lon": 126.578873
    },
    {
        "path_id": 106,
        "name": "테이블벤치",
        "lat": 35.497208,
        "lon": 126.57888
    },
    {
        "path_id": 107,
        "name": "선운사",
        "lat": 35.497078,
        "lon": 126.57888
    },
    {
        "path_id": 108,
        "name": "해우소",
        "lat": 35.496948,
        "lon": 126.578957
    },
    {
        "path_id": 109,
        "name": "배롱나무",
        "lat": 35.496689,
        "lon": 126.578529
    },
    {
        "path_id": 110,
        "name": "인경봉",
        "lat": 35.496593,
        "lon": 126.578506
    },
    {
        "path_id": 111,
        "name": "선운사 천왕문",
        "lat": 35.496529,
        "lon": 126.578674
    },
    {
        "path_id": 112,
        "name": "선운사 옆 자연쉼터",
        "lat": 35.496929,
        "lon": 126.579369
    },
    {
        "path_id": 113,
        "name": "도솔천",
        "lat": 35.497219,
        "lon": 126.579857
    },
    {
        "path_id": 114,
        "name": "부도군",
        "lat": 35.49762,
        "lon": 126.580833
    },
    {
        "path_id": 115,
        "name": "매표소",
        "lat": 35.498455,
        "lon": 126.582718
    },
    {
        "path_id": 116,
        "name": "선운산가비",
        "lat": 35.498775,
        "lon": 126.583237
    },
    {
        "path_id": 117,
        "name": "정자",
        "lat": 35.498898,
        "lon": 126.583382
    },
    {
        "path_id": 118,
        "name": "꽃무릇군락",
        "lat": 35.499355,
        "lon": 126.583786
    },
    {
        "path_id": 119,
        "name": "노점커피",
        "lat": 35.499882,
        "lon": 126.584297
    },
    {
        "path_id": 120,
        "name": "등나무벤치",
        "lat": 35.500103,
        "lon": 126.584412
    },
    {
        "path_id": 121,
        "name": "생태숲",
        "lat": 35.500301,
        "lon": 126.584259
    },
    {
        "path_id": 122,
        "name": "생태숲방문자센터",
        "lat": 35.501698,
        "lon": 126.584702
    },
    {
        "path_id": 123,
        "name": "비학산",
        "lat": 35.501671,
        "lon": 126.584839
    },
    {
        "path_id": 124,
        "name": "정자와벤치",
        "lat": 35.501602,
        "lon": 126.584824
    },
    {
        "path_id": 125,
        "name": "선운산생태숲",
        "lat": 35.501514,
        "lon": 126.585518
    },
    {
        "path_id": 126,
        "name": "벤치",
        "lat": 35.501541,
        "lon": 126.58564
    },
    {
        "path_id": 127,
        "name": "생태숲 안내도",
        "lat": 35.501404,
        "lon": 126.585808
    },
    {
        "path_id": 128,
        "name": "벤치",
        "lat": 35.501648,
        "lon": 126.585915
    },
    {
        "path_id": 129,
        "name": "까페",
        "lat": 35.501949,
        "lon": 126.586243
    },
    {
        "path_id": 130,
        "name": "매점 및 농협",
        "lat": 35.501984,
        "lon": 126.586327
    },
    {
        "path_id": 131,
        "name": "선운초서문화관",
        "lat": 35.502552,
        "lon": 126.586441
    },
    {
        "path_id": 132,
        "name": "쉼터광장",
        "lat": 35.502804,
        "lon": 126.586357
    },
    {
        "path_id": 133,
        "name": "식당가 :실내보다 실외 테라스를 모두 갖춤",
        "lat": 35.503052,
        "lon": 126.58625
    }
]