{
  "max_ele": 969.865,
  "total_length_km": "9.1km",
  "total_time": "1시간 54분",
  "track": [
    {
      "path_id": 0,
      "path": [
        {
          "lat": 38.101665,
          "lng": 127.443695
        },
        {
          "lat": 38.099846,
          "lng": 127.443733
        }
      ],
      "color": "#bb8082",
      "start_name": "광덕산 정류장",
      "length_meter": 202.3,
      "time_minute": 2
    },
    {
      "path_id": 1,
      "path": [
        {
          "lat": 38.099846,
          "lng": 127.443733
        },
        {
          "lat": 38.090691,
          "lng": 127.445412
        }
      ],
      "color": "#8f407e",
      "start_name": "광덕고개",
      "length_meter": 1028.5,
      "time_minute": 12
    },
    {
      "path_id": 2,
      "path": [
        {
          "lat": 38.090691,
          "lng": 127.445412
        },
        {
          "lat": 38.084938,
          "lng": 127.446037
        }
      ],
      "color": "#6f735a",
      "start_name": "고개 쉼터",
      "length_meter": 642.0,
      "time_minute": 8
    },
    {
      "path_id": 3,
      "path": [
        {
          "lat": 38.084938,
          "lng": 127.446037
        },
        {
          "lat": 38.082451,
          "lng": 127.446648
        }
      ],
      "color": "#49705a",
      "start_name": "헬기장",
      "length_meter": 281.7,
      "time_minute": 3
    },
    {
      "path_id": 4,
      "path": [
        {
          "lat": 38.082451,
          "lng": 127.446648
        },
        {
          "lat": 38.080013,
          "lng": 127.447182
        }
      ],
      "color": "#95bd8e",
      "start_name": "언덕",
      "length_meter": 275.1,
      "time_minute": 3
    },
    {
      "path_id": 5,
      "path": [
        {
          "lat": 38.080013,
          "lng": 127.447182
        },
        {
          "lat": 38.074852,
          "lng": 127.444565
        }
      ],
      "color": "#05b207",
      "start_name": "쉼터",
      "length_meter": 617.9,
      "time_minute": 7
    },
    {
      "path_id": 6,
      "path": [
        {
          "lat": 38.074852,
          "lng": 127.444565
        },
        {
          "lat": 38.067657,
          "lng": 127.446724
        }
      ],
      "color": "#7d2b87",
      "start_name": "백운산",
      "length_meter": 822.1,
      "time_minute": 10
    },
    {
      "path_id": 7,
      "path": [
        {
          "lat": 38.067657,
          "lng": 127.446724
        },
        {
          "lat": 38.058552,
          "lng": 127.44384
        }
      ],
      "color": "#aa258a",
      "start_name": "삼각봉 / 쉼터",
      "length_meter": 1044.8,
      "time_minute": 17
    },
    {
      "path_id": 8,
      "path": [
        {
          "lat": 38.058552,
          "lng": 127.44384
        },
        {
          "lat": 38.060486,
          "lng": 127.434608
        }
      ],
      "color": "#34602b",
      "start_name": "도마치봉",
      "length_meter": 836.4,
      "time_minute": 10
    },
    {
      "path_id": 9,
      "path": [
        {
          "lat": 38.060486,
          "lng": 127.434608
        },
        {
          "lat": 38.060337,
          "lng": 127.431488
        }
      ],
      "color": "#b81a69",
      "start_name": "황룡사 사거리",
      "length_meter": 273.7,
      "time_minute": 3
    },
    {
      "path_id": 10,
      "path": [
        {
          "lat": 38.060337,
          "lng": 127.431488
        },
        {
          "lat": 38.05793,
          "lng": 127.427666
        }
      ],
      "color": "#655f25",
      "start_name": "향적봉",
      "length_meter": 428.5,
      "time_minute": 5
    },
    {
      "path_id": 11,
      "path": [
        {
          "lat": 38.05793,
          "lng": 127.427666
        },
        {
          "lat": 38.057854,
          "lng": 127.425377
        }
      ],
      "color": "#8f2844",
      "start_name": "쉼터",
      "length_meter": 200.6,
      "time_minute": 2
    },
    {
      "path_id": 12,
      "path": [
        {
          "lat": 38.057854,
          "lng": 127.425377
        },
        {
          "lat": 38.057812,
          "lng": 127.424446
        }
      ],
      "color": "#574844",
      "start_name": "흥룡사 가는길",
      "length_meter": 81.6,
      "time_minute": 1
    },
    {
      "path_id": 13,
      "path": [
        {
          "lat": 38.057812,
          "lng": 127.424446
        },
        {
          "lat": 38.060379,
          "lng": 127.417709
        }
      ],
      "color": "#7ba565",
      "start_name": "흥룡봉 / 헬기장",
      "length_meter": 657.1,
      "time_minute": 10
    },
    {
      "path_id": 14,
      "path": [
        {
          "lat": 38.060379,
          "lng": 127.417709
        },
        {
          "lat": 38.069088,
          "lng": 127.414993
        }
      ],
      "color": "#c20142",
      "start_name": "649봉",
      "length_meter": 997.2,
      "time_minute": 12
    },
    {
      "path_id": 15,
      "path": [
        {
          "lat": 38.069088,
          "lng": 127.414993
        },
        {
          "lat": 38.070938,
          "lng": 127.410622
        }
      ],
      "color": "#97b3af",
      "start_name": "계곡 / 안내 표지판",
      "length_meter": 448.9,
      "time_minute": 7
    },
    {
      "path_id": 16,
      "path": [
        {
          "lat": 38.070938,
          "lng": 127.410622
        },
        {
          "lat": 38.072224,
          "lng": 127.409714
        }
      ],
      "color": "#04be17",
      "start_name": "흥룡사 사찰",
      "length_meter": 163.6,
      "time_minute": 2
    },
    {
      "path_id": 17,
      "path": [
        {
          "lat": 38.072224,
          "lng": 127.409714
        },
        {
          "lat": 38.073212,
          "lng": 127.409058
        }
      ],
      "color": "#b4c237",
      "start_name": "흥룡사 주차장 / 주차장 안내",
      "length_meter": 125.7,
      "time_minute": 1
    }
  ]
}