[
  {
    "path_id": 0,
    "path": [
      {
        "lat": 38.073372,
        "lng": 127.412041
      },
      {
        "lat": 38.072376,
        "lng": 127.409714
      }
    ],
    "color": "#335a61",
    "start_name": "백운동(백우계곡) 버스정류장 / 백운산갈비 / 산맥",
    "length_meter": 241.0,
    "time_minute": 4
  },
  {
    "path_id": 1,
    "path": [
      {
        "lat": 38.072376,
        "lng": 127.409714
      },
      {
        "lat": 38.072754,
        "lng": 127.411003
      }
    ],
    "color": "#96a36e",
    "start_name": "백운계곡주차장",
    "length_meter": 120.4,
    "time_minute": 2
  },
  {
    "path_id": 2,
    "path": [
      {
        "lat": 38.072754,
        "lng": 127.411003
      },
      {
        "lat": 38.071522,
        "lng": 127.409752
      }
    ],
    "color": "#0cb0af",
    "start_name": "백운계곡주차장화장실",
    "length_meter": 175.4,
    "time_minute": 2
  },
  {
    "path_id": 3,
    "path": [
      {
        "lat": 38.071522,
        "lng": 127.409752
      },
      {
        "lat": 38.070927,
        "lng": 127.410751
      }
    ],
    "color": "#fda5ec",
    "start_name": "흥룡사 / 흥룡사 약수터",
    "length_meter": 111.8,
    "time_minute": 1
  },
  {
    "path_id": 4,
    "path": [
      {
        "lat": 38.070927,
        "lng": 127.410751
      },
      {
        "lat": 38.070057,
        "lng": 127.412697
      }
    ],
    "color": "#a6146e",
    "start_name": "화장실",
    "length_meter": 195.9,
    "time_minute": 3
  },
  {
    "path_id": 5,
    "path": [
      {
        "lat": 38.070057,
        "lng": 127.412697
      },
      {
        "lat": 38.070702,
        "lng": 127.418228
      }
    ],
    "color": "#82e0e1",
    "start_name": "갈림길",
    "length_meter": 489.5,
    "time_minute": 8
  },
  {
    "path_id": 6,
    "path": [
      {
        "lat": 38.070702,
        "lng": 127.418228
      },
      {
        "lat": 38.071327,
        "lng": 127.420761
      }
    ],
    "color": "#864d31",
    "start_name": "겹친 산등성이들",
    "length_meter": 232.4,
    "time_minute": 3
  },
  {
    "path_id": 7,
    "path": [
      {
        "lat": 38.071327,
        "lng": 127.420761
      },
      {
        "lat": 38.072372,
        "lng": 127.43322
      }
    ],
    "color": "#a72a8d",
    "start_name": "밴치",
    "length_meter": 1096.8,
    "time_minute": 18
  },
  {
    "path_id": 8,
    "path": [
      {
        "lat": 38.072372,
        "lng": 127.43322
      },
      {
        "lat": 38.075695,
        "lng": 127.439323
      }
    ],
    "color": "#727de1",
    "start_name": "갈림길",
    "length_meter": 649.6,
    "time_minute": 10
  },
  {
    "path_id": 9,
    "path": [
      {
        "lat": 38.075695,
        "lng": 127.439323
      },
      {
        "lat": 38.07571,
        "lng": 127.438568
      }
    ],
    "color": "#b1f3f7",
    "start_name": "사고다발지역",
    "length_meter": 66.1,
    "time_minute": 1
  },
  {
    "path_id": 10,
    "path": [
      {
        "lat": 38.07571,
        "lng": 127.438568
      },
      {
        "lat": 38.074909,
        "lng": 127.444534
      }
    ],
    "color": "#76f4c2",
    "start_name": "갈림길",
    "length_meter": 529.8,
    "time_minute": 8
  },
  {
    "path_id": 11,
    "path": [
      {
        "lat": 38.074909,
        "lng": 127.444534
      },
      {
        "lat": 38.069771,
        "lng": 127.431038
      }
    ],
    "color": "#99d794",
    "start_name": "백운산정상 / 웨이포인트 18 / 갈림길",
    "length_meter": 1318.2,
    "time_minute": 21
  },
  {
    "path_id": 12,
    "path": [
      {
        "lat": 38.069771,
        "lng": 127.431038
      },
      {
        "lat": 38.069004,
        "lng": 127.429123
      }
    ],
    "color": "#6dde16",
    "start_name": "봉래굴 / 갈림길",
    "length_meter": 190.2,
    "time_minute": 3
  },
  {
    "path_id": 13,
    "path": [
      {
        "lat": 38.069004,
        "lng": 127.429123
      },
      {
        "lat": 38.069103,
        "lng": 127.428337
      }
    ],
    "color": "#91b046",
    "start_name": "백운계곡 상류지점",
    "length_meter": 69.7,
    "time_minute": 1
  },
  {
    "path_id": 14,
    "path": [
      {
        "lat": 38.069103,
        "lng": 127.428337
      },
      {
        "lat": 38.072212,
        "lng": 127.409706
      }
    ],
    "color": "#b23a41",
    "start_name": "갈림길",
    "length_meter": 1667.2,
    "time_minute": 27
  }
]