[
    {
        "name": "버스정류장(들머리)",
        "lat": 36.250347,
        "lon": 127.550224
    },
    {
        "name": "정류장화장실",
        "lat": 36.250336,
        "lon": 127.550323
    },
    {
        "name": "금천마을 녹색관광센터",
        "lat": 36.24971,
        "lon": 127.550751
    },
    {
        "name": "장령산 힐링팬션",
        "lat": 36.249302,
        "lon": 127.551048
    },
    {
        "name": "산들바람",
        "lat": 36.248947,
        "lon": 127.55127
    },
    {
        "name": "등산로입구",
        "lat": 36.248405,
        "lon": 127.551559
    },
    {
        "name": "조망바위",
        "lat": 36.246025,
        "lon": 127.550812
    },
    {
        "name": "제비봉 정상",
        "lat": 36.239174,
        "lon": 127.5495
    },
    {
        "name": "쉼터",
        "lat": 36.236046,
        "lon": 127.546974
    },
    {
        "name": "자연경관",
        "lat": 36.238686,
        "lon": 127.542229
    },
    {
        "name": "쉼터",
        "lat": 36.237843,
        "lon": 127.544769
    },
    {
        "name": "봉우리정상",
        "lat": 36.240547,
        "lon": 127.545647
    },
    {
        "name": "재말재 팽나무",
        "lat": 36.245258,
        "lon": 127.536568
    },
    {
        "name": "갈림길",
        "lat": 36.245285,
        "lon": 127.536598
    },
    {
        "name": "갈림길",
        "lat": 36.242779,
        "lon": 127.532913
    },
    {
        "name": "쉼터",
        "lat": 36.240501,
        "lon": 127.529007
    },
    {
        "name": "성당2리 복지회관",
        "lat": 36.240211,
        "lon": 127.528809
    },
    {
        "name": "주차장",
        "lat": 36.24004,
        "lon": 127.528641
    },
    {
        "name": "성당리2리 정류장(날머리)",
        "lat": 36.239449,
        "lon": 127.52845
    }
]