[
    {
        "path_id": 1,
        "name": "문재쉼터",
        "lat": 37.426533,
        "lon": 128.261734
    },
    {
        "path_id": 2,
        "name": "문재 들머리",
        "lat": 37.426506,
        "lon": 128.261551
    },
    {
        "path_id": 3,
        "name": "등산로 폐쇄",
        "lat": 37.425903,
        "lon": 128.259491
    },
    {
        "path_id": 4,
        "name": "갈림길",
        "lat": 37.425705,
        "lon": 128.259109
    },
    {
        "path_id": 8,
        "name": "헬기장",
        "lat": 37.415646,
        "lon": 128.261002
    },
    {
        "path_id": 9,
        "name": "나무 쓰러짐",
        "lat": 37.41375,
        "lon": 128.261795
    },
    {
        "path_id": 10,
        "name": "갈림길",
        "lat": 37.412411,
        "lon": 128.262985
    },
    {
        "path_id": 11,
        "name": "길에 넘어진 고목",
        "lat": 37.412113,
        "lon": 128.263046
    },
    {
        "path_id": 12,
        "name": "등산로폐쇄",
        "lat": 37.410614,
        "lon": 128.264465
    },
    {
        "path_id": 14,
        "name": "갈림길",
        "lat": 37.407829,
        "lon": 128.266098
    },
    {
        "path_id": 15,
        "name": "등산로폐쇄",
        "lat": 37.408051,
        "lon": 128.268127
    },
    {
        "path_id": 16,
        "name": "고목 쓰러짐",
        "lat": 37.407768,
        "lon": 128.272537
    },
    {
        "path_id": 17,
        "name": "사자산 정상",
        "lat": 37.407681,
        "lon": 128.272705
    },
    {
        "path_id": 18,
        "name": "갈림길",
        "lat": 37.407658,
        "lon": 128.272736
    },
    {
        "path_id": 19,
        "name": "가파른 경사 바로 옆길",
        "lat": 37.406582,
        "lon": 128.275848
    },
    {
        "path_id": 20,
        "name": "백덕산 2Km전",
        "lat": 37.40662,
        "lon": 128.276871
    },
    {
        "path_id": 21,
        "name": "등산로폐쇄",
        "lat": 37.406303,
        "lon": 128.278397
    }
]