{
  "max_ele": 749.461,
  "track": [
    {
      "path_id": 0,
      "path": [
        {
          "lat": 36.219673,
          "lng": 127.567383
        },
        {
          "lat": 36.21777,
          "lng": 127.555496
        }
      ],
      "color": "#15ba16",
      "start_name": "벛꽃길 상곡교",
      "length_meter": 1087.2,
      "time_minute": 18
    },
    {
      "path_id": 1,
      "path": [
        {
          "lat": 36.21777,
          "lng": 127.555496
        },
        {
          "lat": 36.217514,
          "lng": 127.554443
        }
      ],
      "color": "#0a044e",
      "start_name": "갈림길 / 웨이포인트 4",
      "length_meter": 99.9,
      "time_minute": 1
    },
    {
      "path_id": 2,
      "path": [
        {
          "lat": 36.217514,
          "lng": 127.554443
        },
        {
          "lat": 36.218544,
          "lng": 127.552979
        }
      ],
      "color": "#369871",
      "start_name": "선문사",
      "length_meter": 174.3,
      "time_minute": 2
    },
    {
      "path_id": 3,
      "path": [
        {
          "lat": 36.218544,
          "lng": 127.552979
        },
        {
          "lat": 36.220545,
          "lng": 127.551709
        }
      ],
      "color": "#3f6dbb",
      "start_name": "황새목길좌측(식용식물군락지)",
      "length_meter": 250.0,
      "time_minute": 4
    },
    {
      "path_id": 4,
      "path": [
        {
          "lat": 36.220545,
          "lng": 127.551709
        },
        {
          "lat": 36.221313,
          "lng": 127.550636
        }
      ],
      "color": "#176c0f",
      "start_name": "웨이포인트 6",
      "length_meter": 128.7,
      "time_minute": 2
    },
    {
      "path_id": 5,
      "path": [
        {
          "lat": 36.221313,
          "lng": 127.550636
        },
        {
          "lat": 36.221977,
          "lng": 127.548996
        }
      ],
      "color": "#7a5206",
      "start_name": "흥국사로 적송 / 황새목길(흥국사 입구)",
      "length_meter": 164.6,
      "time_minute": 2
    },
    {
      "path_id": 6,
      "path": [
        {
          "lat": 36.221977,
          "lng": 127.548996
        },
        {
          "lat": 36.222088,
          "lng": 127.548241
        }
      ],
      "color": "#9fc31e",
      "start_name": "황새목길(흥국사 올라가는 등산로)",
      "length_meter": 68.8,
      "time_minute": 1
    },
    {
      "path_id": 7,
      "path": [
        {
          "lat": 36.222088,
          "lng": 127.548241
        },
        {
          "lat": 36.227634,
          "lng": 127.54245
        }
      ],
      "color": "#8a4cc1",
      "start_name": "흥국사",
      "length_meter": 806.3,
      "time_minute": 13
    },
    {
      "path_id": 8,
      "path": [
        {
          "lat": 36.227634,
          "lng": 127.54245
        },
        {
          "lat": 36.229252,
          "lng": 127.541527
        }
      ],
      "color": "#b9bd08",
      "start_name": "신선바위",
      "length_meter": 198.0,
      "time_minute": 3
    },
    {
      "path_id": 9,
      "path": [
        {
          "lat": 36.229252,
          "lng": 127.541527
        },
        {
          "lat": 36.229874,
          "lng": 127.53994
        }
      ],
      "color": "#3d877c",
      "start_name": "바위심터",
      "length_meter": 158.3,
      "time_minute": 2
    },
    {
      "path_id": 10,
      "path": [
        {
          "lat": 36.229874,
          "lng": 127.53994
        },
        {
          "lat": 36.231449,
          "lng": 127.538536
        }
      ],
      "color": "#0c007d",
      "start_name": "마당바위",
      "length_meter": 215.7,
      "time_minute": 3
    },
    {
      "path_id": 11,
      "path": [
        {
          "lat": 36.231449,
          "lng": 127.538536
        },
        {
          "lat": 36.235271,
          "lng": 127.5327
        }
      ],
      "color": "#b70554",
      "start_name": "서대산전적비 / 갈림길",
      "length_meter": 676.3,
      "time_minute": 11
    },
    {
      "path_id": 12,
      "path": [
        {
          "lat": 36.235271,
          "lng": 127.5327
        },
        {
          "lat": 36.239159,
          "lng": 127.529358
        }
      ],
      "color": "#0c8f52",
      "start_name": "드림리조트주차장",
      "length_meter": 526.1,
      "time_minute": 8
    },
    {
      "path_id": 13,
      "path": [
        {
          "lat": 36.239159,
          "lng": 127.529358
        },
        {
          "lat": 36.239334,
          "lng": 127.528412
        }
      ],
      "color": "#756a23",
      "start_name": "서대산청포도식당",
      "length_meter": 87.0,
      "time_minute": 1
    }
  ]
}