{
  "max_ele": 749.461,
  "total_length_km": "4.6km",
  "total_time": "0시간 58분",
  "track": [
    {
      "path_id": 0,
      "path": [
        {
          "lat": 36.219673,
          "lng": 127.567383
        },
        {
          "lat": 36.21777,
          "lng": 127.555496
        }
      ],
      "color": "#c29ea5",
      "start_name": "벛꽃길 상곡교",
      "length_meter": 1087.2,
      "time_minute": 13
    },
    {
      "path_id": 1,
      "path": [
        {
          "lat": 36.21777,
          "lng": 127.555496
        },
        {
          "lat": 36.217514,
          "lng": 127.554443
        }
      ],
      "color": "#6b35ad",
      "start_name": "갈림길 / 웨이포인트 4",
      "length_meter": 99.9,
      "time_minute": 1
    },
    {
      "path_id": 2,
      "path": [
        {
          "lat": 36.217514,
          "lng": 127.554443
        },
        {
          "lat": 36.218544,
          "lng": 127.552979
        }
      ],
      "color": "#29ae8f",
      "start_name": "선문사",
      "length_meter": 174.3,
      "time_minute": 2
    },
    {
      "path_id": 3,
      "path": [
        {
          "lat": 36.218544,
          "lng": 127.552979
        },
        {
          "lat": 36.220545,
          "lng": 127.551709
        }
      ],
      "color": "#7963b6",
      "start_name": "황새목길좌측(식용식물군락지)",
      "length_meter": 250.0,
      "time_minute": 3
    },
    {
      "path_id": 4,
      "path": [
        {
          "lat": 36.220545,
          "lng": 127.551709
        },
        {
          "lat": 36.221313,
          "lng": 127.550636
        }
      ],
      "color": "#119058",
      "start_name": "웨이포인트 6",
      "length_meter": 128.7,
      "time_minute": 1
    },
    {
      "path_id": 5,
      "path": [
        {
          "lat": 36.221313,
          "lng": 127.550636
        },
        {
          "lat": 36.221977,
          "lng": 127.548996
        }
      ],
      "color": "#657733",
      "start_name": "흥국사로 적송 / 황새목길(흥국사 입구)",
      "length_meter": 164.6,
      "time_minute": 2
    },
    {
      "path_id": 6,
      "path": [
        {
          "lat": 36.221977,
          "lng": 127.548996
        },
        {
          "lat": 36.227634,
          "lng": 127.54245
        }
      ],
      "color": "#6bad75",
      "start_name": "황새목길(흥국사 올라가는 등산로) / 흥국사",
      "length_meter": 875.2,
      "time_minute": 14
    },
    {
      "path_id": 7,
      "path": [
        {
          "lat": 36.227634,
          "lng": 127.54245
        },
        {
          "lat": 36.229252,
          "lng": 127.541527
        }
      ],
      "color": "#99367b",
      "start_name": "신선바위",
      "length_meter": 198.0,
      "time_minute": 2
    },
    {
      "path_id": 8,
      "path": [
        {
          "lat": 36.229252,
          "lng": 127.541527
        },
        {
          "lat": 36.229874,
          "lng": 127.53994
        }
      ],
      "color": "#275ac2",
      "start_name": "바위심터",
      "length_meter": 158.3,
      "time_minute": 1
    },
    {
      "path_id": 9,
      "path": [
        {
          "lat": 36.229874,
          "lng": 127.53994
        },
        {
          "lat": 36.231449,
          "lng": 127.538536
        }
      ],
      "color": "#5ebc77",
      "start_name": "마당바위",
      "length_meter": 215.7,
      "time_minute": 2
    },
    {
      "path_id": 10,
      "path": [
        {
          "lat": 36.231449,
          "lng": 127.538536
        },
        {
          "lat": 36.235271,
          "lng": 127.5327
        }
      ],
      "color": "#be7344",
      "start_name": "서대산전적비 / 갈림길",
      "length_meter": 676.3,
      "time_minute": 11
    },
    {
      "path_id": 11,
      "path": [
        {
          "lat": 36.235271,
          "lng": 127.5327
        },
        {
          "lat": 36.239159,
          "lng": 127.529358
        }
      ],
      "color": "#4e4a42",
      "start_name": "드림리조트주차장",
      "length_meter": 526.1,
      "time_minute": 6
    },
    {
      "path_id": 12,
      "path": [
        {
          "lat": 36.239159,
          "lng": 127.529358
        },
        {
          "lat": 36.239334,
          "lng": 127.528412
        }
      ],
      "color": "#786e99",
      "start_name": "서대산청포도식당",
      "length_meter": 87.0,
      "time_minute": 1
    }
  ]
}