{
    "max_ele": 442.528,
    "min_ele": 60.615,
    "track": [
        {
            "path_id": 1,
            "name": "바디재",
            "lat": 35.636395,
            "lon": 126.629173,
            "ele": 208.845
        },
        {
            "path_id": 2,
            "name": "바디재입구",
            "lat": 35.636433,
            "lon": 126.629189,
            "ele": 212.066
        },
        {
            "path_id": 3,
            "name": "옥녀봉80m전",
            "lat": 35.635021,
            "lon": 126.623863,
            "ele": 417.8
        },
        {
            "path_id": 4,
            "name": "옥녀봉전",
            "lat": 35.635044,
            "lon": 126.623367,
            "ele": 430.192
        },
        {
            "path_id": 5,
            "name": "옥녀봉",
            "lat": 35.635296,
            "lon": 126.622643,
            "ele": 442.528
        },
        {
            "path_id": 6,
            "name": "옥녀봉",
            "lat": 35.635296,
            "lon": 126.622643,
            "ele": 442.528
        },
        {
            "path_id": 7,
            "name": "옥녀봉조망",
            "lat": 35.629021,
            "lon": 126.622932,
            "ele": 304.068
        },
        {
            "path_id": 8,
            "name": "관음봉조망",
            "lat": 35.628578,
            "lon": 126.622963,
            "ele": 310.605
        },
        {
            "path_id": 9,
            "name": "갈림길",
            "lat": 35.627056,
            "lon": 126.620384,
            "ele": 262.114
        },
        {
            "path_id": 10,
            "name": "원시림",
            "lat": 35.636803,
            "lon": 126.609375,
            "ele": 144.904
        },
        {
            "path_id": 11,
            "name": "계곡길",
            "lat": 35.640339,
            "lon": 126.603065,
            "ele": 126.656
        },
        {
            "path_id": 12,
            "name": "세봉조망",
            "lat": 35.639748,
            "lon": 126.600899,
            "ele": 143.693
        },
        {
            "path_id": 13,
            "name": "갈림길",
            "lat": 35.639034,
            "lon": 126.600471,
            "ele": 107.674
        },
        {
            "path_id": 14,
            "name": "와룡소",
            "lat": 35.639065,
            "lon": 126.601105,
            "ele": 107.324
        },
        {
            "path_id": 15,
            "name": "갈림길",
            "lat": 35.637283,
            "lon": 126.596672,
            "ele": 83.398
        },
        {
            "path_id": 16,
            "name": "내변산 봉우리 조망",
            "lat": 35.636402,
            "lon": 126.593491,
            "ele": 162.613
        },
        {
            "path_id": 17,
            "name": "직소보 조망",
            "lat": 35.631866,
            "lon": 126.591461,
            "ele": 365.97
        },
        {
            "path_id": 18,
            "name": "세봉삼거리전",
            "lat": 35.630146,
            "lon": 126.591751,
            "ele": 427.848
        },
        {
            "path_id": 19,
            "name": "곰소만",
            "lat": 35.625027,
            "lon": 126.591003,
            "ele": 402.508
        },
        {
            "path_id": 20,
            "name": "신전봉배경",
            "lat": 35.624771,
            "lon": 126.591103,
            "ele": 388.548
        },
        {
            "path_id": 21,
            "name": "호수",
            "lat": 35.621082,
            "lon": 126.592949,
            "ele": 287.754
        },
        {
            "path_id": 22,
            "name": "곰소만",
            "lat": 35.61565,
            "lon": 126.594681,
            "ele": 250.212
        },
        {
            "path_id": 23,
            "name": "관음봉",
            "lat": 35.615566,
            "lon": 126.594597,
            "ele": 241.848
        },
        {
            "path_id": 24,
            "name": "입암전망대",
            "lat": 35.612282,
            "lon": 126.59095,
            "ele": 117.875
        },
        {
            "path_id": 25,
            "name": "입암",
            "lat": 35.611462,
            "lon": 126.590515,
            "ele": 60.615
        }
    ]
}