[
  {
    "path_id": 0,
    "path": [
      {
        "lat": 35.930077,
        "lng": 127.709969
      },
      {
        "lat": 35.93042,
        "lng": 127.708794
      }
    ],
    "color": "#d96a61",
    "start_name": "버스터미널",
    "length_meter": 112.5,
    "time_minute": 1
  },
  {
    "path_id": 1,
    "path": [
      {
        "lat": 35.93042,
        "lng": 127.708794
      },
      {
        "lat": 35.936878,
        "lng": 127.701195
      }
    ],
    "color": "#75e6ec",
    "start_name": "치목마을주차장 / 화장실 / 갈림길",
    "length_meter": 1027.5,
    "time_minute": 17
  },
  {
    "path_id": 2,
    "path": [
      {
        "lat": 35.936878,
        "lng": 127.701195
      },
      {
        "lat": 35.937687,
        "lng": 127.699532
      }
    ],
    "color": "#d70b2d",
    "start_name": "곰출현주의",
    "length_meter": 174.7,
    "time_minute": 2
  },
  {
    "path_id": 3,
    "path": [
      {
        "lat": 35.937687,
        "lng": 127.699532
      },
      {
        "lat": 35.939781,
        "lng": 127.699707
      }
    ],
    "color": "#d0c5da",
    "start_name": "낙석주의",
    "length_meter": 233.4,
    "time_minute": 3
  },
  {
    "path_id": 4,
    "path": [
      {
        "lat": 35.939781,
        "lng": 127.699707
      },
      {
        "lat": 35.94043,
        "lng": 127.699394
      }
    ],
    "color": "#a757dc",
    "start_name": "급경사지 낙석지역",
    "length_meter": 77.5,
    "time_minute": 1
  },
  {
    "path_id": 5,
    "path": [
      {
        "lat": 35.94043,
        "lng": 127.699394
      },
      {
        "lat": 35.940899,
        "lng": 127.698555
      }
    ],
    "color": "#807092",
    "start_name": "낙석주의",
    "length_meter": 91.8,
    "time_minute": 1
  },
  {
    "path_id": 6,
    "path": [
      {
        "lat": 35.940899,
        "lng": 127.698555
      },
      {
        "lat": 35.941803,
        "lng": 127.69886
      }
    ],
    "color": "#00aba7",
    "start_name": "급경사지 위험지역 / 송대폭포",
    "length_meter": 114.5,
    "time_minute": 1
  },
  {
    "path_id": 7,
    "path": [
      {
        "lat": 35.941803,
        "lng": 127.69886
      },
      {
        "lat": 35.944374,
        "lng": 127.697426
      }
    ],
    "color": "#4180ba",
    "start_name": "급경사지 낙석 위험지역",
    "length_meter": 313.7,
    "time_minute": 5
  },
  {
    "path_id": 8,
    "path": [
      {
        "lat": 35.944374,
        "lng": 127.697426
      },
      {
        "lat": 35.94503,
        "lng": 127.696465
      }
    ],
    "color": "#24851d",
    "start_name": "추락위험 / 급경사지 낙석지역",
    "length_meter": 113.5,
    "time_minute": 1
  },
  {
    "path_id": 9,
    "path": [
      {
        "lat": 35.94503,
        "lng": 127.696465
      },
      {
        "lat": 35.94627,
        "lng": 127.695259
      }
    ],
    "color": "#6b3aa6",
    "start_name": "낙석주의 추락주의 / 추락위험 / 산사태주의",
    "length_meter": 175.8,
    "time_minute": 2
  },
  {
    "path_id": 10,
    "path": [
      {
        "lat": 35.94627,
        "lng": 127.695259
      },
      {
        "lat": 35.947701,
        "lng": 127.694954
      }
    ],
    "color": "#0662a4",
    "start_name": "낙석주의 / 산사태주의 / 급경사지 낙석 위험지역",
    "length_meter": 161.8,
    "time_minute": 2
  },
  {
    "path_id": 11,
    "path": [
      {
        "lat": 35.947701,
        "lng": 127.694954
      },
      {
        "lat": 35.948723,
        "lng": 127.693619
      }
    ],
    "color": "#62a507",
    "start_name": "갈림길",
    "length_meter": 165.4,
    "time_minute": 2
  },
  {
    "path_id": 12,
    "path": [
      {
        "lat": 35.948723,
        "lng": 127.693619
      },
      {
        "lat": 35.949261,
        "lng": 127.693237
      }
    ],
    "color": "#fef708",
    "start_name": "대형주차장 / 갈림길",
    "length_meter": 89.1,
    "time_minute": 1
  },
  {
    "path_id": 13,
    "path": [
      {
        "lat": 35.949261,
        "lng": 127.693237
      },
      {
        "lat": 35.948673,
        "lng": 127.693581
      }
    ],
    "color": "#e7b389",
    "start_name": "화장실 / 뱀 진드기 벌 주의",
    "length_meter": 72.4,
    "time_minute": 1
  },
  {
    "path_id": 14,
    "path": [
      {
        "lat": 35.948673,
        "lng": 127.693581
      },
      {
        "lat": 35.945885,
        "lng": 127.693161
      }
    ],
    "color": "#f3e9a8",
    "start_name": "매표소",
    "length_meter": 312.3,
    "time_minute": 5
  },
  {
    "path_id": 15,
    "path": [
      {
        "lat": 35.945885,
        "lng": 127.693161
      },
      {
        "lat": 35.944103,
        "lng": 127.691887
      }
    ],
    "color": "#8da07b",
    "start_name": "갈림길",
    "length_meter": 228.9,
    "time_minute": 3
  },
  {
    "path_id": 16,
    "path": [
      {
        "lat": 35.944103,
        "lng": 127.691887
      },
      {
        "lat": 35.94508,
        "lng": 127.691689
      }
    ],
    "color": "#68b8b1",
    "start_name": "적상산성 호국사비 / 안국사 화장실",
    "length_meter": 117.8,
    "time_minute": 1
  },
  {
    "path_id": 17,
    "path": [
      {
        "lat": 35.94508,
        "lng": 127.691689
      },
      {
        "lat": 35.944599,
        "lng": 127.691704
      }
    ],
    "color": "#7b4b01",
    "start_name": "극락전 / 갈림길",
    "length_meter": 73.8,
    "time_minute": 1
  },
  {
    "path_id": 18,
    "path": [
      {
        "lat": 35.944599,
        "lng": 127.691704
      },
      {
        "lat": 35.945831,
        "lng": 127.689941
      }
    ],
    "color": "#40cbe2",
    "start_name": "안국사 / 성보박물관 전통찻집",
    "length_meter": 209.7,
    "time_minute": 3
  },
  {
    "path_id": 19,
    "path": [
      {
        "lat": 35.945831,
        "lng": 127.689941
      },
      {
        "lat": 35.95668,
        "lng": 127.687225
      }
    ],
    "color": "#492d2e",
    "start_name": "갈림길",
    "length_meter": 1230.9,
    "time_minute": 20
  },
  {
    "path_id": 20,
    "path": [
      {
        "lat": 35.95668,
        "lng": 127.687225
      },
      {
        "lat": 35.953888,
        "lng": 127.684708
      }
    ],
    "color": "#d3ac1e",
    "start_name": "향로봉 / 향로봉 조망",
    "length_meter": 385.6,
    "time_minute": 6
  },
  {
    "path_id": 21,
    "path": [
      {
        "lat": 35.953888,
        "lng": 127.684708
      },
      {
        "lat": 35.953835,
        "lng": 127.684235
      }
    ],
    "color": "#6e7655",
    "start_name": "무주 적상산성 서문지 / 급경사지 낙석 위험지역 / 바위 / 장도바위 / 급경사지 낙석지역",
    "length_meter": 93.0,
    "time_minute": 1
  },
  {
    "path_id": 22,
    "path": [
      {
        "lat": 35.953835,
        "lng": 127.684235
      },
      {
        "lat": 35.954372,
        "lng": 127.683693
      }
    ],
    "color": "#6e8d6e",
    "start_name": "낙석주의 / 급경사지 낙석지역",
    "length_meter": 80.7,
    "time_minute": 1
  },
  {
    "path_id": 23,
    "path": [
      {
        "lat": 35.954372,
        "lng": 127.683693
      },
      {
        "lat": 35.949879,
        "lng": 127.67395
      }
    ],
    "color": "#a127bf",
    "start_name": "벤치",
    "length_meter": 1009.3,
    "time_minute": 16
  },
  {
    "path_id": 24,
    "path": [
      {
        "lat": 35.949879,
        "lng": 127.67395
      },
      {
        "lat": 35.949501,
        "lng": 127.672905
      }
    ],
    "color": "#c3a599",
    "start_name": "안내판  등산지도 / 갈림길",
    "length_meter": 103.4,
    "time_minute": 1
  },
  {
    "path_id": 25,
    "path": [
      {
        "lat": 35.949501,
        "lng": 127.672905
      },
      {
        "lat": 35.949104,
        "lng": 127.67115
      }
    ],
    "color": "#4fe4d9",
    "start_name": "산촌순두부",
    "length_meter": 164.0,
    "time_minute": 2
  },
  {
    "path_id": 26,
    "path": [
      {
        "lat": 35.949104,
        "lng": 127.67115
      },
      {
        "lat": 35.952621,
        "lng": 127.662651
      }
    ],
    "color": "#318e3b",
    "start_name": "화장실",
    "length_meter": 859.2,
    "time_minute": 14
  }
]