[
  {
    "path_id": 0,
    "path": [
      {
        "lat": 35.089771,
        "lng": 128.262146
      },
      {
        "lat": 35.089176,
        "lng": 128.26178
      }
    ],
    "color": "#508c0e",
    "start_name": "연화산 도립공원 주차장",
    "length_meter": 74.1,
    "time_minute": 1
  },
  {
    "path_id": 1,
    "path": [
      {
        "lat": 35.089176,
        "lng": 128.26178
      },
      {
        "lat": 35.087574,
        "lng": 128.255295
      }
    ],
    "color": "#9a7022",
    "start_name": "주차장 내 화장실 / 옥천사 계곡의공룡발자국 / 매봉 가는길",
    "length_meter": 668.0,
    "time_minute": 11
  },
  {
    "path_id": 2,
    "path": [
      {
        "lat": 35.087574,
        "lng": 128.255295
      },
      {
        "lat": 35.064724,
        "lng": 128.259628
      }
    ],
    "color": "#125a73",
    "start_name": "연화1봉 가는길",
    "length_meter": 2571.2,
    "time_minute": 42
  },
  {
    "path_id": 3,
    "path": [
      {
        "lat": 35.064724,
        "lng": 128.259628
      },
      {
        "lat": 35.063026,
        "lng": 128.262146
      }
    ],
    "color": "#a1dec8",
    "start_name": "평상1개",
    "length_meter": 296.9,
    "time_minute": 4
  },
  {
    "path_id": 4,
    "path": [
      {
        "lat": 35.063026,
        "lng": 128.262146
      },
      {
        "lat": 35.067493,
        "lng": 128.262238
      }
    ],
    "color": "#85f722",
    "start_name": "시루봉 / 시루봉 전망대",
    "length_meter": 500.5,
    "time_minute": 8
  },
  {
    "path_id": 5,
    "path": [
      {
        "lat": 35.067493,
        "lng": 128.262238
      },
      {
        "lat": 35.083759,
        "lng": 128.266174
      }
    ],
    "color": "#c6fd17",
    "start_name": "적멸보궁",
    "length_meter": 1843.8,
    "time_minute": 30
  },
  {
    "path_id": 6,
    "path": [
      {
        "lat": 35.083759,
        "lng": 128.266174
      },
      {
        "lat": 35.08997,
        "lng": 128.2621
      }
    ],
    "color": "#1989a1",
    "start_name": "장군봉 / 갈림길 26",
    "length_meter": 784.6,
    "time_minute": 13
  }
]