{
  "max_ele": 821.9,
  "track": [
    {
      "path_id": 0,
      "path": [
        {
          "lat": 36.731834,
          "lng": 127.987541
        },
        {
          "lat": 36.724079,
          "lng": 127.976753
        }
      ],
      "color": "#b55a01",
      "start_name": "갈림길",
      "length_meter": 1291.5,
      "time_minute": 21
    },
    {
      "path_id": 1,
      "path": [
        {
          "lat": 36.724079,
          "lng": 127.976753
        },
        {
          "lat": 36.724888,
          "lng": 127.974861
        }
      ],
      "color": "#220704",
      "start_name": "주치봉 / 갈림길",
      "length_meter": 192.2,
      "time_minute": 3
    },
    {
      "path_id": 2,
      "path": [
        {
          "lat": 36.724888,
          "lng": 127.974861
        },
        {
          "lat": 36.725864,
          "lng": 127.973732
        }
      ],
      "color": "#8b93c1",
      "start_name": "적송군락",
      "length_meter": 148.0,
      "time_minute": 2
    },
    {
      "path_id": 3,
      "path": [
        {
          "lat": 36.725864,
          "lng": 127.973732
        },
        {
          "lat": 36.728561,
          "lng": 127.971947
        }
      ],
      "color": "#306814",
      "start_name": "갈림길 / 산산제 장소 / 산림유전자원보호구역안내판",
      "length_meter": 348.3,
      "time_minute": 5
    },
    {
      "path_id": 4,
      "path": [
        {
          "lat": 36.728561,
          "lng": 127.971947
        },
        {
          "lat": 36.730888,
          "lng": 127.970482
        }
      ],
      "color": "#2c5742",
      "start_name": "조망바위",
      "length_meter": 289.8,
      "time_minute": 4
    },
    {
      "path_id": 5,
      "path": [
        {
          "lat": 36.730888,
          "lng": 127.970482
        },
        {
          "lat": 36.73407,
          "lng": 127.96373
        }
      ],
      "color": "#ac2100",
      "start_name": "마분봉배경",
      "length_meter": 698.0,
      "time_minute": 11
    },
    {
      "path_id": 6,
      "path": [
        {
          "lat": 36.73407,
          "lng": 127.96373
        },
        {
          "lat": 36.739513,
          "lng": 127.963158
        }
      ],
      "color": "#70262b",
      "start_name": "갈림길",
      "length_meter": 607.4,
      "time_minute": 10
    },
    {
      "path_id": 7,
      "path": [
        {
          "lat": 36.739513,
          "lng": 127.963158
        },
        {
          "lat": 36.735992,
          "lng": 127.980141
        }
      ],
      "color": "#3e7e6d",
      "start_name": "간이쉼터",
      "length_meter": 1563.2,
      "time_minute": 26
    },
    {
      "path_id": 8,
      "path": [
        {
          "lat": 36.735992,
          "lng": 127.980141
        },
        {
          "lat": 36.734627,
          "lng": 127.983803
        }
      ],
      "color": "#2b6dab",
      "start_name": "갈림길",
      "length_meter": 359.9,
      "time_minute": 5
    },
    {
      "path_id": 9,
      "path": [
        {
          "lat": 36.734627,
          "lng": 127.983803
        },
        {
          "lat": 36.737457,
          "lng": 127.989098
        }
      ],
      "color": "#a6ad28",
      "start_name": "날머리",
      "length_meter": 567.2,
      "time_minute": 9
    }
  ]
}