[
  {
    "path_id": 0,
    "path": [
      {
        "lat": 36.731834,
        "lng": 127.987541
      },
      {
        "lat": 36.724079,
        "lng": 127.976753
      }
    ],
    "color": "#8d7d37",
    "start_name": "갈림길",
    "length_meter": 1291.5,
    "time_minute": 21
  },
  {
    "path_id": 1,
    "path": [
      {
        "lat": 36.724079,
        "lng": 127.976753
      },
      {
        "lat": 36.724888,
        "lng": 127.974861
      }
    ],
    "color": "#53e6ae",
    "start_name": "주치봉 / 갈림길",
    "length_meter": 192.2,
    "time_minute": 3
  },
  {
    "path_id": 2,
    "path": [
      {
        "lat": 36.724888,
        "lng": 127.974861
      },
      {
        "lat": 36.725864,
        "lng": 127.973732
      }
    ],
    "color": "#9d8d3c",
    "start_name": "적송군락",
    "length_meter": 148.0,
    "time_minute": 2
  },
  {
    "path_id": 3,
    "path": [
      {
        "lat": 36.725864,
        "lng": 127.973732
      },
      {
        "lat": 36.728561,
        "lng": 127.971947
      }
    ],
    "color": "#e385cf",
    "start_name": "갈림길 / 산산제 장소 / 산림유전자원보호구역안내판",
    "length_meter": 348.3,
    "time_minute": 5
  },
  {
    "path_id": 4,
    "path": [
      {
        "lat": 36.728561,
        "lng": 127.971947
      },
      {
        "lat": 36.730888,
        "lng": 127.970482
      }
    ],
    "color": "#b0cd60",
    "start_name": "조망바위",
    "length_meter": 289.8,
    "time_minute": 4
  },
  {
    "path_id": 5,
    "path": [
      {
        "lat": 36.730888,
        "lng": 127.970482
      },
      {
        "lat": 36.73407,
        "lng": 127.96373
      }
    ],
    "color": "#516ee7",
    "start_name": "마분봉배경",
    "length_meter": 698.0,
    "time_minute": 11
  },
  {
    "path_id": 6,
    "path": [
      {
        "lat": 36.73407,
        "lng": 127.96373
      },
      {
        "lat": 36.737095,
        "lng": 127.961708
      }
    ],
    "color": "#455405",
    "start_name": "갈림길",
    "length_meter": 381.6,
    "time_minute": 6
  },
  {
    "path_id": 7,
    "path": [
      {
        "lat": 36.737095,
        "lng": 127.961708
      },
      {
        "lat": 36.739548,
        "lng": 127.963234
      }
    ],
    "color": "#9ecfa2",
    "start_name": "멧돼지출현흔적",
    "length_meter": 304.8,
    "time_minute": 5
  },
  {
    "path_id": 8,
    "path": [
      {
        "lat": 36.739548,
        "lng": 127.963234
      },
      {
        "lat": 36.735992,
        "lng": 127.980141
      }
    ],
    "color": "#ff578d",
    "start_name": "갈림길 / 간이쉼터",
    "length_meter": 1571.0,
    "time_minute": 26
  },
  {
    "path_id": 9,
    "path": [
      {
        "lat": 36.735992,
        "lng": 127.980141
      },
      {
        "lat": 36.734627,
        "lng": 127.983803
      }
    ],
    "color": "#140289",
    "start_name": "갈림길",
    "length_meter": 359.9,
    "time_minute": 5
  },
  {
    "path_id": 10,
    "path": [
      {
        "lat": 36.734627,
        "lng": 127.983803
      },
      {
        "lat": 36.737457,
        "lng": 127.989098
      }
    ],
    "color": "#35e338",
    "start_name": "날머리",
    "length_meter": 567.2,
    "time_minute": 9
  }
]