[
  {
    "path_id": 0,
    "path": [
      {
        "lat": 36.731834,
        "lng": 127.987541
      },
      {
        "lat": 36.724079,
        "lng": 127.976753
      }
    ],
    "color": "#288f84",
    "start_name": "갈림길",
    "length_meter": 1291.5,
    "time_minute": 21
  },
  {
    "path_id": 1,
    "path": [
      {
        "lat": 36.724079,
        "lng": 127.976753
      },
      {
        "lat": 36.724888,
        "lng": 127.974861
      }
    ],
    "color": "#2d263d",
    "start_name": "주치봉 / 갈림길",
    "length_meter": 192.2,
    "time_minute": 3
  },
  {
    "path_id": 2,
    "path": [
      {
        "lat": 36.724888,
        "lng": 127.974861
      },
      {
        "lat": 36.725864,
        "lng": 127.973732
      }
    ],
    "color": "#653e72",
    "start_name": "적송군락",
    "length_meter": 148.0,
    "time_minute": 2
  },
  {
    "path_id": 3,
    "path": [
      {
        "lat": 36.725864,
        "lng": 127.973732
      },
      {
        "lat": 36.728561,
        "lng": 127.971947
      }
    ],
    "color": "#56705f",
    "start_name": "갈림길 / 산산제 장소 / 산림유전자원보호구역안내판",
    "length_meter": 348.3,
    "time_minute": 5
  },
  {
    "path_id": 4,
    "path": [
      {
        "lat": 36.728561,
        "lng": 127.971947
      },
      {
        "lat": 36.730888,
        "lng": 127.970482
      }
    ],
    "color": "#864699",
    "start_name": "조망바위",
    "length_meter": 289.8,
    "time_minute": 4
  },
  {
    "path_id": 5,
    "path": [
      {
        "lat": 36.730888,
        "lng": 127.970482
      },
      {
        "lat": 36.73407,
        "lng": 127.96373
      }
    ],
    "color": "#1a36f1",
    "start_name": "마분봉배경",
    "length_meter": 698.0,
    "time_minute": 11
  },
  {
    "path_id": 6,
    "path": [
      {
        "lat": 36.73407,
        "lng": 127.96373
      },
      {
        "lat": 36.736866,
        "lng": 127.961662
      }
    ],
    "color": "#4056b2",
    "start_name": "갈림길",
    "length_meter": 361.4,
    "time_minute": 6
  },
  {
    "path_id": 7,
    "path": [
      {
        "lat": 36.736866,
        "lng": 127.961662
      },
      {
        "lat": 36.739548,
        "lng": 127.963234
      }
    ],
    "color": "#10bbf3",
    "start_name": "갈림길 / 멧돼지출현흔적",
    "length_meter": 330.6,
    "time_minute": 5
  },
  {
    "path_id": 8,
    "path": [
      {
        "lat": 36.739548,
        "lng": 127.963234
      },
      {
        "lat": 36.737175,
        "lng": 127.972755
      }
    ],
    "color": "#cb2f67",
    "start_name": "갈림길 / 간이쉼터",
    "length_meter": 901.6,
    "time_minute": 15
  },
  {
    "path_id": 9,
    "path": [
      {
        "lat": 36.737175,
        "lng": 127.972755
      },
      {
        "lat": 36.735992,
        "lng": 127.980141
      }
    ],
    "color": "#52e30e",
    "start_name": "간이쉼터",
    "length_meter": 671.2,
    "time_minute": 11
  },
  {
    "path_id": 10,
    "path": [
      {
        "lat": 36.735992,
        "lng": 127.980141
      },
      {
        "lat": 36.734627,
        "lng": 127.983803
      }
    ],
    "color": "#7cc248",
    "start_name": "갈림길",
    "length_meter": 359.9,
    "time_minute": 5
  },
  {
    "path_id": 11,
    "path": [
      {
        "lat": 36.734627,
        "lng": 127.983803
      },
      {
        "lat": 36.737457,
        "lng": 127.989098
      }
    ],
    "color": "#ccdeb9",
    "start_name": "날머리",
    "length_meter": 567.2,
    "time_minute": 9
  }
]