[
  {
    "path_id": 0,
    "path": [
      {
        "lat": 36.731834,
        "lng": 127.987541
      },
      {
        "lat": 36.724079,
        "lng": 127.976753
      }
    ],
    "color": "#61c400",
    "start_point_name": "갈림길",
    "length": 1291,
    "time": "21"
  },
  {
    "path_id": 1,
    "path": [
      {
        "lat": 36.724079,
        "lng": 127.976753
      },
      {
        "lat": 36.724098,
        "lng": 127.976753
      }
    ],
    "color": "#7d7613",
    "start_point_name": "주치봉",
    "length": 2,
    "time": "0"
  },
  {
    "path_id": 2,
    "path": [
      {
        "lat": 36.724098,
        "lng": 127.976753
      },
      {
        "lat": 36.724888,
        "lng": 127.974861
      }
    ],
    "color": "#6273e0",
    "start_point_name": "갈림길",
    "length": 190,
    "time": "3"
  },
  {
    "path_id": 3,
    "path": [
      {
        "lat": 36.724888,
        "lng": 127.974861
      },
      {
        "lat": 36.725864,
        "lng": 127.973732
      }
    ],
    "color": "#84d0ca",
    "start_point_name": "적송군락",
    "length": 147,
    "time": "2"
  },
  {
    "path_id": 4,
    "path": [
      {
        "lat": 36.725864,
        "lng": 127.973732
      },
      {
        "lat": 36.725929,
        "lng": 127.973785
      }
    ],
    "color": "#ca8415",
    "start_point_name": "갈림길",
    "length": 8,
    "time": "0"
  },
  {
    "path_id": 5,
    "path": [
      {
        "lat": 36.725929,
        "lng": 127.973785
      },
      {
        "lat": 36.725925,
        "lng": 127.973701
      }
    ],
    "color": "#0a32bf",
    "start_point_name": "산산제 장소",
    "length": 7,
    "time": "0"
  },
  {
    "path_id": 6,
    "path": [
      {
        "lat": 36.725925,
        "lng": 127.973701
      },
      {
        "lat": 36.728561,
        "lng": 127.971947
      }
    ],
    "color": "#1afd6a",
    "start_point_name": "산림유전자원보호구역안내판",
    "length": 332,
    "time": "5"
  },
  {
    "path_id": 7,
    "path": [
      {
        "lat": 36.728561,
        "lng": 127.971947
      },
      {
        "lat": 36.730888,
        "lng": 127.970482
      }
    ],
    "color": "#d0a13a",
    "start_point_name": "조망바위",
    "length": 289,
    "time": "4"
  },
  {
    "path_id": 8,
    "path": [
      {
        "lat": 36.730888,
        "lng": 127.970482
      },
      {
        "lat": 36.73407,
        "lng": 127.96373
      }
    ],
    "color": "#274f09",
    "start_point_name": "마분봉배경",
    "length": 698,
    "time": "11"
  },
  {
    "path_id": 9,
    "path": [
      {
        "lat": 36.73407,
        "lng": 127.96373
      },
      {
        "lat": 36.736866,
        "lng": 127.961662
      }
    ],
    "color": "#de9506",
    "start_point_name": "갈림길",
    "length": 361,
    "time": "6"
  },
  {
    "path_id": 10,
    "path": [
      {
        "lat": 36.736866,
        "lng": 127.961662
      },
      {
        "lat": 36.737095,
        "lng": 127.961708
      }
    ],
    "color": "#21a724",
    "start_point_name": "갈림길",
    "length": 25,
    "time": "0"
  },
  {
    "path_id": 11,
    "path": [
      {
        "lat": 36.737095,
        "lng": 127.961708
      },
      {
        "lat": 36.739548,
        "lng": 127.963234
      }
    ],
    "color": "#2b6b24",
    "start_point_name": "멧돼지출현흔적",
    "length": 304,
    "time": "5"
  },
  {
    "path_id": 12,
    "path": [
      {
        "lat": 36.739548,
        "lng": 127.963234
      },
      {
        "lat": 36.739513,
        "lng": 127.963158
      }
    ],
    "color": "#913524",
    "start_point_name": "갈림길",
    "length": 7,
    "time": "0"
  },
  {
    "path_id": 13,
    "path": [
      {
        "lat": 36.739513,
        "lng": 127.963158
      },
      {
        "lat": 36.737175,
        "lng": 127.972755
      }
    ],
    "color": "#be761f",
    "start_point_name": "간이쉼터",
    "length": 893,
    "time": "14"
  },
  {
    "path_id": 14,
    "path": [
      {
        "lat": 36.737175,
        "lng": 127.972755
      },
      {
        "lat": 36.735992,
        "lng": 127.980141
      }
    ],
    "color": "#b51279",
    "start_point_name": "간이쉼터",
    "length": 671,
    "time": "11"
  },
  {
    "path_id": 15,
    "path": [
      {
        "lat": 36.735992,
        "lng": 127.980141
      },
      {
        "lat": 36.734627,
        "lng": 127.983803
      }
    ],
    "color": "#bb3915",
    "start_point_name": "갈림길",
    "length": 359,
    "time": "5"
  },
  {
    "path_id": 16,
    "path": [
      {
        "lat": 36.734627,
        "lng": 127.983803
      },
      {
        "lat": 36.737457,
        "lng": 127.989098
      }
    ],
    "color": "#850c6e",
    "start_point_name": "날머리",
    "length": 567,
    "time": "9"
  }
]