[
  {
    "path_id": 0,
    "path": [
      {
        "lat": 37.428032,
        "lng": 128.298828
      },
      {
        "lat": 37.422642,
        "lng": 128.30127
      }
    ],
    "color": "#1907c7",
    "start_name": "백덕산 주차창 화장실",
    "length_meter": 637.0,
    "time_minute": 10
  },
  {
    "path_id": 1,
    "path": [
      {
        "lat": 37.422642,
        "lng": 128.30127
      },
      {
        "lat": 37.414425,
        "lng": 128.304306
      }
    ],
    "color": "#fddf70",
    "start_name": "백덕산 등산로 입구. 먹골",
    "length_meter": 952.2,
    "time_minute": 15
  },
  {
    "path_id": 2,
    "path": [
      {
        "lat": 37.414425,
        "lng": 128.304306
      },
      {
        "lat": 37.411236,
        "lng": 128.306732
      }
    ],
    "color": "#4227bc",
    "start_name": "고목이 쓰러져 터널처럼 형성",
    "length_meter": 414.3,
    "time_minute": 6
  },
  {
    "path_id": 3,
    "path": [
      {
        "lat": 37.411236,
        "lng": 128.306732
      },
      {
        "lat": 37.410202,
        "lng": 128.308029
      }
    ],
    "color": "#089849",
    "start_name": "갈림길",
    "length_meter": 162.3,
    "time_minute": 2
  },
  {
    "path_id": 4,
    "path": [
      {
        "lat": 37.410202,
        "lng": 128.308029
      },
      {
        "lat": 37.407688,
        "lng": 128.308105
      }
    ],
    "color": "#c2d793",
    "start_name": "갈림길",
    "length_meter": 279.6,
    "time_minute": 4
  },
  {
    "path_id": 5,
    "path": [
      {
        "lat": 37.407688,
        "lng": 128.308105
      },
      {
        "lat": 37.406456,
        "lng": 128.305237
      }
    ],
    "color": "#3179f5",
    "start_name": "이정표옆 작은 쉼터 / 철쭉군락지 안내",
    "length_meter": 288.2,
    "time_minute": 4
  },
  {
    "path_id": 6,
    "path": [
      {
        "lat": 37.406456,
        "lng": 128.305237
      },
      {
        "lat": 37.405773,
        "lng": 128.304642
      }
    ],
    "color": "#f95704",
    "start_name": "등산로 폐쇄",
    "length_meter": 92.4,
    "time_minute": 1
  },
  {
    "path_id": 7,
    "path": [
      {
        "lat": 37.405773,
        "lng": 128.304642
      },
      {
        "lat": 37.405388,
        "lng": 128.303833
      }
    ],
    "color": "#f30ddf",
    "start_name": "등산로폐쇄",
    "length_meter": 83.3,
    "time_minute": 1
  },
  {
    "path_id": 8,
    "path": [
      {
        "lat": 37.405388,
        "lng": 128.303833
      },
      {
        "lat": 37.404129,
        "lng": 128.302078
      }
    ],
    "color": "#aed166",
    "start_name": "등산로폐쇄",
    "length_meter": 208.9,
    "time_minute": 3
  },
  {
    "path_id": 9,
    "path": [
      {
        "lat": 37.404129,
        "lng": 128.302078
      },
      {
        "lat": 37.402382,
        "lng": 128.296631
      }
    ],
    "color": "#34a1d4",
    "start_name": "길옆 작은 공터 / 작은 공터 둥근 의자",
    "length_meter": 519.5,
    "time_minute": 8
  },
  {
    "path_id": 10,
    "path": [
      {
        "lat": 37.402382,
        "lng": 128.296631
      },
      {
        "lat": 37.4007,
        "lng": 128.293991
      }
    ],
    "color": "#aba682",
    "start_name": "갈림길",
    "length_meter": 298.9,
    "time_minute": 4
  },
  {
    "path_id": 11,
    "path": [
      {
        "lat": 37.4007,
        "lng": 128.293991
      },
      {
        "lat": 37.401268,
        "lng": 128.295212
      }
    ],
    "color": "#2653e6",
    "start_name": "갈림길 / 갈림길",
    "length_meter": 125.8,
    "time_minute": 2
  },
  {
    "path_id": 12,
    "path": [
      {
        "lat": 37.401268,
        "lng": 128.295212
      },
      {
        "lat": 37.413788,
        "lng": 128.291061
      }
    ],
    "color": "#3e8203",
    "start_name": "고목 쓰러짐",
    "length_meter": 1439.6,
    "time_minute": 23
  },
  {
    "path_id": 13,
    "path": [
      {
        "lat": 37.413788,
        "lng": 128.291061
      },
      {
        "lat": 37.421379,
        "lng": 128.286163
      }
    ],
    "color": "#e5f642",
    "start_name": "경사가 급하고 흙길이라 주의 / 갈림길",
    "length_meter": 951.4,
    "time_minute": 15
  },
  {
    "path_id": 14,
    "path": [
      {
        "lat": 37.421379,
        "lng": 128.286163
      },
      {
        "lat": 37.430496,
        "lng": 128.284485
      }
    ],
    "color": "#cb9a67",
    "start_name": "백덕산 등산로입구",
    "length_meter": 1024.5,
    "time_minute": 17
  },
  {
    "path_id": 15,
    "path": [
      {
        "lat": 37.430496,
        "lng": 128.284485
      },
      {
        "lat": 37.429455,
        "lng": 128.286102
      }
    ],
    "color": "#0a7009",
    "start_name": "운교정류장",
    "length_meter": 183.8,
    "time_minute": 3
  },
  {
    "path_id": 16,
    "path": [
      {
        "lat": 37.429455,
        "lng": 128.286102
      },
      {
        "lat": 37.433681,
        "lng": 128.295547
      }
    ],
    "color": "#d7b0f6",
    "start_name": "운교1리 마을 회관 앞 화장실 / 웨이포인트 31",
    "length_meter": 957.5,
    "time_minute": 15
  }
]