{
    "max_ele": 821.9,
    "track": [
        {
            "path_id": 1,
            "name": "갈림길",
            "lat": 36.731834,
            "lon": 127.987541,
            "ele": 342.2
        },
        {
            "path_id": 2,
            "name": "주치봉",
            "lat": 36.724079,
            "lon": 127.976753,
            "ele": 702.8
        },
        {
            "path_id": 3,
            "name": "갈림길",
            "lat": 36.724098,
            "lon": 127.976753,
            "ele": 705.5
        },
        {
            "path_id": 4,
            "name": "적송군락",
            "lat": 36.724888,
            "lon": 127.974861,
            "ele": 597.8
        },
        {
            "path_id": 5,
            "name": "갈림길",
            "lat": 36.725864,
            "lon": 127.973732,
            "ele": 556.7
        },
        {
            "path_id": 6,
            "name": "산산제 장소",
            "lat": 36.725929,
            "lon": 127.973785,
            "ele": 547.4
        },
        {
            "path_id": 7,
            "name": "산림유전자원보호구역안내판",
            "lat": 36.725925,
            "lon": 127.973701,
            "ele": 554.1
        },
        {
            "path_id": 8,
            "name": "조망바위",
            "lat": 36.728561,
            "lon": 127.971947,
            "ele": 684.2
        },
        {
            "path_id": 9,
            "name": "마분봉배경",
            "lat": 36.730888,
            "lon": 127.970482,
            "ele": 712.4
        },
        {
            "path_id": 10,
            "name": "갈림길",
            "lat": 36.73407,
            "lon": 127.96373,
            "ele": 815.0
        },
        {
            "path_id": 14,
            "name": "간이쉼터",
            "lat": 36.739513,
            "lon": 127.963158,
            "ele": 688.7
        },
        {
            "path_id": 16,
            "name": "갈림길",
            "lat": 36.735992,
            "lon": 127.980141,
            "ele": 370.5
        },
        {
            "path_id": 17,
            "name": "날머리",
            "lat": 36.734627,
            "lon": 127.983803,
            "ele": 316.3
        },
        {
            "path_id": 18,
            "name": "들머리",
            "lat": 36.737457,
            "lon": 127.989098,
            "ele": 292.3
        }
    ]
}