{
  "max_ele": 482.628,
  "track": [
    {
      "path_id": 4,
      "name": "도림사지 입구",
      "lat": 36.399448,
      "lon": 126.891533,
      "ele": 188.279
    },
    {
      "path_id": 5,
      "name": "이정표",
      "lat": 36.399582,
      "lon": 126.891418,
      "ele": 204.155
    },
    {
      "path_id": 6,
      "name": "이정표",
      "lat": 36.404053,
      "lon": 126.89241,
      "ele": 333.497
    },
    {
      "path_id": 7,
      "name": "도림사지 삼층석탑",
      "lat": 36.404629,
      "lon": 126.892441,
      "ele": 354.076
    },
    {
      "path_id": 8,
      "name": "이정표",
      "lat": 36.406971,
      "lon": 126.890907,
      "ele": 432.266
    },
    {
      "path_id": 9,
      "name": "이정표",
      "lat": 36.409538,
      "lon": 126.887215,
      "ele": 482.628
    },
    {
      "path_id": 10,
      "name": "이정표",
      "lat": 36.404243,
      "lon": 126.891876,
      "ele": 361.183
    },
    {
      "path_id": 11,
      "name": "공부를",
      "lat": 36.401699,
      "lon": 126.89167,
      "ele": 246.058
    },
    {
      "path_id": 12,
      "name": "이정표",
      "lat": 36.401115,
      "lon": 126.891144,
      "ele": 218.343
    },
    {
      "path_id": 13,
      "name": "칠갑산용못고을가든",
      "lat": 36.394878,
      "lon": 126.894066,
      "ele": 0.0
    }
  ]
}
