[
    {
        "path_id": 1,
        "name": "상월마을회관",
        "lat": 35.569134,
        "lon": 128.528687
    },
    {
        "path_id": 4,
        "name": "반곡고택",
        "lat": 35.56834,
        "lon": 128.529465
    },
    {
        "path_id": 5,
        "name": "간이주차장",
        "lat": 35.567997,
        "lon": 128.529266
    },
    {
        "path_id": 6,
        "name": "갈림길",
        "lat": 35.567436,
        "lon": 128.529968
    },
    {
        "path_id": 9,
        "name": "화왕산 스토리길 안내도",
        "lat": 35.567852,
        "lon": 128.531113
    },
    {
        "path_id": 10,
        "name": "갈림길",
        "lat": 35.564495,
        "lon": 128.534225
    },
    {
        "path_id": 12,
        "name": "소나무숲",
        "lat": 35.556885,
        "lon": 128.53714
    },
    {
        "path_id": 13,
        "name": "화왕산",
        "lat": 35.551147,
        "lon": 128.536057
    },
    {
        "path_id": 16,
        "name": "화왕산 정상",
        "lat": 35.55003,
        "lon": 128.536377
    },
    {
        "path_id": 17,
        "name": "갈림길",
        "lat": 35.548386,
        "lon": 128.537247
    },
    {
        "path_id": 19,
        "name": "화왕산성 및 억새밭",
        "lat": 35.547386,
        "lon": 128.53653
    },
    {
        "path_id": 20,
        "name": "갈림길",
        "lat": 35.547386,
        "lon": 128.536469
    },
    {
        "path_id": 33,
        "name": "보호수",
        "lat": 35.569054,
        "lon": 128.528503
    },
    {
        "path_id": 34,
        "name": "상월마을회관",
        "lat": 35.569061,
        "lon": 128.528503
    }
]