{
    "max_ele": 778.0,
    "track": [
        {
            "path_id": 1,
            "name": "상월마을회관",
            "lat": 35.569134,
            "lon": 128.528687,
            "ele": 121.0
        },
        {
            "path_id": 3,
            "name": "쉼터",
            "lat": 35.56813,
            "lon": 128.528854,
            "ele": 125.0
        },
        {
            "path_id": 4,
            "name": "반곡고택",
            "lat": 35.56834,
            "lon": 128.529465,
            "ele": 129.0
        },
        {
            "path_id": 5,
            "name": "간이주차장",
            "lat": 35.567997,
            "lon": 128.529266,
            "ele": 131.0
        },
        {
            "path_id": 6,
            "name": "갈림길",
            "lat": 35.567436,
            "lon": 128.529968,
            "ele": 133.0
        },
        {
            "path_id": 9,
            "name": "화왕산 스토리길 안내도",
            "lat": 35.567852,
            "lon": 128.531113,
            "ele": 137.0
        },
        {
            "path_id": 10,
            "name": "갈림길",
            "lat": 35.564495,
            "lon": 128.534225,
            "ele": 179.0
        },
        {
            "path_id": 12,
            "name": "소나무숲",
            "lat": 35.556885,
            "lon": 128.53714,
            "ele": 434.0
        },
        {
            "path_id": 13,
            "name": "화왕산",
            "lat": 35.551147,
            "lon": 128.536057,
            "ele": 631.0
        },
        {
            "path_id": 16,
            "name": "화왕산 정상",
            "lat": 35.55003,
            "lon": 128.536377,
            "ele": 672.0
        },
        {
            "path_id": 17,
            "name": "갈림길",
            "lat": 35.548386,
            "lon": 128.537247,
            "ele": 752.0
        },
        {
            "path_id": 18,
            "name": "쉼터",
            "lat": 35.54837,
            "lon": 128.537216,
            "ele": 753.0
        },
        {
            "path_id": 19,
            "name": "화왕산성 및 억새밭",
            "lat": 35.547386,
            "lon": 128.53653,
            "ele": 776.0
        },
        {
            "path_id": 20,
            "name": "갈림길",
            "lat": 35.547386,
            "lon": 128.536469,
            "ele": 778.0
        },
        {
            "path_id": 22,
            "name": "쉼터",
            "lat": 35.548603,
            "lon": 128.529312,
            "ele": 729.0
        },
        {
            "path_id": 26,
            "name": "갈림길",
            "lat": 35.54879,
            "lon": 128.529068,
            "ele": 728.0
        },
        {
            "path_id": 27,
            "name": "쉼터",
            "lat": 35.556602,
            "lon": 128.522797,
            "ele": 372.0
        },
        {
            "path_id": 29,
            "name": "갈림길",
            "lat": 35.556938,
            "lon": 128.520615,
            "ele": 319.0
        },
        {
            "path_id": 33,
            "name": "보호수",
            "lat": 35.569054,
            "lon": 128.528503,
            "ele": 127.0
        },
        {
            "path_id": 34,
            "name": "상월마을회관",
            "lat": 35.569061,
            "lon": 128.528503,
            "ele": 125.0
        }
    ]
}