[
    {
        "path_id": 1,
        "name": "굴운저수지 버스정류장",
        "lat": 37.732494,
        "lon": 127.954338
    },
    {
        "path_id": 2,
        "name": "갈림길",
        "lat": 37.725674,
        "lon": 127.965446
    },
    {
        "path_id": 4,
        "name": "낙엽송지대",
        "lat": 37.714115,
        "lon": 128.015747
    },
    {
        "path_id": 5,
        "name": "갈림길",
        "lat": 37.714092,
        "lon": 128.015915
    },
    {
        "path_id": 7,
        "name": "공작폭포",
        "lat": 37.727818,
        "lon": 128.015427
    },
    {
        "path_id": 8,
        "name": "나분들 정류장(군업2리)",
        "lat": 37.753815,
        "lon": 128.000839
    }
]