[
    {
        "path_id": 1,
        "name": "굴운저수지 정류장",
        "lat": 37.73259,
        "lon": 127.95433
    },
    {
        "path_id": 2,
        "name": "갈림길",
        "lat": 37.72567,
        "lon": 127.965538
    },
    {
        "path_id": 3,
        "name": "햇살팬션가든",
        "lat": 37.723492,
        "lon": 127.967117
    },
    {
        "path_id": 4,
        "name": "갈림길",
        "lat": 37.712879,
        "lon": 127.971436
    },
    {
        "path_id": 6,
        "name": "추락위험",
        "lat": 37.705608,
        "lon": 127.989685
    },
    {
        "path_id": 7,
        "name": "소나무 군락지",
        "lat": 37.706551,
        "lon": 128.015366
    },
    {
        "path_id": 8,
        "name": "노송군락지",
        "lat": 37.705032,
        "lon": 128.017242
    },
    {
        "path_id": 9,
        "name": "잣나무 단지",
        "lat": 37.701141,
        "lon": 128.022583
    },
    {
        "path_id": 10,
        "name": "갈림길",
        "lat": 37.700623,
        "lon": 128.022949
    },
    {
        "path_id": 11,
        "name": "사설 공작산 휴양림",
        "lat": 37.698631,
        "lon": 128.022034
    }
]