[
    {
        "path_id": 1,
        "name": "북대미륵암",
        "lat": 37.802956,
        "lon": 128.56665
    },
    {
        "path_id": 2,
        "name": "갈림길",
        "lat": 37.810471,
        "lon": 128.572311
    },
    {
        "path_id": 3,
        "name": "갈림길",
        "lat": 37.811237,
        "lon": 128.5728
    },
    {
        "path_id": 4,
        "name": "오대산 두로봉",
        "lat": 37.82132,
        "lon": 128.58284
    },
    {
        "path_id": 5,
        "name": "갈림길",
        "lat": 37.810768,
        "lon": 128.572464
    },
    {
        "path_id": 6,
        "name": "두로령",
        "lat": 37.81073,
        "lon": 128.572418
    },
    {
        "path_id": 7,
        "name": "헬기장",
        "lat": 37.806362,
        "lon": 128.567551
    },
    {
        "path_id": 8,
        "name": "두로령부근 자작나무 군락지",
        "lat": 37.806198,
        "lon": 128.566971
    }
]