{
    "max_ele": 1935.961,
    "track": [
        {
            "path_id": 1,
            "name": "지리산",
            "lat": 35.303749,
            "lon": 127.749046,
            "ele": 646.92
        },
        {
            "path_id": 3,
            "name": "중산리 탐방센타",
            "lat": 35.303776,
            "lon": 127.749245,
            "ele": 644.511
        },
        {
            "path_id": 4,
            "name": "갈림길",
            "lat": 35.306065,
            "lon": 127.748276,
            "ele": 650.927
        },
        {
            "path_id": 5,
            "name": "칼바위",
            "lat": 35.31321,
            "lon": 127.741898,
            "ele": 808.308
        },
        {
            "path_id": 6,
            "name": "갈림길",
            "lat": 35.314259,
            "lon": 127.741272,
            "ele": 847.63
        },
        {
            "path_id": 7,
            "name": "돌계단",
            "lat": 35.314873,
            "lon": 127.740982,
            "ele": 859.955
        },
        {
            "path_id": 8,
            "name": "데크계단",
            "lat": 35.315472,
            "lon": 127.74057,
            "ele": 869.809
        },
        {
            "path_id": 9,
            "name": "거리목",
            "lat": 35.315834,
            "lon": 127.740456,
            "ele": 911.853
        },
        {
            "path_id": 10,
            "name": "데크계단",
            "lat": 35.319378,
            "lon": 127.740242,
            "ele": 1074.218
        },
        {
            "path_id": 11,
            "name": "망바위",
            "lat": 35.319874,
            "lon": 127.739464,
            "ele": 1114.237
        },
        {
            "path_id": 13,
            "name": "대피소",
            "lat": 35.327251,
            "lon": 127.737343,
            "ele": 1343.388
        },
        {
            "path_id": 15,
            "name": "갈림길",
            "lat": 35.327145,
            "lon": 127.737381,
            "ele": 1348.14
        },
        {
            "path_id": 16,
            "name": "법계사",
            "lat": 35.327175,
            "lon": 127.736801,
            "ele": 1360.921
        },
        {
            "path_id": 17,
            "name": "갈림길",
            "lat": 35.327202,
            "lon": 127.736801,
            "ele": 1361.026
        },
        {
            "path_id": 18,
            "name": "조망터",
            "lat": 35.326935,
            "lon": 127.736084,
            "ele": 1363.18
        },
        {
            "path_id": 19,
            "name": "쉼터",
            "lat": 35.329727,
            "lon": 127.735527,
            "ele": 1481.142
        },
        {
            "path_id": 20,
            "name": "쉼터",
            "lat": 35.331589,
            "lon": 127.7341,
            "ele": 1591.975
        },
        {
            "path_id": 21,
            "name": "개선문",
            "lat": 35.333046,
            "lon": 127.732742,
            "ele": 1637.143
        },
        {
            "path_id": 22,
            "name": "위치목",
            "lat": 35.333511,
            "lon": 127.732513,
            "ele": 1661.153
        },
        {
            "path_id": 24,
            "name": "자연경관",
            "lat": 35.336449,
            "lon": 127.727867,
            "ele": 1935.961
        },
        {
            "path_id": 25,
            "name": "갈림길",
            "lat": 35.336361,
            "lon": 127.727409,
            "ele": 1900.639
        },
        {
            "path_id": 26,
            "name": "통천문",
            "lat": 35.336338,
            "lon": 127.727348,
            "ele": 1908.255
        },
        {
            "path_id": 27,
            "name": "조망터",
            "lat": 35.335403,
            "lon": 127.723686,
            "ele": 1840.874
        },
        {
            "path_id": 28,
            "name": "제석봉",
            "lat": 35.334869,
            "lon": 127.721046,
            "ele": 1829.444
        },
        {
            "path_id": 29,
            "name": "조망터",
            "lat": 35.334873,
            "lon": 127.720932,
            "ele": 1830.08
        },
        {
            "path_id": 30,
            "name": "갈림길",
            "lat": 35.332512,
            "lon": 127.716469,
            "ele": 1769.715
        },
        {
            "path_id": 31,
            "name": "장터목",
            "lat": 35.332344,
            "lon": 127.716217,
            "ele": 1740.487
        },
        {
            "path_id": 33,
            "name": "거리목",
            "lat": 35.328861,
            "lon": 127.71299,
            "ele": 1722.308
        },
        {
            "path_id": 34,
            "name": "연하봉",
            "lat": 35.328045,
            "lon": 127.710526,
            "ele": 1742.085
        },
        {
            "path_id": 36,
            "name": "촛대봉",
            "lat": 35.316044,
            "lon": 127.700233,
            "ele": 1683.773
        },
        {
            "path_id": 37,
            "name": "갈림길",
            "lat": 35.316128,
            "lon": 127.700027,
            "ele": 1687.076
        },
        {
            "path_id": 38,
            "name": "갈림길",
            "lat": 35.31797,
            "lon": 127.693306,
            "ele": 1625.25
        },
        {
            "path_id": 39,
            "name": "갈림길",
            "lat": 35.317146,
            "lon": 127.693298,
            "ele": 1591.377
        },
        {
            "path_id": 40,
            "name": "갈림길",
            "lat": 35.314487,
            "lon": 127.691139,
            "ele": 1581.286
        },
        {
            "path_id": 41,
            "name": "갈림길",
            "lat": 35.314487,
            "lon": 127.691139,
            "ele": 1581.286
        },
        {
            "path_id": 42,
            "name": "데크길",
            "lat": 35.309189,
            "lon": 127.692131,
            "ele": 1483.612
        },
        {
            "path_id": 43,
            "name": "데크길",
            "lat": 35.307377,
            "lon": 127.693817,
            "ele": 1441.666
        },
        {
            "path_id": 44,
            "name": "거림탐방지원센타",
            "lat": 35.285034,
            "lon": 127.718338,
            "ele": 746.736
        }
    ]
}