[
    {
        "path_id": 1,
        "name": "석골사",
        "lat": 35.615387,
        "lon": 128.927338
    },
    {
        "path_id": 3,
        "name": "석골사 해우소",
        "lat": 35.615921,
        "lon": 128.927628
    },
    {
        "path_id": 4,
        "name": "안내도",
        "lat": 35.616474,
        "lon": 128.928299
    },
    {
        "path_id": 5,
        "name": "갈림길",
        "lat": 35.616623,
        "lon": 128.928299
    },
    {
        "path_id": 13,
        "name": "상운암",
        "lat": 35.618416,
        "lon": 128.956467
    },
    {
        "path_id": 14,
        "name": "정구지바위",
        "lat": 35.620102,
        "lon": 128.943924
    },
    {
        "path_id": 15,
        "name": "갈림길",
        "lat": 35.620075,
        "lon": 128.943893
    }
]