{
  "max_ele": 1066.031,
  "total_length_km": "5.2km",
  "total_time": "1시간 4분",
  "start_name": "댓재주차장",
  "end_name": "삼각점",
  "track": [
    {
      "path_id": 0,
      "path": [
        {
          "lat": 37.384903,
          "lng": 129.012466
        },
        {
          "lat": 37.385078,
          "lng": 129.012589
        }
      ],
      "color": "#2f54b0",
      "start_name": "댓재주차장 / 댓재조망대 / 댓재조형물",
      "length_meter": 110.1,
      "time_minute": 1
    },
    {
      "path_id": 1,
      "path": [
        {
          "lat": 37.385078,
          "lng": 129.012589
        },
        {
          "lat": 37.384998,
          "lng": 129.012146
        }
      ],
      "color": "#a1076c",
      "start_name": "댓재휴게소",
      "length_meter": 40.1,
      "time_minute": 0
    },
    {
      "path_id": 2,
      "path": [
        {
          "lat": 37.384998,
          "lng": 129.012146
        },
        {
          "lat": 37.38868,
          "lng": 129.014954
        }
      ],
      "color": "#7a609a",
      "start_name": "댓재화장실 / 갈림길",
      "length_meter": 496.8,
      "time_minute": 8
    },
    {
      "path_id": 3,
      "path": [
        {
          "lat": 37.38868,
          "lng": 129.014954
        },
        {
          "lat": 37.390862,
          "lng": 129.016495
        }
      ],
      "color": "#871a7d",
      "start_name": "간이쉼터",
      "length_meter": 278.2,
      "time_minute": 3
    },
    {
      "path_id": 4,
      "path": [
        {
          "lat": 37.390862,
          "lng": 129.016495
        },
        {
          "lat": 37.391541,
          "lng": 129.011749
        }
      ],
      "color": "#bc29b7",
      "start_name": "햇댓등",
      "length_meter": 426.0,
      "time_minute": 5
    },
    {
      "path_id": 5,
      "path": [
        {
          "lat": 37.391541,
          "lng": 129.011749
        },
        {
          "lat": 37.391323,
          "lng": 129.009369
        }
      ],
      "color": "#20885a",
      "start_name": "갈림길",
      "length_meter": 211.7,
      "time_minute": 2
    },
    {
      "path_id": 6,
      "path": [
        {
          "lat": 37.391323,
          "lng": 129.009369
        },
        {
          "lat": 37.412277,
          "lng": 129.008575
        }
      ],
      "color": "#c4b605",
      "start_name": "급경사지",
      "length_meter": 2331.0,
      "time_minute": 29
    },
    {
      "path_id": 7,
      "path": [
        {
          "lat": 37.412277,
          "lng": 129.008575
        },
        {
          "lat": 37.401035,
          "lng": 129.004639
        }
      ],
      "color": "#525ac4",
      "start_name": "갈림길",
      "length_meter": 1297.5,
      "time_minute": 16
    }
  ]
}