[
  {
    "path_id": 0,
    "path": [
      {
        "lat": 37.384903,
        "lng": 129.012466
      },
      {
        "lat": 37.384945,
        "lng": 129.013
      }
    ],
    "color": "#96ab8f",
    "start_name": "댓재주차장 / 댓재조망대",
    "length_meter": 70.9,
    "time_minute": 1
  },
  {
    "path_id": 1,
    "path": [
      {
        "lat": 37.384945,
        "lng": 129.013
      },
      {
        "lat": 37.384998,
        "lng": 129.012146
      }
    ],
    "color": "#9dbb00",
    "start_name": "댓재조형물 / 댓재휴게소",
    "length_meter": 79.3,
    "time_minute": 1
  },
  {
    "path_id": 2,
    "path": [
      {
        "lat": 37.384998,
        "lng": 129.012146
      },
      {
        "lat": 37.38868,
        "lng": 129.014954
      }
    ],
    "color": "#176305",
    "start_name": "댓재화장실 / 갈림길",
    "length_meter": 496.8,
    "time_minute": 8
  },
  {
    "path_id": 3,
    "path": [
      {
        "lat": 37.38868,
        "lng": 129.014954
      },
      {
        "lat": 37.390862,
        "lng": 129.016495
      }
    ],
    "color": "#1ca47e",
    "start_name": "간이쉼터",
    "length_meter": 278.2,
    "time_minute": 4
  },
  {
    "path_id": 4,
    "path": [
      {
        "lat": 37.390862,
        "lng": 129.016495
      },
      {
        "lat": 37.391541,
        "lng": 129.011749
      }
    ],
    "color": "#9693b5",
    "start_name": "햇댓등",
    "length_meter": 426.0,
    "time_minute": 7
  },
  {
    "path_id": 5,
    "path": [
      {
        "lat": 37.391541,
        "lng": 129.011749
      },
      {
        "lat": 37.391323,
        "lng": 129.009369
      }
    ],
    "color": "#965157",
    "start_name": "갈림길",
    "length_meter": 211.7,
    "time_minute": 3
  },
  {
    "path_id": 6,
    "path": [
      {
        "lat": 37.391323,
        "lng": 129.009369
      },
      {
        "lat": 37.412277,
        "lng": 129.008575
      }
    ],
    "color": "#90be0a",
    "start_name": "급경사지",
    "length_meter": 2331.0,
    "time_minute": 38
  },
  {
    "path_id": 7,
    "path": [
      {
        "lat": 37.412277,
        "lng": 129.008575
      },
      {
        "lat": 37.401035,
        "lng": 129.004639
      }
    ],
    "color": "#1ab19f",
    "start_name": "갈림길",
    "length_meter": 1297.5,
    "time_minute": 21
  }
]