{
    "max_ele": 1359.866,
    "track": [
        {
            "path_id": 1,
            "name": "영월공영 행복버스",
            "lat": 37.38179,
            "lon": 128.270859,
            "ele": 0.0
        },
        {
            "path_id": 2,
            "name": "간이화장실",
            "lat": 37.382053,
            "lon": 128.270691,
            "ele": 526.966
        },
        {
            "path_id": 3,
            "name": "흥원사",
            "lat": 37.382919,
            "lon": 128.270416,
            "ele": 0.0
        },
        {
            "path_id": 4,
            "name": "백덕산등산로 입구, 흥원사",
            "lat": 37.383118,
            "lon": 128.271194,
            "ele": 504.957
        },
        {
            "path_id": 5,
            "name": "설통바위",
            "lat": 37.389198,
            "lon": 128.270813,
            "ele": 517.977
        },
        {
            "path_id": 6,
            "name": "갈림길",
            "lat": 37.390495,
            "lon": 128.271454,
            "ele": 534.427
        },
        {
            "path_id": 7,
            "name": "재단터",
            "lat": 37.390942,
            "lon": 128.272949,
            "ele": 571.754
        },
        {
            "path_id": 8,
            "name": "전망대",
            "lat": 37.394619,
            "lon": 128.278412,
            "ele": 856.253
        },
        {
            "path_id": 9,
            "name": "웨이포인트 9",
            "lat": 37.394635,
            "lon": 128.278569,
            "ele": 880.784
        },
        {
            "path_id": 10,
            "name": "웨이포인트 10",
            "lat": 37.397178,
            "lon": 128.282506,
            "ele": 977.346
        },
        {
            "path_id": 11,
            "name": "웨이포인트 11",
            "lat": 37.397091,
            "lon": 128.283599,
            "ele": 1006.101
        },
        {
            "path_id": 12,
            "name": "낙타바위 전망대",
            "lat": 37.396992,
            "lon": 128.285797,
            "ele": 1066.819
        },
        {
            "path_id": 13,
            "name": "추락주의",
            "lat": 37.397076,
            "lon": 128.286835,
            "ele": 1100.147
        },
        {
            "path_id": 14,
            "name": "용바위",
            "lat": 37.397186,
            "lon": 128.291504,
            "ele": 1229.42
        },
        {
            "path_id": 15,
            "name": "백덕산정상  가기 전 바위",
            "lat": 37.396717,
            "lon": 128.291611,
            "ele": 1272.568
        },
        {
            "path_id": 16,
            "name": "갈림길",
            "lat": 37.396553,
            "lon": 128.29332,
            "ele": 1330.476
        },
        {
            "path_id": 17,
            "name": "백덕산정상",
            "lat": 37.396538,
            "lon": 128.293381,
            "ele": 1344.904
        },
        {
            "path_id": 18,
            "name": "웨이포인트 18",
            "lat": 37.394449,
            "lon": 128.294478,
            "ele": 1359.866
        },
        {
            "path_id": 19,
            "name": "갈림길",
            "lat": 37.389374,
            "lon": 128.297348,
            "ele": 1299.903
        },
        {
            "path_id": 20,
            "name": "웨이포인트 20",
            "lat": 37.38927,
            "lon": 128.297998,
            "ele": 1293.038
        },
        {
            "path_id": 21,
            "name": "부부바위전망대",
            "lat": 37.389271,
            "lon": 128.298004,
            "ele": 1293.038
        },
        {
            "path_id": 22,
            "name": "갈림길",
            "lat": 37.388203,
            "lon": 128.297043,
            "ele": 1272.319
        },
        {
            "path_id": 23,
            "name": "촛대바위",
            "lat": 37.388168,
            "lon": 128.296982,
            "ele": 1271.399
        },
        {
            "path_id": 24,
            "name": "급경사",
            "lat": 37.387161,
            "lon": 128.296616,
            "ele": 1262.665
        },
        {
            "path_id": 25,
            "name": "갈림길",
            "lat": 37.381641,
            "lon": 128.295441,
            "ele": 1157.328
        },
        {
            "path_id": 26,
            "name": "신선바위가기전 전망대",
            "lat": 37.381226,
            "lon": 128.294876,
            "ele": 1150.969
        },
        {
            "path_id": 27,
            "name": "웨이포인트 27",
            "lat": 37.381227,
            "lon": 128.294914,
            "ele": 1150.204
        },
        {
            "path_id": 28,
            "name": "위험구간",
            "lat": 37.381191,
            "lon": 128.294937,
            "ele": 1147.754
        },
        {
            "path_id": 29,
            "name": "신선바위",
            "lat": 37.381004,
            "lon": 128.294861,
            "ele": 1145.162
        },
        {
            "path_id": 30,
            "name": "웨이포인트 30",
            "lat": 37.380932,
            "lon": 128.294818,
            "ele": 1144.657
        },
        {
            "path_id": 31,
            "name": "갈림길",
            "lat": 37.380371,
            "lon": 128.294556,
            "ele": 1141.269
        },
        {
            "path_id": 32,
            "name": "웨이포인트 32",
            "lat": 37.380335,
            "lon": 128.294506,
            "ele": 1140.924
        },
        {
            "path_id": 33,
            "name": "흥원사 대략 1Km전",
            "lat": 37.380817,
            "lon": 128.281433,
            "ele": 904.185
        },
        {
            "path_id": 34,
            "name": "갈림길",
            "lat": 37.382191,
            "lon": 128.271088,
            "ele": 594.203
        },
        {
            "path_id": 35,
            "name": "백덕산등산로입구, 백년계곡",
            "lat": 37.382076,
            "lon": 128.271042,
            "ele": 568.904
        },
        {
            "path_id": 36,
            "name": "웨이포인트 1",
            "lat": 37.382029,
            "lon": 128.270746,
            "ele": 505.67
        }
    ]
}