[
    {
        "path_id": 1,
        "name": "학천정",
        "lat": 36.672539,
        "lon": 127.9617
    },
    {
        "path_id": 2,
        "name": "용추골 입구 화장실",
        "lat": 36.672493,
        "lon": 127.961639
    },
    {
        "path_id": 3,
        "name": "무당소",
        "lat": 36.669994,
        "lon": 127.960434
    },
    {
        "path_id": 4,
        "name": "대야산자연휴양림",
        "lat": 36.669933,
        "lon": 127.960831
    },
    {
        "path_id": 5,
        "name": "대야산자연휴양림주차장",
        "lat": 36.669609,
        "lon": 127.961487
    },
    {
        "path_id": 6,
        "name": "갈림길",
        "lat": 36.668404,
        "lon": 127.961853
    },
    {
        "path_id": 7,
        "name": "대야산자연휴양림내 쉼터",
        "lat": 36.668205,
        "lon": 127.961914
    },
    {
        "path_id": 9,
        "name": "갈림길",
        "lat": 36.664848,
        "lon": 127.963326
    },
    {
        "path_id": 10,
        "name": "뱀 독충주의표지판",
        "lat": 36.664879,
        "lon": 127.963356
    },
    {
        "path_id": 11,
        "name": "둔덕산등산안내도",
        "lat": 36.662598,
        "lon": 127.964897
    },
    {
        "path_id": 12,
        "name": "갈림길",
        "lat": 36.662506,
        "lon": 127.964935
    },
    {
        "path_id": 13,
        "name": "둔덕산이정표지목",
        "lat": 36.661411,
        "lon": 127.965233
    },
    {
        "path_id": 14,
        "name": "국가지점번호",
        "lat": 36.658314,
        "lon": 127.965675
    },
    {
        "path_id": 15,
        "name": "구조표지목",
        "lat": 36.656868,
        "lon": 127.965965
    },
    {
        "path_id": 16,
        "name": "둔덕산이정표지목,국가지점표지판",
        "lat": 36.656494,
        "lon": 127.966179
    },
    {
        "path_id": 17,
        "name": "둔덕산가는길",
        "lat": 36.655163,
        "lon": 127.96682
    },
    {
        "path_id": 18,
        "name": "산악위치표지판",
        "lat": 36.654461,
        "lon": 127.966927
    },
    {
        "path_id": 19,
        "name": "추락주의구간",
        "lat": 36.654449,
        "lon": 127.966927
    },
    {
        "path_id": 20,
        "name": "풍혈지대",
        "lat": 36.653309,
        "lon": 127.966911
    },
    {
        "path_id": 21,
        "name": "산악위치표지판",
        "lat": 36.653061,
        "lon": 127.966858
    },
    {
        "path_id": 22,
        "name": "구조목표지판",
        "lat": 36.651497,
        "lon": 127.966751
    },
    {
        "path_id": 23,
        "name": "산악위치표지판",
        "lat": 36.650543,
        "lon": 127.966644
    },
    {
        "path_id": 24,
        "name": "갈림길",
        "lat": 36.650459,
        "lon": 127.96669
    },
    {
        "path_id": 25,
        "name": "둔덕산",
        "lat": 36.651375,
        "lon": 127.971107
    },
    {
        "path_id": 26,
        "name": "구조표지목",
        "lat": 36.651348,
        "lon": 127.971054
    },
    {
        "path_id": 27,
        "name": "국가지점번호",
        "lat": 36.648956,
        "lon": 127.964104
    },
    {
        "path_id": 28,
        "name": "구조목이정표",
        "lat": 36.648674,
        "lon": 127.963509
    },
    {
        "path_id": 29,
        "name": "산악위치표지판",
        "lat": 36.646729,
        "lon": 127.961113
    },
    {
        "path_id": 30,
        "name": "구조표지목",
        "lat": 36.646748,
        "lon": 127.958588
    },
    {
        "path_id": 31,
        "name": "산악위치표지판",
        "lat": 36.646942,
        "lon": 127.956955
    },
    {
        "path_id": 32,
        "name": "국가지점번호",
        "lat": 36.648003,
        "lon": 127.95533
    },
    {
        "path_id": 33,
        "name": "산악위치표지판",
        "lat": 36.649155,
        "lon": 127.954079
    },
    {
        "path_id": 34,
        "name": "구조표지목",
        "lat": 36.650002,
        "lon": 127.952972
    },
    {
        "path_id": 35,
        "name": "갈림길",
        "lat": 36.650616,
        "lon": 127.951439
    },
    {
        "path_id": 36,
        "name": "산악위치표지판",
        "lat": 36.650631,
        "lon": 127.951416
    },
    {
        "path_id": 37,
        "name": "손녀마귀통시바위",
        "lat": 36.650131,
        "lon": 127.94883
    },
    {
        "path_id": 39,
        "name": "손녀마귀통시바위 조망점",
        "lat": 36.650181,
        "lon": 127.948608
    },
    {
        "path_id": 40,
        "name": "조망점",
        "lat": 36.650352,
        "lon": 127.947906
    },
    {
        "path_id": 41,
        "name": "젖꼭지바위",
        "lat": 36.650345,
        "lon": 127.947914
    },
    {
        "path_id": 42,
        "name": "복주머니바위",
        "lat": 36.650421,
        "lon": 127.94751
    },
    {
        "path_id": 43,
        "name": "마귀할미통시바위",
        "lat": 36.650726,
        "lon": 127.942078
    },
    {
        "path_id": 45,
        "name": "갈림길",
        "lat": 36.650349,
        "lon": 127.941055
    },
    {
        "path_id": 47,
        "name": "집채바위",
        "lat": 36.655235,
        "lon": 127.931343
    },
    {
        "path_id": 48,
        "name": "갈림길",
        "lat": 36.661163,
        "lon": 127.931656
    },
    {
        "path_id": 49,
        "name": "밀재삼거리",
        "lat": 36.661137,
        "lon": 127.931679
    },
    {
        "path_id": 50,
        "name": "밀재표지판",
        "lat": 36.661137,
        "lon": 127.931679
    },
    {
        "path_id": 51,
        "name": "구조표지목",
        "lat": 36.663452,
        "lon": 127.931099
    },
    {
        "path_id": 52,
        "name": "코끼리바위",
        "lat": 36.664326,
        "lon": 127.931725
    },
    {
        "path_id": 53,
        "name": "구조표지목",
        "lat": 36.665611,
        "lon": 127.931664
    },
    {
        "path_id": 54,
        "name": "농바위",
        "lat": 36.665745,
        "lon": 127.931313
    },
    {
        "path_id": 55,
        "name": "조망점",
        "lat": 36.665951,
        "lon": 127.931343
    },
    {
        "path_id": 56,
        "name": "대문바위",
        "lat": 36.666119,
        "lon": 127.931076
    },
    {
        "path_id": 57,
        "name": "추락주의",
        "lat": 36.666161,
        "lon": 127.930908
    },
    {
        "path_id": 59,
        "name": "대야산조망점",
        "lat": 36.668018,
        "lon": 127.929108
    },
    {
        "path_id": 60,
        "name": "탐방금지구역",
        "lat": 36.668274,
        "lon": 127.929077
    },
    {
        "path_id": 61,
        "name": "추락주의",
        "lat": 36.668663,
        "lon": 127.929291
    },
    {
        "path_id": 63,
        "name": "집중단속",
        "lat": 36.669159,
        "lon": 127.929504
    },
    {
        "path_id": 64,
        "name": "대야산",
        "lat": 36.66917,
        "lon": 127.929504
    },
    {
        "path_id": 65,
        "name": "갈림길",
        "lat": 36.668964,
        "lon": 127.929466
    },
    {
        "path_id": 66,
        "name": "미끄럼주의",
        "lat": 36.668835,
        "lon": 127.929794
    },
    {
        "path_id": 67,
        "name": "이정구조표지목",
        "lat": 36.667717,
        "lon": 127.931686
    },
    {
        "path_id": 68,
        "name": "구조표지목",
        "lat": 36.668346,
        "lon": 127.935631
    },
    {
        "path_id": 69,
        "name": "낙서주의",
        "lat": 36.668713,
        "lon": 127.936279
    },
    {
        "path_id": 70,
        "name": "낙석주의",
        "lat": 36.669086,
        "lon": 127.936638
    },
    {
        "path_id": 71,
        "name": "구조표지목",
        "lat": 36.667862,
        "lon": 127.943619
    },
    {
        "path_id": 73,
        "name": "갈림길",
        "lat": 36.666733,
        "lon": 127.946953
    },
    {
        "path_id": 74,
        "name": "월영대",
        "lat": 36.66658,
        "lon": 127.947083
    },
    {
        "path_id": 75,
        "name": "월영대삼거리쉼터",
        "lat": 36.666622,
        "lon": 127.947121
    },
    {
        "path_id": 76,
        "name": "구조표지목",
        "lat": 36.667915,
        "lon": 127.953896
    },
    {
        "path_id": 77,
        "name": "용추계곡쉼터",
        "lat": 36.667896,
        "lon": 127.954262
    },
    {
        "path_id": 78,
        "name": "탐방안내소",
        "lat": 36.667702,
        "lon": 127.956558
    },
    {
        "path_id": 79,
        "name": "미끄럼주의표지판",
        "lat": 36.667953,
        "lon": 127.958054
    },
    {
        "path_id": 80,
        "name": "용추소",
        "lat": 36.668011,
        "lon": 127.958069
    },
    {
        "path_id": 81,
        "name": "용소바위",
        "lat": 36.669239,
        "lon": 127.959633
    },
    {
        "path_id": 82,
        "name": "종합안내판",
        "lat": 36.670265,
        "lon": 127.960129
    },
    {
        "path_id": 83,
        "name": "숙박및 식당상가",
        "lat": 36.670586,
        "lon": 127.960251
    }
]