[
    {
        "name": "명지산 입구",
        "lat": 37.935547,
        "lon": 127.489571
    },
    {
        "name": "안성집",
        "lat": 37.935555,
        "lon": 127.489182
    },
    {
        "name": "공중화장실",
        "lat": 37.935604,
        "lon": 127.489105
    },
    {
        "name": "명지천",
        "lat": 37.935547,
        "lon": 127.487617
    },
    {
        "name": "관광안내도",
        "lat": 37.935627,
        "lon": 127.487373
    },
    {
        "name": "명지산 종합안내판",
        "lat": 37.935787,
        "lon": 127.486961
    },
    {
        "name": "자연학습원",
        "lat": 37.935692,
        "lon": 127.487183
    },
    {
        "name": "쉼터",
        "lat": 37.935959,
        "lon": 127.486465
    },
    {
        "name": "잣나무 군락지",
        "lat": 37.938766,
        "lon": 127.483543
    },
    {
        "name": "갈림길",
        "lat": 37.940659,
        "lon": 127.480316
    },
    {
        "name": "갈림길",
        "lat": 37.940708,
        "lon": 127.480278
    },
    {
        "name": "갈림길",
        "lat": 37.942341,
        "lon": 127.479637
    },
    {
        "name": "갈림길",
        "lat": 37.942337,
        "lon": 127.479584
    },
    {
        "name": "갈림길",
        "lat": 37.942547,
        "lon": 127.475693
    },
    {
        "name": "갈림길",
        "lat": 37.942993,
        "lon": 127.471931
    },
    {
        "name": "갈림길",
        "lat": 37.944843,
        "lon": 127.46756
    },
    {
        "name": "사향봉",
        "lat": 37.945206,
        "lon": 127.457642
    },
    {
        "name": "사향봉 근처 야생화",
        "lat": 37.946274,
        "lon": 127.454414
    },
    {
        "name": "갈림길",
        "lat": 37.946903,
        "lon": 127.452881
    },
    {
        "name": "장막봉",
        "lat": 37.946911,
        "lon": 127.45285
    },
    {
        "name": "명지산 부근 야생화",
        "lat": 37.943367,
        "lon": 127.442856
    },
    {
        "name": "갈림길",
        "lat": 37.942753,
        "lon": 127.441101
    },
    {
        "name": "갈림길",
        "lat": 37.942375,
        "lon": 127.434212
    },
    {
        "name": "명지산 야생화",
        "lat": 37.941956,
        "lon": 127.433258
    },
    {
        "name": "명지산 야생화",
        "lat": 37.941826,
        "lon": 127.433205
    },
    {
        "name": "갈림길",
        "lat": 37.941437,
        "lon": 127.432465
    },
    {
        "name": "갈림길",
        "lat": 37.941437,
        "lon": 127.432465
    },
    {
        "name": "갈림길",
        "lat": 37.941437,
        "lon": 127.432465
    },
    {
        "name": "명지산 정상석",
        "lat": 37.941265,
        "lon": 127.432411
    },
    {
        "name": "명지천 냇물",
        "lat": 37.936073,
        "lon": 127.448608
    },
    {
        "name": "명지천 합류점",
        "lat": 37.935062,
        "lon": 127.448814
    },
    {
        "name": "갈림길",
        "lat": 37.934673,
        "lon": 127.449181
    },
    {
        "name": "명지천",
        "lat": 37.934563,
        "lon": 127.449188
    },
    {
        "name": "보전지역의  동.식물",
        "lat": 37.934284,
        "lon": 127.44944
    },
    {
        "name": "명지천",
        "lat": 37.934303,
        "lon": 127.449959
    },
    {
        "name": "갈림길",
        "lat": 37.933823,
        "lon": 127.45356
    },
    {
        "name": "명지천",
        "lat": 37.933697,
        "lon": 127.455208
    },
    {
        "name": "명지천 생태계 보전지역",
        "lat": 37.935097,
        "lon": 127.462578
    },
    {
        "name": "생태계 보전지역",
        "lat": 37.935295,
        "lon": 127.462891
    },
    {
        "name": "생태계 보전지역",
        "lat": 37.935299,
        "lon": 127.462852
    },
    {
        "name": "명지계곡",
        "lat": 37.934437,
        "lon": 127.473602
    },
    {
        "name": "승천사 사찰",
        "lat": 37.934559,
        "lon": 127.476654
    },
    {
        "name": "승천사 사탑",
        "lat": 37.935413,
        "lon": 127.478233
    },
    {
        "name": "갈림길",
        "lat": 37.936508,
        "lon": 127.484558
    },
    {
        "name": "갈림길",
        "lat": 37.936493,
        "lon": 127.485085
    },
    {
        "name": "명지산 안내소",
        "lat": 37.935898,
        "lon": 127.486649
    },
    {
        "name": "명지산 생태전시관",
        "lat": 37.935612,
        "lon": 127.487495
    }
]