[
    {
        "name": "갈림길",
        "lat": 37.936451,
        "lon": 127.481201
    },
    {
        "name": "명지산승천사",
        "lat": 37.936462,
        "lon": 127.481155
    },
    {
        "name": "갈림길",
        "lat": 37.933498,
        "lon": 127.45945
    },
    {
        "name": "명지폭포 국가지점번호",
        "lat": 37.933441,
        "lon": 127.459396
    },
    {
        "name": "명지폭포",
        "lat": 37.933083,
        "lon": 127.459724
    },
    {
        "name": "명지폭포",
        "lat": 37.932964,
        "lon": 127.459694
    },
    {
        "name": "명지2봉 가는 계곡길",
        "lat": 37.934559,
        "lon": 127.448174
    },
    {
        "name": "통신탑",
        "lat": 37.935085,
        "lon": 127.445656
    },
    {
        "name": "갈림길",
        "lat": 37.935528,
        "lon": 127.443001
    },
    {
        "name": "명지2봉 근처 가을단풍",
        "lat": 37.932961,
        "lon": 127.436554
    },
    {
        "name": "갈림길",
        "lat": 37.931778,
        "lon": 127.43499
    },
    {
        "name": "명지2봉 에서 바라본 명지산1봉",
        "lat": 37.933495,
        "lon": 127.431046
    },
    {
        "name": "명지산 정상풍경",
        "lat": 37.937073,
        "lon": 127.430984
    },
    {
        "name": "갈림길",
        "lat": 37.940216,
        "lon": 127.432602
    }
]