[
    {
        "path_id": 1,
        "name": "가위박물관앞 화장실",
        "lat": 35.767159,
        "lon": 127.413429
    },
    {
        "path_id": 2,
        "name": "마이사 쉼터",
        "lat": 35.765533,
        "lon": 127.414917
    },
    {
        "path_id": 3,
        "name": "마이산안내판",
        "lat": 35.765015,
        "lon": 127.415123
    },
    {
        "path_id": 4,
        "name": "계단중간쉼터",
        "lat": 35.763306,
        "lon": 127.415161
    },
    {
        "path_id": 5,
        "name": "천왕문",
        "lat": 35.761501,
        "lon": 127.414497
    },
    {
        "path_id": 6,
        "name": "천왕문 분수령 쉼터",
        "lat": 35.761505,
        "lon": 127.414459
    },
    {
        "path_id": 7,
        "name": "갈림길",
        "lat": 35.762112,
        "lon": 127.414696
    },
    {
        "path_id": 8,
        "name": "갈림길",
        "lat": 35.762173,
        "lon": 127.414703
    },
    {
        "path_id": 9,
        "name": "연인의길시작 쉼터",
        "lat": 35.762917,
        "lon": 127.415665
    },
    {
        "path_id": 10,
        "name": "쉼터",
        "lat": 35.76593,
        "lon": 127.417419
    },
    {
        "path_id": 11,
        "name": "마이산조망점 쉼터",
        "lat": 35.767784,
        "lon": 127.416008
    },
    {
        "path_id": 12,
        "name": "마이산 조망점",
        "lat": 35.767788,
        "lon": 127.416061
    },
    {
        "path_id": 13,
        "name": "갈림길",
        "lat": 35.767101,
        "lon": 127.414497
    }
]