[
    {
        "path_id": 1,
        "name": "식당골목",
        "lat": 36.532185,
        "lon": 127.823181
    },
    {
        "path_id": 2,
        "name": "연꽃화장싵",
        "lat": 36.534973,
        "lon": 127.827721
    },
    {
        "path_id": 3,
        "name": "매표소",
        "lat": 36.534912,
        "lon": 127.827766
    },
    {
        "path_id": 4,
        "name": "갈림길",
        "lat": 36.538124,
        "lon": 127.829819
    },
    {
        "path_id": 5,
        "name": "남산화장실",
        "lat": 36.539955,
        "lon": 127.835587
    },
    {
        "path_id": 6,
        "name": "매점",
        "lat": 36.538128,
        "lon": 127.843216
    },
    {
        "path_id": 7,
        "name": "간이화장실",
        "lat": 36.542076,
        "lon": 127.846542
    },
    {
        "path_id": 8,
        "name": "탈골암화장실",
        "lat": 36.542263,
        "lon": 127.846733
    },
    {
        "path_id": 9,
        "name": "갈림길",
        "lat": 36.542294,
        "lon": 127.846863
    },
    {
        "path_id": 11,
        "name": "세심정",
        "lat": 36.547794,
        "lon": 127.853149
    },
    {
        "path_id": 12,
        "name": "세심정화장실",
        "lat": 36.548233,
        "lon": 127.853218
    },
    {
        "path_id": 13,
        "name": "매점",
        "lat": 36.553207,
        "lon": 127.851959
    },
    {
        "path_id": 14,
        "name": "보현재 휴게소",
        "lat": 36.557579,
        "lon": 127.850754
    },
    {
        "path_id": 15,
        "name": "낙석위험지역",
        "lat": 36.55941,
        "lon": 127.852943
    },
    {
        "path_id": 16,
        "name": "갈림길",
        "lat": 36.560253,
        "lon": 127.853661
    },
    {
        "path_id": 17,
        "name": "낙석주의",
        "lat": 36.559944,
        "lon": 127.856514
    },
    {
        "path_id": 20,
        "name": "냉천골 휴게소",
        "lat": 36.561436,
        "lon": 127.859055
    },
    {
        "path_id": 21,
        "name": "낙뢰다발지역",
        "lat": 36.56588,
        "lon": 127.862663
    },
    {
        "path_id": 22,
        "name": "안내판",
        "lat": 36.566238,
        "lon": 127.862724
    },
    {
        "path_id": 23,
        "name": "문장대",
        "lat": 36.567348,
        "lon": 127.862366
    },
    {
        "path_id": 24,
        "name": "갈림길",
        "lat": 36.566193,
        "lon": 127.862762
    },
    {
        "path_id": 25,
        "name": "신선대휴게소",
        "lat": 36.560333,
        "lon": 127.869499
    },
    {
        "path_id": 26,
        "name": "갈림길",
        "lat": 36.559113,
        "lon": 127.870705
    },
    {
        "path_id": 27,
        "name": "자연경관",
        "lat": 36.550201,
        "lon": 127.871712
    },
    {
        "path_id": 28,
        "name": "갈림길",
        "lat": 36.547779,
        "lon": 127.871735
    },
    {
        "path_id": 30,
        "name": "천왕봉",
        "lat": 36.543209,
        "lon": 127.870796
    },
    {
        "path_id": 31,
        "name": "갈림길",
        "lat": 36.549946,
        "lon": 127.867653
    },
    {
        "path_id": 33,
        "name": "상황석문",
        "lat": 36.547451,
        "lon": 127.861305
    },
    {
        "path_id": 34,
        "name": "갈림길",
        "lat": 36.5471,
        "lon": 127.859398
    }
]