[
  {
    "path_id": 0,
    "path": [
      {
        "lat": 35.801517,
        "lng": 128.142136
      },
      {
        "lat": 35.802654,
        "lng": 128.142136
      }
    ],
    "color": "#5ec00f",
    "start_name": "백운동주차장화장실 / 식당",
    "length_meter": 134.8,
    "time_minute": 2
  },
  {
    "path_id": 1,
    "path": [
      {
        "lat": 35.802654,
        "lng": 128.142136
      },
      {
        "lat": 35.803925,
        "lng": 128.141769
      }
    ],
    "color": "#aeef75",
    "start_name": "야생화식물원",
    "length_meter": 145.2,
    "time_minute": 2
  },
  {
    "path_id": 2,
    "path": [
      {
        "lat": 35.803925,
        "lng": 128.141769
      },
      {
        "lat": 35.803833,
        "lng": 128.13887
      }
    ],
    "color": "#1c4887",
    "start_name": "백운동 탐방지원센터 / 갈림길 10",
    "length_meter": 272.2,
    "time_minute": 4
  },
  {
    "path_id": 3,
    "path": [
      {
        "lat": 35.803833,
        "lng": 128.13887
      },
      {
        "lat": 35.804153,
        "lng": 128.137451
      }
    ],
    "color": "#97e2ca",
    "start_name": "심장안전쉼터",
    "length_meter": 132.8,
    "time_minute": 2
  },
  {
    "path_id": 4,
    "path": [
      {
        "lat": 35.804153,
        "lng": 128.137451
      },
      {
        "lat": 35.804466,
        "lng": 128.136658
      }
    ],
    "color": "#17c2ab",
    "start_name": "낙석주의",
    "length_meter": 79.5,
    "time_minute": 1
  },
  {
    "path_id": 5,
    "path": [
      {
        "lat": 35.804466,
        "lng": 128.136658
      },
      {
        "lat": 35.805626,
        "lng": 128.13559
      }
    ],
    "color": "#e812e0",
    "start_name": "심장안전쉼터",
    "length_meter": 161.0,
    "time_minute": 2
  },
  {
    "path_id": 6,
    "path": [
      {
        "lat": 35.805626,
        "lng": 128.13559
      },
      {
        "lat": 35.807278,
        "lng": 128.133667
      }
    ],
    "color": "#6d22c6",
    "start_name": "자연경관",
    "length_meter": 252.6,
    "time_minute": 4
  },
  {
    "path_id": 7,
    "path": [
      {
        "lat": 35.807278,
        "lng": 128.133667
      },
      {
        "lat": 35.807812,
        "lng": 128.133438
      }
    ],
    "color": "#a56721",
    "start_name": "심장안전쉼터",
    "length_meter": 62.9,
    "time_minute": 1
  },
  {
    "path_id": 8,
    "path": [
      {
        "lat": 35.807812,
        "lng": 128.133438
      },
      {
        "lat": 35.808475,
        "lng": 128.133423
      }
    ],
    "color": "#86345a",
    "start_name": "양송이? 바위 / 자연경관",
    "length_meter": 73.9,
    "time_minute": 1
  },
  {
    "path_id": 9,
    "path": [
      {
        "lat": 35.808475,
        "lng": 128.133423
      },
      {
        "lat": 35.81007,
        "lng": 128.132828
      }
    ],
    "color": "#5feddb",
    "start_name": "소나무",
    "length_meter": 185.3,
    "time_minute": 3
  },
  {
    "path_id": 10,
    "path": [
      {
        "lat": 35.81007,
        "lng": 128.132828
      },
      {
        "lat": 35.811848,
        "lng": 128.131012
      }
    ],
    "color": "#07c338",
    "start_name": "낙석주위",
    "length_meter": 256.7,
    "time_minute": 4
  },
  {
    "path_id": 11,
    "path": [
      {
        "lat": 35.811848,
        "lng": 128.131012
      },
      {
        "lat": 35.812504,
        "lng": 128.129211
      }
    ],
    "color": "#c0480a",
    "start_name": "소나무가 아파요 / 삿갓바위 / 자연경관",
    "length_meter": 180.3,
    "time_minute": 3
  },
  {
    "path_id": 12,
    "path": [
      {
        "lat": 35.812504,
        "lng": 128.129211
      },
      {
        "lat": 35.813107,
        "lng": 128.123871
      }
    ],
    "color": "#283e02",
    "start_name": "근육맨과 자연경관 / 자연경관",
    "length_meter": 486.2,
    "time_minute": 8
  },
  {
    "path_id": 13,
    "path": [
      {
        "lat": 35.813107,
        "lng": 128.123871
      },
      {
        "lat": 35.815052,
        "lng": 128.122803
      }
    ],
    "color": "#d83fc7",
    "start_name": "상아덤(서장대)",
    "length_meter": 236.7,
    "time_minute": 3
  },
  {
    "path_id": 14,
    "path": [
      {
        "lat": 35.815052,
        "lng": 128.122803
      },
      {
        "lat": 35.804012,
        "lng": 128.141693
      }
    ],
    "color": "#38a829",
    "start_name": "갈림길 30 / 서성재",
    "length_meter": 2101.1,
    "time_minute": 35
  },
  {
    "path_id": 15,
    "path": [
      {
        "lat": 35.804012,
        "lng": 128.141693
      },
      {
        "lat": 35.802822,
        "lng": 128.142151
      }
    ],
    "color": "#456059",
    "start_name": "만물상 탐방로 예약제",
    "length_meter": 138.6,
    "time_minute": 2
  },
  {
    "path_id": 16,
    "path": [
      {
        "lat": 35.802822,
        "lng": 128.142151
      },
      {
        "lat": 35.802288,
        "lng": 128.141663
      }
    ],
    "color": "#7ee337",
    "start_name": "가야호텔사우나",
    "length_meter": 73.9,
    "time_minute": 1
  }
]