[
    {
        "path_id": 1,
        "name": "신안리 마을회관",
        "lat": 36.16153,
        "lon": 127.581795
    },
    {
        "path_id": 2,
        "name": "갈림길",
        "lat": 36.162209,
        "lon": 127.583557
    },
    {
        "path_id": 3,
        "name": "갈림길",
        "lat": 36.163078,
        "lon": 127.585327
    },
    {
        "path_id": 4,
        "name": "등산로 입구",
        "lat": 36.163364,
        "lon": 127.585739
    },
    {
        "path_id": 5,
        "name": "정자",
        "lat": 36.164833,
        "lon": 127.589645
    },
    {
        "path_id": 6,
        "name": "갈림길",
        "lat": 36.165379,
        "lon": 127.593719
    },
    {
        "path_id": 8,
        "name": "기도터",
        "lat": 36.165901,
        "lon": 127.600143
    },
    {
        "path_id": 9,
        "name": "거북바위",
        "lat": 36.164867,
        "lon": 127.600861
    },
    {
        "path_id": 10,
        "name": "갈림길",
        "lat": 36.163795,
        "lon": 127.601463
    },
    {
        "path_id": 11,
        "name": "천태산 정상",
        "lat": 36.159138,
        "lon": 127.600037
    },
    {
        "path_id": 12,
        "name": "화원동 하산 알림판",
        "lat": 36.159092,
        "lon": 127.599525
    },
    {
        "path_id": 13,
        "name": "신음폭포",
        "lat": 36.166424,
        "lon": 127.596771
    }
]