[
    {
        "name": "설악산 소공원",
        "lat": 38.172855,
        "lon": 128.496017
    },
    {
        "name": "소공원 주차장",
        "lat": 38.172752,
        "lon": 128.495377
    },
    {
        "name": "소공원 주차장 화장실",
        "lat": 38.172623,
        "lon": 128.494812
    },
    {
        "name": "설악산 국립공원",
        "lat": 38.172909,
        "lon": 128.492752
    },
    {
        "name": "갈림길",
        "lat": 38.172798,
        "lon": 128.491943
    },
    {
        "name": "임시 우회 탐방로",
        "lat": 38.170986,
        "lon": 128.490631
    },
    {
        "name": "비룡화장실",
        "lat": 38.169678,
        "lon": 128.496689
    },
    {
        "name": "의자",
        "lat": 38.1689,
        "lon": 128.498016
    },
    {
        "name": "금강소나무",
        "lat": 38.168797,
        "lon": 128.498718
    },
    {
        "name": "의자",
        "lat": 38.168789,
        "lon": 128.498947
    },
    {
        "name": "포토존",
        "lat": 38.168713,
        "lon": 128.499359
    },
    {
        "name": "바위의 균열",
        "lat": 38.168594,
        "lon": 128.499634
    },
    {
        "name": "토왕골화장실",
        "lat": 38.168098,
        "lon": 128.502197
    },
    {
        "name": "비룡폭포제1지킴터",
        "lat": 38.168159,
        "lon": 128.502335
    },
    {
        "name": "바위",
        "lat": 38.168053,
        "lon": 128.50238
    },
    {
        "name": "미끄럼주의",
        "lat": 38.166496,
        "lon": 128.502106
    },
    {
        "name": "자연경관",
        "lat": 38.16571,
        "lon": 128.501404
    },
    {
        "name": "자연경관",
        "lat": 38.165413,
        "lon": 128.501068
    },
    {
        "name": "육담폭포",
        "lat": 38.165298,
        "lon": 128.501068
    },
    {
        "name": "포토존",
        "lat": 38.164928,
        "lon": 128.500961
    },
    {
        "name": "육담폭포",
        "lat": 38.164761,
        "lon": 128.501038
    },
    {
        "name": "조망점",
        "lat": 38.164368,
        "lon": 128.501053
    },
    {
        "name": "조망점",
        "lat": 38.164352,
        "lon": 128.501053
    },
    {
        "name": "비룡폭포",
        "lat": 38.162178,
        "lon": 128.501617
    },
    {
        "name": "비룡폭포제2지킴터",
        "lat": 38.16251,
        "lon": 128.501953
    },
    {
        "name": "조망점",
        "lat": 38.170712,
        "lon": 128.49292
    },
    {
        "name": "울산바위",
        "lat": 38.170631,
        "lon": 128.492554
    },
    {
        "name": "포토존",
        "lat": 38.171658,
        "lon": 128.490768
    },
    {
        "name": "외설악 화장실",
        "lat": 38.173302,
        "lon": 128.491104
    },
    {
        "name": "솔향",
        "lat": 38.173187,
        "lon": 128.490448
    },
    {
        "name": "통일염원 사리탑",
        "lat": 38.173306,
        "lon": 128.490494
    },
    {
        "name": "설악지구 전적비",
        "lat": 38.173271,
        "lon": 128.490524
    },
    {
        "name": "설악케이블카",
        "lat": 38.173267,
        "lon": 128.489151
    },
    {
        "name": "케이블카 운행정보",
        "lat": 38.173206,
        "lon": 128.489105
    },
    {
        "name": "식당가",
        "lat": 38.173328,
        "lon": 128.489136
    },
    {
        "name": "신흥사 유물전시관",
        "lat": 38.173801,
        "lon": 128.488373
    },
    {
        "name": "신흥사 일주문",
        "lat": 38.173874,
        "lon": 128.487976
    },
    {
        "name": "설악동탐방지원센터",
        "lat": 38.172871,
        "lon": 128.493057
    },
    {
        "name": "설악산 매표소",
        "lat": 38.172653,
        "lon": 128.494125
    }
]