[
    {
        "path_id": 1,
        "name": "설악산 매표소",
        "lat": 38.172756,
        "lon": 128.494171
    },
    {
        "path_id": 2,
        "name": "통일염원 사리탑",
        "lat": 38.17308,
        "lon": 128.490662
    },
    {
        "path_id": 3,
        "name": "갈림길",
        "lat": 38.173317,
        "lon": 128.490479
    },
    {
        "path_id": 4,
        "name": "통일대불 법당",
        "lat": 38.173813,
        "lon": 128.487274
    },
    {
        "path_id": 5,
        "name": "태풍피해",
        "lat": 38.177551,
        "lon": 128.483459
    },
    {
        "path_id": 6,
        "name": "갈림길",
        "lat": 38.18433,
        "lon": 128.476181
    },
    {
        "path_id": 7,
        "name": "울산바위",
        "lat": 38.18504,
        "lon": 128.474487
    },
    {
        "path_id": 8,
        "name": "계조암석굴",
        "lat": 38.189693,
        "lon": 128.475296
    },
    {
        "path_id": 9,
        "name": "흔들바위",
        "lat": 38.189777,
        "lon": 128.474945
    },
    {
        "path_id": 10,
        "name": "울산바위 전망대",
        "lat": 38.192024,
        "lon": 128.472855
    },
    {
        "path_id": 11,
        "name": "울산바위 계단",
        "lat": 38.19421,
        "lon": 128.474091
    },
    {
        "path_id": 12,
        "name": "의자",
        "lat": 38.194065,
        "lon": 128.474335
    },
    {
        "path_id": 13,
        "name": "전망대",
        "lat": 38.193916,
        "lon": 128.475021
    },
    {
        "path_id": 14,
        "name": "병아리 바위",
        "lat": 38.194019,
        "lon": 128.474747
    },
    {
        "path_id": 15,
        "name": "전망대",
        "lat": 38.19416,
        "lon": 128.47467
    },
    {
        "path_id": 16,
        "name": "계조암",
        "lat": 38.18961,
        "lon": 128.474945
    },
    {
        "path_id": 17,
        "name": "흔들바위",
        "lat": 38.189632,
        "lon": 128.475067
    },
    {
        "path_id": 18,
        "name": "울산바위",
        "lat": 38.188213,
        "lon": 128.475662
    },
    {
        "path_id": 19,
        "name": "울산바위 화장실",
        "lat": 38.187943,
        "lon": 128.475388
    },
    {
        "path_id": 20,
        "name": "내원암",
        "lat": 38.185314,
        "lon": 128.474274
    },
    {
        "path_id": 21,
        "name": "화장실",
        "lat": 38.18346,
        "lon": 128.476456
    },
    {
        "path_id": 22,
        "name": "신흥사 극락보전",
        "lat": 38.176006,
        "lon": 128.484451
    },
    {
        "path_id": 23,
        "name": "신흥사 보제루",
        "lat": 38.175945,
        "lon": 128.484802
    },
    {
        "path_id": 24,
        "name": "신흥사 해우소",
        "lat": 38.175884,
        "lon": 128.484863
    },
    {
        "path_id": 25,
        "name": "금강소나무",
        "lat": 38.17337,
        "lon": 128.490326
    },
    {
        "path_id": 26,
        "name": "신흥사 부도군",
        "lat": 38.172878,
        "lon": 128.49292
    },
    {
        "path_id": 27,
        "name": "소공원 주차장",
        "lat": 38.172588,
        "lon": 128.495087
    }
]